stop_id,stop_lon,parent_station,stop_name,location_type,stop_lat
node/768587345,-4.0893341,,Yopougon Niangon-Terminus 27,0,5.3164439
node/768587373,-4.0804016,,Yopougon Sideci - Terminus 42,0,5.3198783
node/1227889258,-4.0148847,,Gare lagunaire Aqualines du Plateau,0,5.3158647
node/2381298633,-4.0171229,,Agban,0,5.3608351
node/2444131222,-4.018311,,Fraternité Matin,0,5.3438972
node/2460519991,-4.0732432,,Saint André lavage,0,5.3423485
node/2493226931,-4.0238611,,Arrêt,0,5.3413464
node/2493730483,-3.9551669,,Gare Koumassi,0,5.2942027
node/2760843854,-3.945225,,Terminus 05 Lycée Municipal de Koumassi,0,5.3121324
node/2948146673,-4.0832298,,Terminus bus 47,0,5.3396167
node/3067761599,-4.0912463,,Arrêt du Maroc,0,5.3396157
node/3067766555,-4.0973067,,Mosquée du Maroc,0,5.3400629
node/3075945505,-4.0738295,,Saint André,0,5.3423254
node/3137208051,-4.0668084,,[Arret sans nom],0,5.3427541
node/3137217828,-4.0709484,,2 poteaux,0,5.3436761
node/3137243386,-4.0679411,,Newton,0,5.3446768
node/3145728412,-3.979568,,Riviéra 2,0,5.3531115
node/3218806159,-3.9487208,,Eglise Evangélique Internationnal Foursquare,0,5.3117096
node/3326195828,-4.0037743,,Saint Jean,0,5.3368705
node/3666057101,-4.0884501,,Pharmacie Port-Bouët II,0,5.3470567
node/3950172145,-4.0734547,,Figayo,0,5.3493507
node/4029208102,-3.9973698,,"ENA Cocody, Boulevard Latrille",0,5.3616481
node/4107240891,-3.9787018,,Pharmacie de Bietry,0,5.2742845
node/4411562346,-4.061373,,Terminus 85,0,5.3296306
node/4999458824,-4.004071,,Terminus CHU Treichville,0,5.2948647
node/5057165424,-4.011123,,Ex-pharmacie Mockey,0,5.30185
node/5057297311,-4.0039817,,Carrefour St Jean,0,5.3369029
node/5068855021,-3.9933116,,Terminus 704 abobo Belleville,0,5.4158258
node/5143730222,-3.940785,,Terminus M'pouto - CIAD,0,5.328322
node/5143751833,-3.9410686,,Terminus M'pouto - CIAD,0,5.3284442
node/5281604034,-4.0711802,,[Arret sans nom],0,5.3437686
node/5390465849,-4.0374018,,Gare lagunaire Aqualines Yopougon,0,5.3078259
node/5414376221,-4.0205264,,Stif,0,5.3555889
node/5739489700,-4.0623618,,Complexe sportif de Yopougon,0,5.3415133
node/5927302128,-4.073208,,Figayo,0,5.3493427
node/5934409413,-4.1003513,,Arrêt,0,5.3419897
node/5936892363,-4.1020437,,Yopougon Gesco - Terminus du bus 34,0,5.3671401
node/5953580661,-3.967352,,Pharmacie Val de Grace,0,5.3802448
node/5953580667,-3.9593077,,Carrefour Palmeraie,0,5.3618751
node/5953580668,-3.9643623,,Station Shell Riviera 3,0,5.3582581
node/5954541435,-3.9498433,,CIAD,0,5.3286164
node/5954541439,-3.9902179,,Boulevard de France,0,5.3347766
node/5954541440,-4.0024723,,Carrefour de la Vie,0,5.3492831
node/5957239662,-3.991548,,Carrefour 22ème,0,5.3989296
node/5957239663,-3.9931428,,Carrefour Opéra,0,5.3855754
node/5957239665,-3.9975968,,ENA,0,5.3615936
node/5957239666,-4.0050058,,Hotel Ivoire,0,5.328578
node/5958266385,-3.9860303,,Pharmacie Les Laureades,0,5.3975314
node/5958266386,-3.9881294,,Petro Ivoire 7è Tranche,0,5.3806539
node/5958266387,-3.9845519,,Commisariat 30è Art.,0,5.373758
node/5958266388,-3.9813021,,Terminus 202 Attoban,0,5.3701109
node/5958266389,-3.9797109,,Parmacie St Bernard,0,5.3673274
node/5958266390,-3.9782153,,Pharmacie St Ange,0,5.3573659
node/5958266391,-3.9779596,,Collège André Malraux,0,5.3558222
node/5958266392,-3.9773239,,Riviera 2,0,5.3541895
node/6098848385,-4.0207447,,Saint Paul Plateau,0,5.3247785
node/6136850508,-4.0205509,,Hôtel de Ville,0,5.3238162
node/6136850509,-4.0205339,,Hotel de Ville,0,5.3234932
node/6136858285,-4.0205256,,Terminus Hotel de Ville,0,5.3226907
node/6195348341,-4.021322,,Cathédrale Saint paul,0,5.3317403
node/6281030720,-4.0333199,,Terminus bus 51/52,0,5.4148488
node/6474137921,-4.0144508,,Gare Abobo Sogephia,0,5.4351428
node/6474137923,-4.0125419,,BICICI,0,5.4364247
node/6474137925,-4.0147435,,Cours Sociaux,0,5.4382745
node/6474137927,-4.019424,,Avenue Kaza,0,5.4381179
node/6474137929,-4.0202491,,Camp Commando,0,5.4355472
node/6474137931,-4.0200922,,Station Shell,0,5.4306474
node/6474137932,-4.0198488,,Gendarmerie Abobo,0,5.4263959
node/6474137934,-4.0187446,,Terminus Gendarmerie Abobo,0,5.4234101
node/6474137936,-4.0166455,,2ème Arrêt,0,5.4171616
node/6474137938,-4.015971,,Banco,0,5.4131456
node/6474137940,-4.0160152,,Anador,0,5.4089746
node/6474137942,-4.0207427,,Université Nangui Abrogoua,0,5.392647
node/6474137944,-4.0255918,,Macaci,0,5.3774907
node/6474137946,-4.027655,,Gare Nord,0,5.3592442
node/6474137948,-4.0274455,,Gare Nord,0,5.3591608
node/6474137950,-4.0257671,,Grande Mosquée Adjamé,0,5.3533564
node/6474137952,-4.0256668,,Foire de Chine,0,5.347769
node/6474137954,-4.0259753,,Mairie d'Adjamé,0,5.3431984
node/6474137956,-4.0238205,,Terminus tours Administratives,0,5.3312372
node/6474137958,-4.0238801,,Immeuble Sogefiha,0,5.3278045
node/6474137967,-4.0181049,,Gare Sud,0,5.3145043
node/6474137979,-4.019718,,Présidence,0,5.3179651
node/6474137980,-4.0197472,,Galerie du Parc,0,5.3225013
node/6474137981,-4.0247204,,Camp Galliéni,0,5.3339569
node/6474137982,-4.026107,,Institut National de la Santé Publique,0,5.3386571
node/6474137983,-4.0260496,,Mairie d'Adjamé,0,5.343713
node/6474137984,-4.0258452,,Marché Forum,0,5.3459921
node/6474138985,-4.0255664,,Pharmacie du Banco,0,5.3503682
node/6474138986,-4.0259071,,Grande Mosquée Adjamé,0,5.3534527
node/6474138987,-4.028099,,Gare Nord,0,5.3586829
node/6474138988,-4.0263861,,Macaci,0,5.3765774
node/6474138989,-4.021035,,Filtisac,0,5.3906844
node/6474138990,-4.0162969,,Anador,0,5.4085961
node/6474138991,-4.0162419,,Banco,0,5.4135848
node/6474138992,-4.0173344,,Saint-Joseph 2ème Arrêt,0,5.4183764
node/6474138993,-4.0190818,,Terminus Gendarmerie Abobo,0,5.4237125
node/6474138994,-4.020231,,Bar Ivoire Abobo,0,5.4315506
node/6474138995,-4.0203886,,DGI Abobo,0,5.4363436
node/6474138996,-4.0189201,,Avenue Kaza,0,5.4382274
node/6474138997,-4.0138587,,Carrefour Akeïkoi,0,5.4383936
node/6474138999,-4.0190673,,Terminus Gare Sud,0,5.3149589
node/6474139031,-4.0127537,,Cité Universitaire Abobo,0,5.4350792
node/6474139033,-4.0154322,,Quai 15,0,5.4354761
node/6815808830,-3.9641507,,Station Shell Riviera 3,0,5.3580852
node/6815808831,-3.9591336,,Carrefour Palmeraie,0,5.3620442
node/6815808833,-3.9744202,,CNPS 9ème Tranche,0,5.3865761
node/6815808834,-3.9780418,,Marché COCOVICO,0,5.4010646
node/6815808839,-3.9618125,,Quick Market,0,5.3738506
node/6815808840,-3.9618581,,Quick Market,0,5.3737728
node/6815808842,-3.9635563,,Commissariat 35è Art.,0,5.3776142
node/6815808843,-3.9745308,,CNPS 9ème Tranche,0,5.3866021
node/6815808844,-3.9781939,,Marché COCOVICO,0,5.4010482
node/6815808845,-3.9587098,,Pharmacie du bonheur,0,5.3698807
node/6815808846,-3.9725319,,Groupe Scolaire St Marc,0,5.383206
node/6819328985,-3.9692172,,Camp Commando de Koumassi,0,5.282599
node/6819329085,-3.9707407,,Grand carrefour de Koumassi,0,5.2892136
node/6819329086,-3.9741109,,Hôtel Ibis Marcory,0,5.2921087
node/6819329185,-3.973691,,Hôtel Ibis Marcory,0,5.2916293
node/6819329285,-3.9897184,,Chimtec Grand carrefour Marcory,0,5.3008419
node/6820855646,-3.9767155,,Ambassade des USA,0,5.335819
node/6820855647,-3.9728877,,Hotel du Golf,0,5.3309825
node/6820855648,-3.9730064,,Hotel du Golf,0,5.3310297
node/6820855649,-3.9579229,,Ex Terminus Sotra;Carrefour Sol Beni,0,5.3312498
node/6831076677,-4.021605,,Cathédrale Saint paul,0,5.332764
node/6831076678,-4.0205671,,Église Méthodiste Unie de Côte d'Ivoire,0,5.3299678
node/6831076682,-4.0185085,,Gare Sud,0,5.3148704
node/6832290086,-3.9867521,,Cap Sud,0,5.2988832
node/6899034705,-4.0022393,,Gare de bassam,0,5.2996481
node/6899034706,-3.9997862,,Gendarmerie,0,5.3004143
node/6899034707,-4.0037983,,Notre-dame,0,5.303315
node/6899034708,-4.005186,,Pharmacie Nanan Yamousso,0,5.3072484
node/6899034709,-4.0061407,,Après le pont,0,5.3099574
node/6899034710,-4.0160603,,Adjamé liberté,0,5.3534116
node/6899053345,-4.014858,,Adjamé liberté,0,5.3534437
node/6899053346,-4.0120307,,Gare de Bingerville,0,5.3535364
node/6899053347,-4.0152949,,Feux du plateau,0,5.325075
node/6899053348,-4.0061218,,Nanan Yamousso,0,5.3101491
node/6899053349,-4.0024275,,Gare de bassam,0,5.2996797
node/6899241573,-4.0174383,,Abobo Gare Mairie,0,5.4200067
node/6899241574,-4.0159818,,Mobil,0,5.4143755
node/6899241575,-4.0215029,,Lavage,0,5.3846161
node/6899241576,-4.0257575,,Macaci,0,5.37725
node/6899241577,-4.0164004,,Adjamé Liberté,0,5.3543459
node/6899264970,-4.0212174,,Marché Gouro,0,5.349107
node/6899264971,-4.0163905,,Adjamé Liberté,0,5.3547097
node/6899264972,-4.016791,,Station Total,0,5.358734
node/6899264973,-4.0171184,,Abobo Gare Mairie,0,5.4215493
node/6902638988,-4.0153363,,Carrefour Marché,0,5.4195759
node/6902638989,-4.0135168,,Petro Ivoire,0,5.4186048
node/6902638990,-4.0101975,,Au Bar,0,5.4168519
node/6902638991,-4.0080786,,Petit Carrefour,0,5.4157998
node/6902638992,-4.0066972,,Samaké,0,5.4152517
node/6902638993,-4.0064894,,Azur,0,5.3994804
node/6902638994,-4.0070352,,Panneau ZOO,0,5.3780522
node/6902638995,-4.0157753,,Abobo Gare Mairie,0,5.4197843
node/6902638996,-4.0117095,,Ciné Cool,0,5.4176548
node/6902638997,-4.0062697,,Boulangerie Samake,0,5.4144283
node/6902638998,-4.0062877,,Menuiserie,0,5.410863
node/6902638999,-4.0063067,,Tchapatcha,0,5.4101067
node/6902639000,-4.0063409,,Chaine Avion,0,5.4092677
node/6902639001,-4.0063993,,Pharmacie Dokui,0,5.4051188
node/6902639002,-4.0064176,,SODECI,0,5.4036347
node/6902639003,-4.0064567,,Étage Noir,0,5.4020967
node/6902639004,-4.0064867,,Mobil,0,5.4001879
node/6902639005,-4.006353,,Arrêt Dokui,0,5.3968179
node/6902639006,-4.005793,,Ancien Feu,0,5.3929293
node/6902639007,-4.005732,,Bangui,0,5.3872276
node/6902639008,-4.0060126,,Vidange,0,5.3851864
node/6902639009,-4.0063262,,HMA,0,5.382931
node/6902639010,-4.0118134,,Carrefour paillet,0,5.3721147
node/6902639011,-4.0157876,,Carrefour 2 Plateaux,0,5.3653117
node/6902639012,-4.0160705,,Gare des gbakas d’Abobo par le zoo,0,5.3553627
node/6902868224,-4.0136214,,Petro Ivoire,0,5.4184847
node/6902868225,-4.0120067,,Ciné Cool,0,5.4176463
node/6902868226,-4.0102981,,Au Bar,0,5.4167077
node/6902868227,-4.0065403,,Pharmacie Dokui,0,5.4051935
node/6902868228,-4.0065873,,SODECI,0,5.4036701
node/6902868229,-4.0066315,,Étage Noir,0,5.40212
node/6902868230,-4.0066597,,Mobil,0,5.4002027
node/6902868231,-4.0066034,,Azur,0,5.3994577
node/6902868232,-4.0064518,,Arrêt Dokui,0,5.3965911
node/6902868233,-4.0059301,,Ancien Feu,0,5.3928327
node/6902868234,-4.005859,,Bangui,0,5.387253
node/6902868235,-4.0061326,,Vidange,0,5.3852715
node/6902868236,-4.0064505,,HMA,0,5.3829176
node/6902868237,-4.0122239,,Carrefour paillet,0,5.3716859
node/6902868238,-4.0159576,,Carrefour 2 Plateaux,0,5.365405
node/6902868239,-4.0168128,,Willy Agban,0,5.3633371
node/6902868240,-4.0152077,,Cimetière,0,5.3668297
node/6902868241,-4.0094557,,CIE,0,5.3765337
node/6902868242,-4.0070149,,ZOO,0,5.3789939
node/6902868243,-4.0056173,,Eglise,0,5.3900553
node/6902868244,-4.0099567,,Pharmacie Racines,0,5.41329
node/6902868245,-4.0160257,,Abobo Gare Mairie,0,5.4197639
node/6902975747,-4.0135154,,Christine Bar,0,5.4500232
node/6902975748,-4.0109926,,Terminus Akéikoi village,0,5.4607326
node/6902975749,-4.0107733,,A l'école,0,5.45899
node/6902975750,-4.0112928,,Destin,0,5.455207
node/6902975751,-4.0119566,,Monnaie,0,5.4542173
node/6902975752,-4.0128592,,André Bar,0,5.4528753
node/6902975753,-4.0133357,,Carrefour marché,0,5.4510493
node/6902975754,-4.0143571,,A l'étage,0,5.446249
node/6902975755,-4.0141843,,Boulangerie,0,5.4394513
node/6902975756,-4.0140378,,Carrefour Akéikoi,0,5.4384053
node/6902975757,-4.0161726,,Gare Gbaka Akeïkoi,0,5.4225885
node/6903084141,-4.0134484,,Carrefour marché,0,5.4510779
node/6903084142,-4.0129173,,André Bar,0,5.4530404
node/6903084143,-4.0120751,,Monnaie,0,5.4542793
node/6903097494,-4.0142825,,Au goudron,0,5.438503
node/6903097495,-4.0160694,,Gare Abobo,0,5.4227551
node/6903097496,-4.013945,,Au tournant,0,5.4230451
node/6903097497,-4.0146817,,Au Feu,0,5.4278782
node/6903097498,-4.0124107,,Célibataire,0,5.433455
node/6903097499,-4.0124925,,JAUG,0,5.4352003
node/6903097500,-4.0135883,,Cité,0,5.4383233
node/6903097501,-4.0138345,,Boulangerie,0,5.449017
node/6903097502,-4.0136722,,Christine Bar,0,5.4500084
node/6903097503,-4.01134,,Destin,0,5.4552984
node/6903097504,-4.0109968,,A l'ecole,0,5.4594779
node/6903097505,-4.0111868,,Terminus Akéikoi Village,0,5.460775
node/6903193216,-4.0144891,,Mosquée,0,5.4429021
node/6903193217,-4.0144891,,A l'étage,0,5.4463091
node/6903268819,-4.0165181,,Abobo Gare Mairie,0,5.42194
node/6903268820,-4.0163197,,Gare Abobo Kennedy-Marché/ Mosquée Ado,0,5.4223082
node/6903268821,-4.0100057,,Station,0,5.4211585
node/6903268822,-4.0015221,,Kennedy Marché,0,5.4236887
node/6903296476,-4.011717,,Mosquée,0,5.4221255
node/6903296477,-4.0060106,,Carrefour Kennedy,0,5.4186623
node/6903296478,-4.0059221,,Carrefour Kennedy,0,5.4186129
node/6903296479,-4.0039185,,Makan Traoré,0,5.4213432
node/6903296480,-4.0015453,,Au marché,0,5.4236156
node/6903296481,-4.0021714,,A Gauche,0,5.423623
node/6903296482,-4.0037249,,Makan Traoré,0,5.4214359
node/6903347574,-3.9324706,,Cocody Riviera M'badon,0,5.3286546
node/6903347575,-3.9332267,,Nouveau marché,0,5.3293417
node/6903347576,-3.9339946,,Ancien marché,0,5.329969
node/6903347577,-3.9350317,,Centre de santé Municipal de M'Badon,0,5.3307517
node/6903347578,-3.9352626,,La ferme,0,5.331008
node/6903347579,-3.9393933,,Pharmacie,0,5.3353839
node/6903347580,-3.9427407,,2 poteaux,0,5.3384154
node/6903347581,-3.945032,,Antenne,0,5.339948
node/6903347582,-3.9457017,,Carrefour Akouédo,0,5.345935
node/6903347583,-3.9471733,,École,0,5.3461517
node/6903347584,-3.9505483,,2ème rond-point,0,5.3458217
node/6903370485,-4.0227501,,Gare en haut,0,5.3503568
node/6903374200,-4.0100339,,Station,0,5.4210882
node/6903374201,-4.00729,,Immeuble Cercueil,0,5.4196516
node/6903374202,-4.0074563,,Immeuble Cercueil,0,5.4195595
node/6903397403,-3.9978515,,Terminus mosquée Ado Kenedy,0,5.4234508
node/6903397404,-3.9978489,,A l'école,0,5.4215774
node/6903397405,-3.9979409,,[Arret sans nom],0,5.4198617
node/6903397406,-3.9980283,,Dahico,0,5.4185867
node/6903397407,-3.9992242,,Étage Noir,0,5.4157689
node/6903406997,-4.0059533,,Samake,0,5.415578
node/6903406998,-4.0037419,,Eglise,0,5.4156671
node/6903504058,-4.0037763,,Eglise,0,5.415458
node/6903504059,-4.0007226,,Monastère,0,5.4155835
node/6903504060,-4.0008192,,Monastère,0,5.415434
node/6903504061,-3.999403,,Étage Noir,0,5.4157731
node/6903504062,-3.9981732,,Dahico,0,5.4185995
node/6903525051,-4.0272132,,Hôtel du centre,0,5.4339087
node/6903525052,-4.0337387,,A la Pompe,0,5.437375
node/6903525053,-4.0360617,,Dépôt,0,5.4377181
node/6903525054,-4.0444772,,Anokoi,0,5.4390697
node/6903525055,-4.0444823,,Anokoi,0,5.439303
node/6903525056,-4.0479148,,Marahoué,0,5.4422211
node/6903525057,-4.0487972,,Agripac,0,5.4439581
node/6903525058,-4.0509604,,Terminus,0,5.447775
node/6903525059,-4.0508555,,Terminus,0,5.4479797
node/6903525060,-4.0489498,,Agripac,0,5.4446545
node/6903525061,-4.0477433,,Marahoué,0,5.4425017
node/6903525062,-4.0360937,,Dépôt,0,5.4379717
node/6903525063,-4.033852,,A la Pompe,0,5.4376377
node/6903525064,-4.030245,,Marché de Nuit,0,5.4367133
node/6903525065,-4.026894,,Hôtel du centre,0,5.4340417
node/6903525066,-4.018191,,Abobo Gare,0,5.4217034
node/6903535584,-4.0206447,,Complexe,0,5.3489387
node/6903544086,-4.0224464,,Gare en haut,0,5.350348
node/6903544087,-4.0180948,,Maternité,0,5.3481387
node/6903544088,-4.014163,,Adjamé Liberté,0,5.3521055
node/6903544089,-4.0029137,,2ème pont,0,5.3547793
node/6903544090,-3.9339759,,Marché,0,5.3301187
node/6903602207,-4.0203577,,Gendarmerie,0,5.4263231
node/6903602208,-4.0233336,,Mosquée Blanche,0,5.4298704
node/6903602209,-4.0262471,,Solibra,0,5.4332219
node/6903602210,-4.0288774,,Château,0,5.4359152
node/6903602211,-4.0383071,,A l'escalier,0,5.4383388
node/6903602212,-4.0521369,,PK 18 ancien marché,0,5.4497913
node/6903602213,-4.0184916,,Gare abobo,0,5.4220421
node/6903602214,-4.0204342,,Gendarmerie,0,5.4260466
node/6903602215,-4.0208376,,Gendarmerie Avant le Feu,0,5.426524
node/6903602216,-4.0236152,,Mosquée Blanche,0,5.4297276
node/6903602217,-4.0264367,,Solibra,0,5.4330817
node/6903602218,-4.0290698,,Château,0,5.4357519
node/6903602219,-4.0306363,,Marché de Nuit,0,5.4365893
node/6903602220,-4.0384581,,A l'escalier,0,5.4380495
node/6903602221,-4.0411411,,Nouvelle Gare,0,5.4382834
node/6903602222,-4.0493193,,Agripac Avant le Feu,0,5.4448006
node/6903602223,-4.0520966,,Station Total,0,5.4493883
node/6903602224,-4.052542,,PK 18 ancien marché,0,5.4499639
node/6903639366,-3.9761316,,Attoban camp,0,5.370557
node/6903639367,-3.9776678,,Escalier,0,5.3694267
node/6903639368,-3.9794185,,Pharmacie Saint Bernard,0,5.3673899
node/6903639369,-3.9793174,,Carrefour Garage,0,5.3658448
node/6903639370,-3.9792552,,Polyclinique Sacré-Coeur,0,5.365069
node/6903639371,-3.9790994,,Jules ferry,0,5.3642087
node/6903639372,-3.9788028,,Hôtel Manhatan,0,5.362115
node/6903639373,-3.978316,,Doraville,0,5.3589924
node/6903639374,-3.9780678,,Pharmacie Saint ange,0,5.3571667
node/6903639375,-3.9777617,,André Malraux,0,5.356275
node/6903639376,-4.0228251,,Gare en haut,0,5.3505392
node/6903968407,-3.9796695,,Pharmacie Saint Bernard,0,5.3672689
node/6903968408,-3.9794498,,Carrefour garage,0,5.3655779
node/6904171063,-4.0345833,,Attécoubé Terminus 04,0,5.343795
node/6904171064,-4.0345467,,[Arret sans nom],0,5.346448
node/6904171065,-4.033957,,Marché,0,5.3490624
node/6904171066,-4.032333,,Station Afriquia,0,5.3501257
node/6904171067,-4.0328135,,Carrefour Attecoubé,0,5.3524283
node/6904171068,-4.0309717,,[Arret sans nom],0,5.3574167
node/6904171070,-4.0254169,,Arrêt,0,5.3513557
node/6904171071,-4.0261722,,Adjamé Santé,0,5.3412757
node/6904171072,-4.025807,,Institut National de la Santé Publique,0,5.3381159
node/6904171073,-4.0230192,,Arrêts tours Administratives,0,5.3318344
node/6904171074,-4.0206008,,Cité financière Plateau,0,5.3266073
node/6904171075,-4.0196512,,SIB Alpha 2000,0,5.3237991
node/6904171076,-4.0196681,,Primature,0,5.3206169
node/6904171077,-4.0157481,,Résidence Cheick Yacouba Sylla,0,5.3089287
node/6904171078,-4.0142576,,Marché Treichville,0,5.3094876
node/6904171079,-4.0099697,,[Arret sans nom],0,5.3109791
node/6904171080,-4.006092,,Biafra,0,5.3126563
node/6904171081,-3.9933399,,Banque Atlantique,0,5.3076251
node/6904171082,-3.9888629,,Hôtel Hamanieh,0,5.3052787
node/6904171083,-3.9869873,,Sainte Thérèse,0,5.3043423
node/6904171084,-3.9858381,,Commissariat du 9 ème,0,5.3064581
node/6904188585,-3.9839517,,Gare Marcory,0,5.3088083
node/6905326498,-4.0281877,,Gare Nord,0,5.3589119
node/6905326503,-4.0307925,,Château,0,5.4366266
node/6905344262,-4.0219308,,Préfecture de Police,0,5.3843543
node/6905344263,-4.0351608,,Arrêt Centre Bus,0,5.4375564
node/6905344264,-4.0390169,,Terminus 45 À l'escalier,0,5.4384645
node/6905344265,-4.0351391,,Arrêt Centre Bus,0,5.4378844
node/6905344266,-4.0299554,,Château,0,5.4365245
node/6905344267,-4.0259685,,Arrêt,0,5.4328931
node/6905344268,-4.0222108,,Gendarmerie,0,5.4284112
node/6905344273,-4.0219627,,Préfecture de Police,0,5.3836534
node/6905553518,-4.0225102,,Gendarmerie,0,5.4284566
node/6905553519,-4.0261674,,[Arret sans nom],0,5.4327155
node/6905719605,-4.0256884,,Foire de Chine,0,5.3485701
node/6905719606,-4.0206943,,Église Méthodiste Unie de Côte d'Ivoire,0,5.3299376
node/6905719607,-4.0201163,,60 logements Plateau,0,5.3251345
node/6905719608,-4.0177138,,Hôpital du port,0,5.3087867
node/6905719609,-4.0148424,,Maison du Congres,0,5.3097288
node/6905719610,-4.0116929,,Pharmacie du Rond-point,0,5.3073425
node/6905719611,-4.0069793,,[Arret sans nom],0,5.3090218
node/6905719612,-4.005442,,Nanan Yamousso,0,5.3080275
node/6905719613,-4.0043543,,Paroisse Notre-Dame de Treichville,0,5.3048828
node/6905719614,-4.0015648,,Pharmacie de l'Entente,0,5.3045623
node/6905719615,-3.998829,,Marché de Belleville,0,5.3055251
node/6905719616,-3.9931172,,Banque Atlantique,0,5.3075214
node/6905719617,-3.9887868,,Hôtel Hamanieh,0,5.3049722
node/6905719618,-3.986118,,Commissariat du 9éme,0,5.3055778
node/6905719619,-3.9847286,,Station Shell,0,5.308097
node/6905719620,-4.0284151,,[Arret sans nom],0,5.3584965
node/6905719621,-4.0304951,,[Arret sans nom],0,5.357702
node/6905719622,-4.0321715,,Carrefour Attecoubé,0,5.3515438
node/6905719623,-4.03386,,Banque Atlantique,0,5.3489601
node/6905719624,-4.0344246,,Commissariat du 10ᵉ arrondissement,0,5.3471108
node/6905719625,-4.0344802,,Attécoubé Terminus 04,0,5.3437946
node/6905772459,-4.0219475,,Saint Paul,0,5.3251603
node/6905772460,-4.0239746,,Immeuble Sogephia Hévéa,0,5.3282245
node/6905772461,-4.0245113,,Musée du Plateau,0,5.3337809
node/6905772466,-4.0160546,,Cours Sociaux,0,5.4383593
node/6905842305,-4.0275686,,Gare Nord,0,5.3590397
node/6905842307,-4.0224693,,Long Champs,0,5.3252327
node/6906463287,-3.9560075,,Gare Koumassi,0,5.293902
node/6906463288,-3.9602508,,Pharmacie Ehilie,0,5.2928524
node/6906463289,-3.966735,,Mosquée,0,5.2913568
node/6906463290,-3.980944,,Échangeur de Marcory,0,5.2956714
node/6906463291,-3.98845,,Grand carrefour Marcory,0,5.2998527
node/6906463292,-3.9976917,,Collège Moderne Autoroute,0,5.2998184
node/6906463293,-4.0026734,,Gare de Bassam,0,5.2999823
node/6906463294,-4.003273,,Ecobank,0,5.3018099
node/6906463296,-4.0155251,,Adjamé Liberté,0,5.3534012
node/6906507833,-4.0124238,,BICICI,0,5.4365892
node/6906575629,-4.0164467,,Adjamé - Liberté,0,5.3546594
node/6906575630,-4.0169033,,Williams-Ville,0,5.3631417
node/6906575631,-4.0157829,,Carrefour 2 plateaux,0,5.3658197
node/6906575632,-4.0156117,,[Arret sans nom],0,5.3662557
node/6906575633,-4.0122293,,Paillet,0,5.3716139
node/6906575634,-4.0112578,,[Arret sans nom],0,5.374069
node/6906575635,-4.005605,,[Arret sans nom],0,5.3898833
node/6906575636,-4.0065311,,[Arret sans nom],0,5.4045622
node/6906575637,-4.0064187,,[Arret sans nom],0,5.4113412
node/6906575638,-4.0064133,,ANADER,0,5.4126483
node/6906590689,-4.0064263,,Samake,0,5.4148754
node/6906590691,-4.0068417,,Samake,0,5.41527
node/6906590692,-4.0063152,,Chaîne avion,0,5.4101483
node/6906590693,-4.0063867,,1ere Boutique,0,5.4073533
node/6906590694,-4.0155634,,Carrefour 2 plateaux,0,5.3659384
node/6906590695,-4.0162927,,Adajmé Liberté,0,5.3546002
node/6906596960,-4.015528,,Adjamé Liberté,0,5.35345
node/6906596961,-4.0060884,,Nanan Yamousso,0,5.3100359
node/6906596962,-4.0044435,,Karwil,0,5.3054677
node/6906596963,-4.0036369,,Notre-dame,0,5.3031308
node/6906596964,-4.0026404,,Gare de Bassam,0,5.3003893
node/6906596965,-3.9983918,,Collège Moderne Autoroute,0,5.2998444
node/6906596966,-3.9859637,,Cap Sud,0,5.2987234
node/6906596967,-3.981013,,Échangeur Marcory,0,5.2959351
node/6906596968,-3.9675638,,Auto-école,0,5.2912433
node/6906596969,-3.964494,,Arrêt,0,5.2919737
node/6906596970,-3.9610541,,Boulangerie,0,5.292783
node/6906699462,-4.0069936,,ZOO,0,5.3790616
node/6906699463,-4.0065336,,1ere Boutique,0,5.4074152
node/6906699464,-4.0116794,,Paillet,0,5.3723989
node/6906699465,-4.0054621,,[Arret sans nom],0,5.3898979
node/6906699466,-4.0065122,,Arrêt Dokui,0,5.3967647
node/6906699467,-4.0063445,,Arrêt Dokui,0,5.3968689
node/6906699468,-4.0062842,,ANADER,0,5.4121402
node/6906699469,-4.0106347,,[Arret sans nom],0,5.4169293
node/6906699470,-4.0106159,,[Arret sans nom],0,5.4170815
node/6906699471,-4.0159368,,Abobo Mairie,0,5.4197017
node/6906699472,-4.0156192,,Abobo Mairie,0,5.4197512
node/6907121506,-4.0235294,,Gare Williamsville,0,5.3675641
node/6907121507,-4.0207037,,Mosquée,0,5.3658243
node/6907121508,-4.0189161,,Croix Bleue,0,5.3643529
node/6907121509,-4.0160715,,Agban avant le pont,0,5.3576606
node/6907121510,-4.0169929,,Pharmacie le Belier,0,5.3501391
node/6907121511,-4.0230855,,Indenié,0,5.3417336
node/6907121512,-4.018503,,Mairie du Plateau,0,5.3220152
node/6907121513,-4.0170059,,Institut Français,0,5.3219502
node/6907121514,-4.0144649,,CNPS,0,5.3195012
node/6907121515,-3.984068,,Gare Marcory,0,5.3088742
node/6907141795,-4.0033579,,RTI,0,5.342209
node/6907141796,-4.0029046,,Archibat,0,5.3459837
node/6907141797,-4.0007897,,Marché de Cocody,0,5.3356901
node/6907141798,-4.0021679,,Gare Blockauss,0,5.3232894
node/6907141799,-4.0013589,,Banque Mondiale,0,5.3278237
node/6907141800,-4.0007635,,Marché de Cocody,0,5.3355267
node/6907141801,-4.0038072,,CIE,0,5.3384172
node/6907141802,-4.0021657,,Palm Club,0,5.351632
node/6907141803,-4.0274511,,Gare Nord,0,5.3587491
node/6907147644,-4.0180323,,Texaco,0,5.3543654
node/6907147645,-4.0101289,,Pont lycée technique,0,5.3478735
node/6907147646,-4.0038018,,SODEMI,0,5.3442806
node/6907147647,-4.0033259,,Sgbci,0,5.3404792
node/6907147648,-3.9999757,,Marché de Cocody,0,5.336444
node/6907147649,-4.0003179,,PMI,0,5.3334363
node/6907147650,-4.00118,,Banque mondiale,0,5.3280617
node/6907147651,-4.0020444,,Gare Blockauss,0,5.323287
node/6907154300,-4.0168481,,Boulangerie Top baquette,0,5.3528511
node/6907154301,-4.017115,,220 logements,0,5.3472669
node/6907157792,-4.0273707,,Gare Nord,0,5.3589598
node/6907157793,-4.0213836,,Renault,0,5.3559786
node/6907157794,-4.0158064,,Adjamé Liberté,0,5.3534802
node/6907157795,-4.000587,,CERAP - INADES,0,5.339615
node/6908599212,-3.9946557,,Gare Campus Cocody,0,5.3464621
node/6908599213,-4.0013186,,ISTC,0,5.343718
node/6908599215,-4.0153091,,Quai 49,0,5.4354972
node/6908618074,-3.9968976,,INSAAC,0,5.3456864
node/6908618077,-4.016795,,EPV Konaté,0,5.427395
node/6908618078,-4.0147611,,Lycée Moderne d'Abobo,0,5.4286546
node/6908728765,-4.012329,,[Arret sans nom],0,5.4339703
node/6908728766,-4.013431,,[Arret sans nom],0,5.432656
node/6908728767,-4.0162121,,[Arret sans nom],0,5.4273213
node/6908728771,-4.0008199,,ISTC,0,5.343821
node/6908728772,-3.9937238,,Gare Campus Cocody,0,5.3462119
node/6908782549,-4.0147361,,[Arret sans nom],0,5.43182
node/6908782550,-4.014638,,[Arret sans nom],0,5.429723
node/6908782552,-3.9978676,,Cité des Arts,0,5.3450487
node/6908782553,-3.993895,,université méthodiste de Côte D'Ivoire,0,5.3466283
node/6908914485,-4.0160582,,[Arret sans nom],0,5.357415
node/6908914486,-4.0171632,,Cours socio éducatif,0,5.3491257
node/6908914487,-3.9996571,,Piscine d’État de Treichville,0,5.3082112
node/6908914488,-3.9839441,,Gare Marcory,0,5.3090397
node/6908914489,-4.0161239,,Boulangerie Top Qualité,0,5.3555536
node/6908914490,-4.0170747,,Liberté,0,5.3513262
node/6908914491,-4.0170975,,Pharmacie le Belier,0,5.3503722
node/6908914492,-4.0230188,,Indenié,0,5.3418097
node/6908914493,-4.025647,,Banque SIB,0,5.3421743
node/6908914494,-4.0183783,,Bicici plateau,0,5.321186
node/6908914495,-4.0167837,,Pyramide,0,5.321624
node/6908914496,-4.0145266,,Siège Moov,0,5.3184312
node/6908914498,-4.0188664,,Croix Bleue,0,5.3641726
node/6908914499,-4.0202826,,Infirmerie Sinikeya,0,5.3653249
node/6908914500,-4.0235066,,Gare Williamsville,0,5.3670874
node/6909039462,-4.0318263,,Petro Ivoire,0,5.3589877
node/6909039464,-4.0257324,,Pharmacie Sainte Marie,0,5.3468603
node/6909039468,-4.0159526,,Cité Policière,0,5.3080247
node/6909039469,-4.0046789,,CHU,0,5.2958623
node/6909039470,-3.9984496,,PTT Km4,0,5.2927793
node/6909039471,-3.9957435,,Pharmacie Santé Publique,0,5.2914467
node/6909108442,-4.0375583,,Terminus Cité Fairmont,0,5.3585383
node/6909108450,-4.0149536,,arrêt,0,5.305135
node/6909108451,-3.9902017,,Services Techniques du District,0,5.29123
node/6909121487,-3.9840127,,Gare Marcory,0,5.3088407
node/6909208699,-4.0074831,,Parc des Sports,0,5.2971256
node/6909208700,-3.990781,,"SIYOA, Boulevard de Marseille",0,5.2895393
node/6909225529,-4.0724972,,[Arret sans nom],0,5.36188
node/6909225530,-4.0745652,,[Arret sans nom],0,5.3647534
node/6909225533,-4.0961792,,[Arret sans nom],0,5.3727101
node/6909225534,-4.0895635,,[Arret sans nom],0,5.3742257
node/6909225535,-4.0867558,,Nestlé,0,5.372722
node/6909225536,-4.0781781,,Arrêt,0,5.3745633
node/6909225537,-4.0796923,,[Arret sans nom],0,5.3703887
node/6909225538,-4.0786743,,[Arret sans nom],0,5.3683786
node/6909225539,-4.0761986,,Direction de la Sotra,0,5.3670367
node/6909225540,-4.0736157,,[Arret sans nom],0,5.3628133
node/6909225541,-4.0702482,,[Arret sans nom],0,5.3612471
node/6909225542,-4.0678704,,Lycée Moderne Yopougon Andokoi,0,5.3623019
node/6909225543,-4.0667894,,Centre Ivoire Couture,0,5.3615148
node/6909225544,-4.0278578,,Gare Nord,0,5.3585831
node/6909225545,-4.0183049,,Gare Sud,0,5.3146893
node/6909237619,-4.0033954,,CHU Treichville,0,5.2948194
node/6909237622,-3.9881326,,Délices de France,0,5.301827
node/6909237623,-3.9900511,,Services Techniques du District,0,5.2913004
node/6909237624,-3.9994307,,PTT Km4,0,5.2931333
node/6909237625,-4.0141223,,Quincaillerie Générale,0,5.3023437
node/6909237626,-4.0150089,,Arrêt,0,5.3049356
node/6909237627,-4.0161832,,Cité Policière,0,5.308109
node/6909237631,-4.0279602,,Gare Nord,0,5.3591167
node/6909237632,-4.0319963,,Station Petro Ivoire,0,5.358876
node/6909237633,-4.0364602,,Terminus 02 Cité Fairmont,0,5.3582206
node/6909430718,-4.094158,,[Arret sans nom],0,5.3765208
node/6909430720,-4.0668847,,Gare CTE,0,5.3618706
node/6909430721,-4.0678369,,Lycée Moderne Yopougon Andokoi,0,5.3621938
node/6909430722,-4.0710622,,Station Total,0,5.3607938
node/6909430723,-4.0736572,,[Arret sans nom],0,5.362382
node/6909430724,-4.0742996,,[Arret sans nom],0,5.365409
node/6909430725,-4.0764347,,Direction de la Sotra,0,5.36707
node/6909430726,-4.0788862,,[Arret sans nom],0,5.3683719
node/6909430727,-4.080222,,Station,0,5.3690582
node/6909430728,-4.0819788,,[Arret sans nom],0,5.3699698
node/6909430729,-4.0896792,,JOMACO,0,5.3741086
node/6909430730,-4.0958456,,Dépôt Yopougon zone Industrielle,0,5.3741528
node/6909521603,-3.9848298,,Hôpital Municipal,0,5.2645534
node/6909521604,-3.9834323,,Groupe Scolaire N'Sikan,0,5.2632614
node/6909521605,-3.9849267,,CIE,0,5.257665
node/6909521606,-3.9956283,,arrêt,0,5.2558751
node/6909521607,-3.9989162,,Gestoci,0,5.26373
node/6909521608,-4.0062621,,Pont de Vridi,0,5.2704314
node/6909521609,-4.0143099,,"Etablissements Rey, Port",0,5.2978357
node/6909521610,-4.0175241,,Sicodis,0,5.3005436
node/6909521611,-4.0231458,,Terminus 32,0,5.305037
node/6909521612,-4.0211629,,Grand Moulin Abidjan,0,5.3069377
node/6909521613,-4.0179278,,Hôpital du Pont,0,5.3088247
node/6909521614,-4.0117363,,"Avenue 11, Rue 12, Treichville",0,5.305655
node/6909521615,-4.0111588,,"Avenue 15, Rue 12, Treichville",0,5.3039938
node/6909521616,-4.0034158,,Paroisse Notre Dame,0,5.3040254
node/6909521617,-3.9987874,,Marché Belleville,0,5.3056574
node/6909521620,-3.9838718,,Gare Marcory,0,5.3087649
node/6909546905,-3.9871428,,Vridi Cité - Terminus 53,0,5.266603
node/6909546906,-3.9818252,,Pharmacie Vridi Port,0,5.259526
node/6909546907,-3.9892306,,Stade de la SIR,0,5.2571616
node/6909546908,-3.9978983,,Vridi-Iran,0,5.2588247
node/6909546909,-4.0031425,,"CPMA, Vridi",0,5.2676512
node/6909546910,-4.0085496,,PALM-CI,0,5.277976
node/6909546911,-4.0084685,,Bolloré,0,5.2821643
node/6909546912,-4.008455,,Siège SOTRA,0,5.2864977
node/6909546913,-4.008424,,Arrêt,0,5.292271
node/6909546914,-4.0131528,,Ciment Bélier,0,5.296841
node/6909546915,-4.0212547,,Port Autonome Abidjan,0,5.3029759
node/6909546916,-4.0149741,,Maison du Congres,0,5.309804
node/6909546917,-4.0050815,,Collège Bosco,0,5.3059215
node/6909707221,-4.1045,,Niangon Sud à droite,0,5.3226268
node/6909707223,-4.1057378,,Carrefour Académie,0,5.3233679
node/6909707224,-4.1059349,,Caféier,0,5.325714
node/6909707225,-4.1037691,,Lubafrique,0,5.3310513
node/6909707226,-4.1029765,,2ème arrêt ANADOR,0,5.3338915
node/6909707227,-4.1014047,,Carrefour Anador,0,5.3358784
node/6909707228,-4.1004632,,Pharmacie Cité Maroc,0,5.3404237
node/6909707229,-4.0892462,,CIE,0,5.3407014
node/6909707230,-4.0892456,,[Arret sans nom],0,5.3450164
node/6909707231,-4.0875008,,Grand Centre,0,5.3481316
node/6909707232,-4.0874934,,Port-Bouët II,0,5.3540742
node/6909707233,-4.0851103,,[Arret sans nom],0,5.3561104
node/6909707234,-4.0850901,,BAE,0,5.3604209
node/6909707236,-4.0277736,,Gare Nord,0,5.358951
node/6909707238,-4.0183735,,Gare Sud,0,5.3147518
node/6909737821,-4.0049374,,Feu du Collège Bosco,0,5.3058324
node/6909737822,-4.0120606,,"Avenue 10, Rue 12, Treichville",0,5.3062141
node/6909737824,-4.0211598,,Grand Moulin Abidjan,0,5.3067759
node/6909737825,-4.0217286,,Siège Port Autonome Abidjan,0,5.3033621
node/6909737826,-4.0095509,,Port Autonome Abidjan,0,5.2945614
node/6909737827,-4.0082981,,Siège SOTRA,0,5.2878677
node/6909737828,-4.0083516,,Bolloré,0,5.2820277
node/6909737829,-4.00841,,Movis,0,5.2787
node/6909737830,-4.0061063,,Pont de Vridi,0,5.2705271
node/6909812227,-4.0239378,,Cité Administrative,0,5.3309411
node/6909812228,-4.0849641,,Carrefour Zone,0,5.3572641
node/6909812229,-4.0867444,,[Arret sans nom],0,5.3552565
node/6909812230,-4.0880983,,Pharmacie Port-Bouët II,0,5.3469666
node/6909812231,-4.0891591,,[Arret sans nom],0,5.3453455
node/6909812232,-4.0974297,,Mosquée du Maroc,0,5.3400138
node/6909812233,-4.1003975,,Pharmacie Cité Maroc,0,5.3401847
node/6909812234,-4.1013081,,Carrefour Anador,0,5.335861
node/6909812235,-4.1037999,,Lubafrique,0,5.3305692
node/6909812236,-4.1051263,,[Arret sans nom],0,5.3273952
node/6909812237,-4.1058531,,Caféier,0,5.32569
node/6909812238,-4.1045248,,Niangon Sud à droite,0,5.3226401
node/6909923471,-4.0739979,,Siporex-Sicomex,0,5.3568101
node/6909923472,-4.0740046,,Siporex avant le feu,0,5.3538004
node/6909923473,-4.0732898,,William-Ponty,0,5.3448074
node/6909923474,-4.0732871,,Yopougon 16ème Advans,0,5.3388868
node/6909923475,-4.0733247,,Saguidiba,0,5.3326109
node/6909923477,-4.0735526,,Gare Yopougon Kouté,0,5.3297734
node/6910224899,-3.9936456,,Gare Campus Cocody,0,5.3463096
node/6910224902,-4.0738578,,Gare Yopougon Kouté,0,5.3297134
node/6910224905,-4.0735191,,Saguidiba,0,5.3315587
node/6910224906,-4.0734252,,Côte d'Ivoire-Telecom,0,5.3344863
node/6910224907,-4.0734096,,Yopougon 16ème Advans,0,5.338834
node/6910224908,-4.0734078,,Saint André lavage,0,5.3418778
node/6910224909,-4.0734038,,William-Ponty,0,5.345666
node/6910224910,-4.0741883,,Siporex après le feu,0,5.3540928
node/6910224911,-4.0741772,,Siporex-Sicomex,0,5.3566819
node/6910272309,-4.0031259,,CPMA-Vridi,0,5.2678334
node/6910272310,-3.9977641,,Vridi-Iran,0,5.2588726
node/6910272311,-3.9932473,,"SIR, Vridi",0,5.2565075
node/6910272312,-3.9854582,,CIE,0,5.2577882
node/6910272313,-3.9824273,,"Cité CIE, Vridi",0,5.2582659
node/6910272314,-3.9820028,,Temple des Vainqueurs,0,5.2600531
node/6910272315,-3.9850263,,Hôpital Municipal,0,5.2644761
node/6910272316,-3.9874196,,Terminus Cité Vridi,0,5.2666602
node/6910518025,-4.0228166,,Cité Administrative,0,5.3313223
node/6910584802,-4.0201529,,Gendarmerie Abobo,0,5.4267852
node/6910703473,-4.0632851,,Institut des aveugles,0,5.350955
node/6910703474,-4.0632758,,Bel Air,0,5.3476916
node/6910703475,-4.0622364,,Complexe sportif de Yopougon,0,5.3418057
node/6910703476,-4.0622136,,Nouveau quartier,0,5.3380456
node/6910703477,-4.0621975,,Clinique les Oliviers,0,5.3333961
node/6910743309,-4.061462,,Terminus 85,0,5.3294751
node/6910743310,-4.0623826,,Clinique les Oliviers,0,5.333826
node/6910743311,-4.0623477,,Nouveau quartier,0,5.3375141
node/6910743312,-4.0634635,,Bel Air,0,5.3460439
node/6910743313,-4.0660062,,Sable,0,5.3556644
node/6910743314,-4.0634474,,Institut des aveugles,0,5.3513983
node/6910755171,-4.0804794,,Ben,0,5.3237979
node/6910755172,-4.0764964,,Marejea,0,5.3255979
node/6910755173,-4.0718266,,Iris3,0,5.3255738
node/6910755174,-4.0802502,,Yopougon Sideci - Terminus 42,0,5.3198733
node/6910755176,-4.0667291,,Marché Kouté,0,5.3242746
node/6910755177,-4.0615042,,L'usine du camp,0,5.3236042
node/6910755178,-4.0577316,,Stenb,0,5.3236336
node/6910755179,-4.0535085,,Le petit soleil,0,5.3222355
node/6910755180,-4.0507693,,Yopougon Kowëit,0,5.3222275
node/6910755181,-4.0464583,,La faveur,0,5.3222395
node/6910755182,-4.0439746,,Pharmacie Chenain,0,5.3198693
node/6910755183,-4.0439826,,Iris 3,0,5.3171339
node/6910755184,-4.0440027,,Bon choix,0,5.3137348
node/6910794085,-4.0439558,,Santé Village,0,5.3095505
node/6910794088,-4.0353389,,Gare Abobodoumé,0,5.3101983
node/6910797790,-4.01971,,Arrêt,0,5.4258812
node/6910797791,-4.0128435,,Arrêt,0,5.4182684
node/6910797792,-4.0054353,,Arrêt,0,5.4156089
node/6910797793,-3.999584,,Arrêt,0,5.4155902
node/6910797794,-3.9856156,,Termunis 81/82,0,5.4038607
node/6910797795,-3.9792073,,BICICI,0,5.4031254
node/6910797796,-3.9780821,,Arrêt,0,5.4011881
node/6910797797,-3.9776878,,Arrêt,0,5.3988302
node/6910797798,-3.977036,,Arrêt,0,5.3963428
node/6910797799,-3.9761992,,Arrêt,0,5.3932466
node/6910797800,-3.971504,,Arrêt,0,5.3946558
node/6910797801,-3.9649835,,Cité Diaspora,0,5.4000986
node/6910797802,-3.9621642,,SOCIAM,0,5.4025338
node/6910797803,-3.9620463,,SOCIAM,0,5.4022965
node/6910797804,-3.9570893,,CHU Angré,0,5.399963
node/6910797805,-4.0022783,,Arrêt,0,5.4154527
node/6910797806,-3.9570173,,CHU Angré,0,5.3997812
node/6910797807,-3.9592423,,Arrêt,0,5.4003923
node/6910797808,-3.960527,,Arrêt,0,5.4011774
node/6910797809,-3.9657399,,Arrêt,0,5.3991713
node/6910797810,-3.9689626,,Arrêt,0,5.3964463
node/6910797811,-3.9736088,,Arrêt,0,5.3933681
node/6910797812,-3.9754415,,Arrêt,0,5.3929368
node/6910797813,-3.9769683,,Arrêt,0,5.3954823
node/6910797814,-3.9772754,,Arrêt,0,5.3963101
node/6910797815,-3.9781552,,Arrêt,0,5.4003569
node/6910797816,-3.978471,,Arrêt,0,5.4022415
node/6910797817,-3.9794534,,BICICI,0,5.4029505
node/6910797818,-3.9898295,,Arrêt,0,5.4042516
node/6910797819,-3.9911934,,Saint Ambroise,0,5.4070126
node/6910797820,-3.9941237,,Arrêt,0,5.4103992
node/6910797821,-3.9953287,,Arrêt,0,5.4136035
node/6912410269,-4.0043772,,Lycée Classique d'Abidjan,0,5.3317315
node/6912410270,-4.0047695,,Hotel Ivoire 2,0,5.3286968
node/6912410271,-4.0029871,,Hotel Ivoire,0,5.3278806
node/6912410272,-4.0032565,,Hotel Ivoire,0,5.3277329
node/6912410273,-4.0045047,,Lycée Classique d'Abidjan,0,5.3327049
node/6912410274,-4.0037108,,SODEMI,0,5.3439798
node/6912410275,-4.0095505,,Pont lycée technique,0,5.3477876
node/6912654329,-4.0751626,,Carrefour Express,0,5.3290976
node/6912729876,-4.0012691,,BMW,0,5.3581253
node/6912729877,-3.998725,,SOCITECH,0,5.3601195
node/6912729878,-3.9976354,,MACACI,0,5.3648148
node/6912729879,-3.9983993,,Mobil 2 Plateaux,0,5.367356
node/6912729880,-3.9984268,,Sococé 2 Plateaux,0,5.3718047
node/6912729881,-3.9985198,,BOA,0,5.3745478
node/6912729882,-3.9985338,,SNEDAI,0,5.3755833
node/6912729883,-3.9976312,,Carrefour Duncan,0,5.3776569
node/6912729884,-3.9943103,,Las Palmas,0,5.3809527
node/6912805206,-4.0792393,,Pharmacie du Marché,0,5.3388207
node/6912805207,-4.0765581,,[Arret sans nom],0,5.3373258
node/6912805208,-4.0752894,,Patisserie,0,5.3384061
node/6912805209,-4.0652525,,Ex Chaine Avion Rue Princesse,0,5.3467623
node/6912805210,-4.0599974,,Camp FRCI,0,5.3408189
node/6912805211,-4.0572368,,Carrefour Marché,0,5.3398655
node/6912805212,-4.0549944,,Carrefour Lama Fofana,0,5.3373205
node/6912805213,-4.0550186,,Banque Atlantique,0,5.3337105
node/6912805214,-4.0520655,,Offoumou Yapo,0,5.3316575
node/6912805215,-4.0497521,,Tizra,0,5.3293394
node/6912805216,-4.0494691,,[Arret sans nom],0,5.3264792
node/6912805217,-4.0494999,,[Arret sans nom],0,5.3247299
node/6912805219,-4.0354465,,Gare Abobo Doumé,0,5.3104606
node/6912820385,-3.9932407,,Carrefour Opéra,0,5.3847656
node/6912820386,-3.9927523,,Mahikari,0,5.3888111
node/6912820387,-3.992269,,Ambassade de Chine,0,5.3926338
node/6912820388,-3.9921141,,Les Oscars,0,5.3942154
node/6912820389,-3.9918337,,BHCI,0,5.3963811
node/6912820390,-3.9913523,,Shawarma House,0,5.4005116
node/6912820391,-3.9909124,,Petro Ivoire,0,5.4038172
node/6912820392,-3.9882535,,Notre Dame,0,5.4042033
node/6912820393,-3.9819806,,FIRDA,0,5.4034748
node/6912820394,-3.9765606,,"Ancien Terminus 90, Les Arcades",0,5.4033098
node/6912820395,-3.9728354,,Soleil 2,0,5.4006902
node/6912820396,-3.9694727,,Clinique Médicale Sainte Justine,0,5.3971939
node/6912820397,-3.9648829,,Cité Diaspora,0,5.3998522
node/6912820398,-3.9697282,,Clinique Médicale Sainte Justine,0,5.3972237
node/6912820399,-3.9764213,,"Ancien Terminus 90, Les Arcades",0,5.4031598
node/6912820400,-3.9820585,,FIRDA,0,5.4033208
node/6912820401,-3.9856793,,Termunis 81/82,0,5.4037772
node/6912820402,-3.9887434,,Notre Dame,0,5.4041375
node/6912820403,-3.9906882,,Petro Ivoire,0,5.4037567
node/6912820404,-3.9911377,,Carrefour 22è,0,5.4002961
node/6912820405,-3.9915941,,BHCI,0,5.3965825
node/6912820406,-3.9920829,,Ambassade de Chine,0,5.3926201
node/6912820407,-3.9924668,,Mahikari,0,5.3895654
node/6912820408,-3.9930996,,Opéra,0,5.3845481
node/6912820409,-3.9940546,,Las Palmas,0,5.3809502
node/6912820410,-3.9970644,,Carrefour Duncan,0,5.3779505
node/6912820411,-3.9983567,,Le Roi du Pain,0,5.3753472
node/6912820412,-3.9983278,,Sococé 2 Plateaux,0,5.3725038
node/6912820413,-3.9981432,,Mobil 2 Plateaux,0,5.3677225
node/6912820414,-3.9973648,,MACACI,0,5.3654376
node/6912820415,-4.0012391,,Saint Jacques,0,5.3574699
node/6912820416,-4.0018639,,Palm Club,0,5.3525544
node/6912820417,-4.0022742,,Carrefour la Vie,0,5.3493692
node/6912820418,-4.0028093,,Arrêt,0,5.344562
node/6913011676,-4.0255438,,Sitarail,0,5.3266074
node/6913011677,-4.073499,,Gare Yopougon Kouté,0,5.3293875
node/6913190443,-4.0441328,,Bon choix,0,5.3134744
node/6913190444,-4.043768,,Santé Village,0,5.3087112
node/6913190445,-4.0440879,,[Arret sans nom],0,5.3166799
node/6913190446,-4.0441167,,[Arret sans nom],0,5.3208014
node/6913190447,-4.0468311,,[Arret sans nom],0,5.3221154
node/6913190448,-4.0496448,,[Arret sans nom],0,5.323918
node/6913190449,-4.0503167,,Commissariat de Police du 19ᵉ Arrondissement,0,5.3270841
node/6913190450,-4.0501732,,Tizra,0,5.3295798
node/6913190451,-4.0519957,,Offoumou Yapo,0,5.3313998
node/6913190452,-4.0550937,,La Poste,0,5.3337753
node/6913190453,-4.055093,,Pharmacie Sacré-cœur,0,5.3369773
node/6913190454,-4.058547,,Pharmacie Béatitude,0,5.3401473
node/6913190455,-4.0608235,,Nouveau quartier,0,5.3407362
node/6913190456,-4.0650474,,Ex Chaine Avion Rue Princesse,0,5.3466167
node/6913190457,-4.0678006,,Newton,0,5.3447353
node/6913190458,-4.0745628,,Marche Sicogi,0,5.3395304
node/6913190459,-4.0751928,,Patisserie,0,5.3379928
node/6913190460,-4.0770331,,Pharmacie du Marché,0,5.3372574
node/6913190461,-4.0806585,,Terrain Sogefiha,0,5.3372711
node/6913201897,-4.0733126,,Antenne,0,5.3335416
node/6913201898,-4.0757574,,Cabine Bleue,0,5.3290163
node/6913201899,-4.0799806,,Akadjoba,0,5.3243327
node/6913201900,-4.0871836,,Saint Pierre,0,5.3239194
node/6913201901,-4.0925668,,EPP Niangon,0,5.3233739
node/6913201902,-4.0944323,,Arrêt,0,5.3197171
node/6913201903,-4.0947904,,Arrêt,0,5.3163701
node/6913201904,-4.0928994,,Arrêt Yop 38,0,5.3152357
node/6913201907,-4.0900334,,Terminus 27,0,5.315995
node/6913201908,-4.0934497,,Arrêt,0,5.3150643
node/6913201909,-4.0948509,,EPP SICOGI Niangon Sud,0,5.3172602
node/6913201910,-4.0943199,,Carrefour Marché,0,5.3202551
node/6913201911,-4.0926667,,EPP Niangon,0,5.3233885
node/6913201912,-4.0869619,,Saint Pierre,0,5.3240967
node/6913201913,-4.0797426,,Akadjoba,0,5.3246783
node/6913201914,-4.0762905,,Arrêt de bus,0,5.3287702
node/6913201915,-4.0184952,,Gare Sud,0,5.3146172
node/6913291219,-4.0183564,,Gare Sud,0,5.3144986
node/6913703797,-3.9977011,,CNTG-BNETD,0,5.329485
node/6913703798,-3.9970399,,UCAO,0,5.3310059
node/6913703799,-3.9973538,,Maison du PDCI-RDA,0,5.3350719
node/6913703800,-3.9997195,,Piscine d’État de Treichville,0,5.3084936
node/6913703801,-3.990551,,NSIA,0,5.3074734
node/6913703802,-3.9837714,,Gare Marcory,0,5.3086966
node/6913703803,-3.9975172,,Maison du Parti,0,5.3353656
node/6913703804,-3.9969162,,UCAO,0,5.3310313
node/6913703805,-3.9976804,,CNTG-BNETD,0,5.3293836
node/6913857608,-4.0658437,,Sable,0,5.3556761
node/6913857611,-4.0646331,,"Complexe Sportif, Yopougon",0,5.3407344
node/6913857612,-4.0665987,,Mairie de Yopougon,0,5.3424009
node/6913929664,-4.0375561,,La Marine,0,5.3443401
node/6913929665,-4.0262003,,Sitarail,0,5.3278599
node/6913929666,-4.0182404,,Gare Sud,0,5.3146272
node/6913929668,-4.0376761,,La Marine,0,5.3441859
node/6913929669,-4.0737128,,Gare Yopougon Kouté,0,5.3295615
node/6913931703,-4.0216157,,Gendarmerie,0,5.3367091
node/6913974340,-4.0217222,,Gendarmerie,0,5.3369705
node/6915341517,-3.9728972,,Soleil 2,0,5.400545
node/6915341518,-3.9837323,,Arrêt,0,5.4035247
node/6915341519,-3.9906836,,Arrêt,0,5.4062326
node/6915341520,-3.9894234,,Arrêt,0,5.4297269
node/6915341521,-3.9891222,,Arrêt,0,5.4313416
node/6915341523,-3.9725804,,Abobo Biabou,0,5.4564179
node/6915341525,-3.9726482,,Abobo Biabou,0,5.4564283
node/6915341526,-3.978184,,Arrêt,0,5.4454571
node/6915341527,-3.9810371,,Arrêt,0,5.4430187
node/6915341528,-3.9831075,,Arrêt,0,5.441543
node/6915341529,-3.9847859,,Arrêt,0,5.4403681
node/6915341530,-3.9859783,,Arrêt,0,5.4391313
node/6915341531,-3.9875153,,Arrêt,0,5.4368688
node/6915341532,-3.987991,,Arrêt,0,5.4356843
node/6915341533,-3.9883619,,Arrêt,0,5.434457
node/6915341534,-3.9887503,,Arrêt,0,5.4327625
node/6915341535,-3.9889419,,Arrêt,0,5.4312302
node/6915341536,-3.9892581,,Arrêt,0,5.4293215
node/6915341537,-3.9896961,,Arrêt,0,5.4264243
node/6915341538,-3.9902515,,Arrêt,0,5.4229496
node/6915341539,-3.9905681,,Arrêt,0,5.4208149
node/6915341540,-3.9907254,,Arrêt,0,5.4195345
node/6915341541,-3.9909298,,Arrêt,0,5.4182159
node/6915341542,-3.9922122,,Arrêt,0,5.4158878
node/6915341543,-3.9928597,,Arrêt,0,5.4154923
node/6915341544,-3.9947036,,Arrêt,0,5.4148205
node/6915341545,-3.9952879,,Arrêt,0,5.4141247
node/6915341546,-3.9932262,,Arrêt,0,5.409531
node/6915341547,-3.990564,,Petro Ivoire Angré,0,5.4050885
node/6915341548,-3.9829561,,Arrêt,0,5.403643
node/6915341549,-3.9807645,,Arrêt,0,5.4033522
node/6915487638,-3.96346,,9 Kilo,0,5.3585446
node/6915487639,-3.9586683,,Rond-Point de la Palmeraie,0,5.360974
node/6915487640,-3.9598948,,Carrefour de la Gendarmerie,0,5.3606149
node/6915487641,-3.9665508,,Cap Nord,0,5.3568703
node/6915487642,-3.9779824,,Riviéra 2,0,5.3532599
node/6915487643,-3.9881887,,École de Police,0,5.3502292
node/6915487644,-3.9943092,,École de la Gendarmerie,0,5.3492233
node/6915487645,-4.0018322,,Carrefour de la Vie,0,5.3485522
node/6915647682,-4.0185375,,Mairie d'ABOBO,0,5.4217637
node/6915647683,-4.0212736,,Arrêt,0,5.4270593
node/6915647684,-4.0241622,,Arrêt,0,5.4303911
node/6915696792,-3.9635319,,9 Kilo,0,5.3587403
node/6915696795,-3.9620358,,Chic Shop,0,5.3596047
node/6915696796,-3.9657802,,Cap Nord,0,5.3574857
node/6915696797,-3.9881605,,École de Police,0,5.3504609
node/6915696798,-3.9916044,,Carrefour CHU,0,5.3494956
node/6915696799,-3.994457,,École de la Gendarmerie,0,5.3493834
node/6915696800,-4.0029649,,Carrefour de la Vie,0,5.3485982
node/6915722685,-4.0266778,,Arrêt,0,5.4333404
node/6915722686,-4.0446977,,Anokoi,0,5.4390733
node/6915722687,-4.0485036,,PK 18 Agripac,0,5.4434752
node/6915722688,-4.0512502,,Arrêt,0,5.4482915
node/6915722689,-4.0529903,,Arrêt,0,5.4503535
node/6915722690,-4.0545715,,Arrêt,0,5.4565524
node/6915722691,-4.054497,,Arrêt,0,5.4574448
node/6915722692,-4.0544278,,Arrêt,0,5.465098
node/6915722693,-4.0540279,,Arrêt,0,5.4662168
node/6915722694,-4.0530974,,Arrêt,0,5.4680953
node/6915722695,-4.0538658,,Arrêt,0,5.4794949
node/6915722696,-4.0513358,,Arrêt,0,5.4828953
node/6915722697,-4.0513476,,Arrêt,0,5.4837187
node/6915722698,-4.05146,,Arrêt,0,5.4866626
node/6915722699,-4.0515593,,Arrêt,0,5.4890597
node/6915722700,-4.0516047,,Arrêt,0,5.4904279
node/6915722701,-4.0516233,,Arrêt,0,5.490915
node/6915722702,-4.051639,,Arrêt,0,5.4914503
node/6915722703,-4.0516636,,Arrêt,0,5.4928779
node/6915722704,-4.0517658,,Arrêt,0,5.4940805
node/6915722705,-4.0517794,,Arrêt,0,5.495095
node/6915722706,-4.0516644,,Arrêt,0,5.4960474
node/6915722707,-4.0515036,,Arrêt,0,5.4970767
node/6915722708,-4.051438,,Arrêt,0,5.497669
node/6915722709,-4.0513918,,Arrêt,0,5.4979794
node/6915722710,-4.0516497,,Arrêt,0,5.4995751
node/6915722711,-4.0519247,,Arrêt,0,5.500507
node/6915722712,-4.0520934,,Arrêt,0,5.5011338
node/6915722713,-4.0522125,,Arrêt,0,5.5015989
node/6915722714,-4.0525268,,Arrêt,0,5.5026911
node/6915722715,-4.0530594,,Arrêt,0,5.5045432
node/6915722716,-4.0532829,,Arrêt,0,5.5053444
node/6915722717,-4.0531365,,Mairie d'Anyama,0,5.5064599
node/6915722719,-4.0530408,,Mairie d'Anyama,0,5.5064064
node/6915722720,-4.0513828,,Arrêt,0,5.4976427
node/6915722721,-4.0523687,,Arrêt,0,5.5027177
node/6915722722,-4.0514357,,Arrêt,0,5.4994894
node/6915722723,-4.0516383,,Arrêt,0,5.4949787
node/6915722724,-4.051407,,Arrêt,0,5.4888603
node/6915722725,-4.0513417,,Arrêt,0,5.4863031
node/6915722726,-4.0512201,,Arrêt,0,5.4825896
node/6915722727,-4.0531887,,Arrêt,0,5.479955
node/6915722728,-4.0552147,,Arrêt A l'Ecole,0,5.4757466
node/6915722729,-4.0531044,,Arrêt Contrôle,0,5.470731
node/6915722730,-4.0534141,,Arrêt,0,5.4669354
node/6915722731,-4.053759,,Arrêt Ancienne Gendarmerie,0,5.4611068
node/6915722732,-4.0544875,,Arrêt,0,5.4526174
node/6915722733,-4.0526523,,Arrêt Ancien Marché,0,5.4503748
node/6915722734,-4.0510764,,Arrêt Terminus,0,5.4483606
node/6915722735,-4.0491425,,Arrêt Agripac,0,5.4449974
node/6915722736,-4.0484067,,Arrêt,0,5.4436482
node/6916152424,-4.0057551,,Terminus dépôt SOTRA,0,5.28758
node/6916152425,-4.0084018,,Pharmacie du Port,0,5.2890666
node/6916152426,-4.0033572,,Arrêt du CHU,0,5.2961604
node/6916152427,-4.0024808,,Gare de Bassam,0,5.2991407
node/6916181080,-4.0026565,,Arrêt,0,5.3478959
node/6916181081,-3.9983308,,Grande Pharmacie /Terminus 300FCFA,0,5.3700062
node/6916280433,-3.9930971,,Arrêt,0,5.4157357
node/6916280434,-3.9940211,,Terminus Abobo Baoulé,0,5.4149934
node/6916280435,-3.9948875,,Pharmacie Actuelle,0,5.4129627
node/6916280436,-3.9939447,,Arrêt,0,5.4103431
node/6916280437,-3.9923863,,Arrêt,0,5.4085794
node/6916280438,-3.9910921,,Saint Ambroise,0,5.4071215
node/6916280439,-3.990494,,Arrêt,0,5.4055233
node/6916280440,-3.9910264,,Arrêt,0,5.4011787
node/6916280441,-3.9912618,,Carrefour 22ème,0,5.3991513
node/6916280442,-3.991524,,SODECI,0,5.3973362
node/6916280443,-3.9918311,,Paris Baguette,0,5.3945043
node/6916280444,-3.9927256,,Arrêt,0,5.3875127
node/6916280445,-3.9952144,,Arrêt,0,5.3797969
node/6916280446,-3.9983542,,NSIA,0,5.3737207
node/6916280447,-3.9981216,,SGBGI,0,5.3700155
node/6916280448,-4.002571,,Cité BAD,0,5.3465781
node/6916280449,-4.0035403,,CIE,0,5.3386878
node/6917146061,-3.9865047,,Commissariat du 9 ème,0,5.3065218
node/6917146062,-3.9857063,,Commissariat du 9 ème,0,5.3061086
node/6917146063,-3.9807831,,King Cash,0,5.3034179
node/6917146064,-3.9776047,,Cabinet Médical du 3ème pont,0,5.3015677
node/6917146065,-3.9757915,,Marché de Marcory,0,5.3005869
node/6917146066,-3.9722389,,Paroisse Sainte Bernadette,0,5.2986259
node/6917146067,-3.9714765,,Pharmacie Bagoué,0,5.2982013
node/6917146068,-3.9688084,,Banque of Africa,0,5.2968312
node/6917146069,-3.9650103,,Arrêt,0,5.2965895
node/6917146070,-3.9608221,,Arrêt,0,5.2975636
node/6917146071,-3.9572333,,Place Inchallah,0,5.2983628
node/6917146072,-3.9531506,,Koumassi Prodomo,0,5.299281
node/6917146073,-3.9494388,,Gare Mesano,0,5.3001329
node/6917146074,-3.9476752,,Koumassi Mesano,0,5.3008577
node/6917146075,-3.9483867,,Koumassi Mesano,0,5.3002935
node/6917146076,-3.9505841,,Station Petro Ivoire,0,5.2998074
node/6917146077,-3.9543702,,Palce Inchallah,0,5.2989496
node/6917146078,-3.9585451,,Arrêt,0,5.2980163
node/6917146079,-3.9619419,,Arrêt,0,5.2972737
node/6917146080,-3.9660523,,Arrêt,0,5.2962808
node/6917146081,-3.9687629,,Banque of Africa,0,5.296728
node/6917146082,-3.9712863,,Pharmacie Bagoué,0,5.2980069
node/6917146083,-3.9759814,,Marché de Marcory,0,5.3006211
node/6917146084,-3.9778785,,Cabinet Médical du 3ème pont,0,5.3016585
node/6917151685,-3.9828404,,Arrêt,0,5.3044464
node/6917151686,-3.9860886,,Commissariat du 9 ème,0,5.3062161
node/6917151687,-3.988849,,Arrêt,0,5.3077309
node/6917151688,-3.9904413,,Yan Auto Ecole,0,5.3084636
node/6919194336,-4.0352896,,Gare Abobodoumé,0,5.3106101
node/6919312942,-4.0923844,,Cité Bracodi Rte Cité verte,0,5.3270854
node/6919312943,-4.1119954,,Cité Verte,0,5.332209
node/6919312945,-4.109973,,Collège Sebaco,0,5.3316148
node/6919312946,-4.1058974,,Cité Bracodi Rte Cité verte,0,5.3306787
node/6919312947,-4.1035223,,Banque BNI,0,5.3296893
node/6919312948,-4.100539,,Le repère,0,5.3284241
node/6919312949,-4.0976201,,Carrefour de Niangon,0,5.3278005
node/6919312950,-4.0812954,,Akadjoba,0,5.3241547
node/6919312951,-4.0351267,,Gare Abobodoumé,0,5.3103655
node/6919327587,-4.053652,,Le petit soleil,0,5.322126
node/6919327588,-4.0573213,,Blé Doré,0,5.3235388
node/6919327589,-4.0669544,,Marché Kouté,0,5.3241224
node/6919327590,-4.0710314,,Carrefour Kouté,0,5.3251706
node/6919327591,-4.0761933,,Marejea,0,5.325455
node/6919327593,-4.0818366,,Akadjoba,0,5.3238646
node/6919327594,-4.0914322,,Arrêt,0,5.3264405
node/6919327595,-4.0976496,,Carrefour de Niangon,0,5.327729
node/6919327596,-4.1005786,,Le repère,0,5.3283566
node/6919327597,-4.1035169,,Top Qualitée,0,5.3295851
node/6919327598,-4.1063239,,Cité Bracodi Rte Cité verte,0,5.3307695
node/6919758025,-3.9831407,,Arrêt,0,5.2982594
node/6919758026,-3.9792079,,Arrêt,0,5.2961308
node/6919758027,-3.9763809,,Arrêt,0,5.2945624
node/6919758028,-3.9743974,,Arrêt,0,5.293456
node/6919758029,-3.9712223,,Arrêt,0,5.2927669
node/6919758030,-3.9690283,,Arrêt,0,5.2932236
node/6919758031,-3.965347,,Arrêt,0,5.2940469
node/6919758032,-3.9603108,,Arrêt,0,5.2951953
node/6919758033,-3.9565101,,Arrêt,0,5.2961324
node/6919758034,-3.9526269,,Sogefia,0,5.297599
node/6919758035,-3.9478318,,Arrêt,0,5.2987064
node/6919758036,-3.9469644,,Station Petro Ivoire,0,5.3015424
node/6919758037,-3.9453759,,Arrêt,0,5.3043266
node/6919758038,-3.946713,,Bon Samaritain,0,5.3080062
node/6919758039,-3.9473403,,Pharmacie Fanny,0,5.3099762
node/6919758040,-3.9466942,,Patisserie MC,0,5.3109106
node/6919758041,-3.9450346,,Terminus 05 Lycée Municipal de Koumassi,0,5.311165
node/6924851825,-4.0106387,,"Avenue 19, Rue 12, Treichville",0,5.3023303
node/6924851826,-4.0115547,,FIESTA,0,5.3047639
node/6924851828,-4.0006757,,Treichville Entente,0,5.3028704
node/6924851829,-4.0016802,,Nostalgie,0,5.3015791
node/6924851830,-4.003555,,Banque Bicici,0,5.300882
node/6924851831,-4.0062869,,[Arret sans nom],0,5.2999593
node/6924851833,-4.0277536,,Gare Nord,0,5.3586294
node/6924979791,-4.0106307,,"Avenue 19, Rue 12, Treichville",0,5.3025272
node/6924979792,-4.0062426,,Pharmacie de l'Avenue 27,0,5.3029946
node/6924979794,-4.0008245,,Treichville Entente,0,5.3032777
node/6926746685,-4.0208888,,[Arret sans nom],0,5.3296238
node/6926746686,-4.0236032,,Terminus tours Administratives,0,5.3309876
node/6926746688,-4.018979,,Terminus Gare Sud,0,5.3149603
node/6926746689,-4.0096436,,Station Total,0,5.3018048
node/6926746749,-3.9737989,,Arrêt,0,5.4538834
node/6926746750,-3.9864522,,Arrêt,0,5.4385456
node/6926746751,-3.9903197,,Arrêt,0,5.4222388
node/6926746752,-3.9996626,,Arrêt,0,5.4154549
node/6926746753,-4.0016378,,Arrêt,0,5.4154484
node/6926746754,-4.0054049,,Arrêt,0,5.4155231
node/6926746755,-4.0071858,,Samake,0,5.4152696
node/6926746757,-4.0280449,,Gare Nord,0,5.3590439
node/6926746758,-4.0019605,,Arrêt,0,5.4155963
node/6926746759,-3.9928882,,Arrêt,0,5.4156232
node/6926746760,-3.9908193,,Sotra,0,5.4196603
node/6926746761,-3.9904401,,Arrêt,0,5.422222
node/6926746762,-3.9898619,,Arrêt,0,5.4265157
node/6926746763,-3.9886816,,Arrêt,0,5.43368
node/6926746764,-3.9873449,,Arrêt,0,5.4374054
node/6926746765,-3.9850082,,Arrêt,0,5.4402786
node/6926746766,-3.9807703,,Arrêt,0,5.443381
node/6926746767,-3.9785569,,Arrêt,0,5.4451883
node/6926943107,-3.946597,,Bon Samaritain,0,5.3079127
node/6926943108,-3.9451392,,Pharmacie Campement,0,5.3050831
node/6926943109,-3.9835873,,Hôpital Général de Marcory,0,5.3011838
node/6926943110,-4.0046641,,Pharmacie Notre-Dame,0,5.3034579
node/6926943111,-4.0185633,,Gare Sud,0,5.3146776
node/6926943112,-4.0236086,,Terminus tours Administratives,0,5.3311928
node/6927022357,-3.9840318,,[Arret sans nom],0,5.3051694
node/6927037611,-3.9930649,,Arrêt,0,5.4159386
node/6927037612,-4.0063405,,Arrêt,0,5.408251
node/6927037613,-4.0063848,,Arrêt,0,5.4057129
node/6927037614,-4.0064518,,Arrêt,0,5.4013897
node/6927037615,-4.0057893,,Arrêt,0,5.3930717
node/6927037616,-4.0056726,,Arrêt,0,5.3875774
node/6927037617,-4.0066168,,Arrêt,0,5.3801858
node/6927037618,-4.0168427,,Arrêt,0,5.3625903
node/6927037619,-4.0169801,,Pharmacie le Belier,0,5.3503578
node/6927037620,-4.0178358,,Fraternité Matin,0,5.3456673
node/6927037621,-4.0237561,,Arrêt,0,5.3411247
node/6927037622,-4.0237963,,Arrêt,0,5.3372751
node/6927037623,-4.0238252,,Arrêt,0,5.3339228
node/6927037625,-4.0238251,,Terminus tours Administratives,0,5.3310139
node/6927037626,-4.0238861,,Arrêt,0,5.3339515
node/6927037627,-4.0238741,,Ministère de la défense,0,5.3377117
node/6927037628,-4.0161668,,Arrêt,0,5.3557539
node/6927037629,-4.0068716,,Arrêt,0,5.379605
node/6927037630,-4.0059958,,Arrêt,0,5.386285
node/6927037631,-4.0065437,,Arrêt,0,5.4018603
node/6927037633,-3.9933257,,Abobo Belleville,0,5.4158855
node/6927327302,-4.0125125,,Arrêt,0,5.3434193
node/6927327303,-4.0103402,,Arrêt,0,5.346265
node/6927327304,-4.0088409,,Arrêt,0,5.3494085
node/6927327305,-4.0044479,,Arrêt,0,5.3529759
node/6927327306,-3.989773,,Arrêt,0,5.4043844
node/6927327307,-3.9851483,,Arrêt,0,5.4048944
node/6927327308,-3.9867901,,Arrêt,0,5.4082838
node/6927327309,-3.9890592,,Arrêt,0,5.407261
node/6927327310,-4.0043218,,Arrêt,0,5.3528041
node/6927327311,-4.0085859,,Arrêt,0,5.3493597
node/6927327312,-4.0102683,,Arrêt,0,5.3461658
node/6927327313,-4.0124663,,Polyclinique,0,5.3433536
node/6927327314,-4.0186967,,Gare Sud,0,5.3147983
node/6927330411,-3.9464354,,Campement,0,5.3022414
node/6927330412,-3.9450815,,Terminus 05 Lycée Municipal de Koumassi,0,5.3120389
node/6927330413,-3.9472561,,Pharmacie Fanny,0,5.3099838
node/6927330414,-4.0047298,,Arrêt,0,5.3362229
node/6927330416,-3.9938503,,Gare Campus Cocody,0,5.3462362
node/6927544633,-3.9972169,,INSAAC,0,5.3463523
node/6927544634,-4.0030417,,Saint Jean,0,5.3359628
node/6927544636,-4.0029552,,Saint Jean,0,5.3358129
node/6927544637,-3.9970998,,Gendarmerie,0,5.3482687
node/6927600976,-4.0175371,,Arrêt,0,5.3536864
node/6927600977,-4.0250561,,Mirador,0,5.3567305
node/6927631763,-4.0241115,,Arrêt SICOGI,0,5.3566458
node/6927694921,-4.0275494,,Gare Nord,0,5.3592856
node/6927701716,-3.9971908,,Arrêt,0,5.3470894
node/6928179123,-3.9700449,,Terminus Riviera 2,0,5.3534453
node/6928179124,-3.9736351,,Cité étudiante Riviera 2,0,5.3533983
node/6928179125,-3.9780678,,Riviera 2,0,5.3525929
node/6928179126,-3.9805625,,Petite Mosquée Riviéra Jardin,0,5.3512739
node/6928250859,-3.9803499,,Petite Mosquée Riviéra Jardin,0,5.3516026
node/6928250860,-3.9781867,,Riviera 2,0,5.3526374
node/6928250861,-3.9761267,,Arrêt,0,5.3530707
node/6928250862,-3.9702004,,Terminus Riviera 2,0,5.3534857
node/6928681599,-3.9975737,,Terminus Vridi-Iran,0,5.2563753
node/6928681601,-4.0101948,,Arrêt Cuirasse Ciment,0,5.2947326
node/6928681602,-4.0279685,,Gare Nord,0,5.3588804
node/6928704112,-4.0228924,,Terminus 32,0,5.3050571
node/6928704113,-4.0170398,,[Arret sans nom],0,5.3002851
node/6928704114,-4.0140854,,"Etablissements Rey, Port",0,5.29778
node/6928704115,-3.9995223,,Arrêt Bolloré logistique,0,5.264595
node/6928704117,-3.9975522,,Terminus Vridi-Iran,0,5.2562337
node/6929796960,-4.0182207,,Gare Sud,0,5.3143818
node/6929849943,-4.0189046,,Terminus Gare Sud,0,5.314962
node/6930487819,-3.9888954,,Arrêt,0,5.3078566
node/6930917942,-3.8943455,,Station Corlay Bingerville,0,5.3612016
node/6930917943,-3.9581935,,Après barrage,0,5.3618466
node/6930917944,-3.9537437,,Dalia,0,5.364055
node/6930917945,-3.9497378,,Église Apostolique de Côte d'Ivoire,0,5.3653603
node/6930917946,-3.94563,,Camp Millitaire d'Akouédo,0,5.3673945
node/6930917947,-3.9389929,,Carrefour Faya,0,5.370105
node/6930917948,-3.9347483,,Résidence Genie 2000,0,5.3712573
node/6930917949,-3.9301188,,Optic 2000,0,5.3725084
node/6930917950,-3.9237472,,Jules Verne,0,5.3741413
node/6930917951,-3.9108525,,Pharmacie Saint Sylvestre,0,5.3718715
node/6930917952,-3.9083956,,Cité Hévéas,0,5.3645064
node/6930917953,-3.9031767,,Université de Cocody Pole Scientifique,0,5.3606115
node/6930917954,-3.8979524,,CIE,0,5.360275
node/6930917955,-3.8963887,,[Arret sans nom],0,5.360916
node/6930917956,-3.8909747,,Lycée garçon de Bingerville,0,5.3577634
node/6930917957,-3.8866322,,Carrefour marché,0,5.3574363
node/6930917958,-3.8843503,,Espace Orange,0,5.3583363
node/6930917959,-3.8841063,,Hôpital Mère-Enfant de Bingerville,0,5.360674
node/6930917961,-3.886655,,Carrefour marché,0,5.3573589
node/6930917962,-3.8908299,,Lycée garçon de Bingerville,0,5.3576746
node/6930917963,-3.8980114,,CIE,0,5.3601255
node/6930917964,-3.9020951,,Université de Cocody Pole Scientifique,0,5.360215
node/6930917965,-3.9084667,,Cité Hévéas,0,5.3643261
node/6930917966,-3.9097783,,Cité Marina,0,5.368265
node/6930917967,-3.9108391,,Arrêt,0,5.3714883
node/6930917968,-3.9233838,,Jules Verne,0,5.3740098
node/6930917969,-3.9324215,,Coris Bank,0,5.3716378
node/6930917970,-3.9379911,,Arrêt,0,5.3701704
node/6930917971,-3.9456984,,Camp Millitaire d'Akouédo,0,5.3671088
node/6930917972,-3.9527636,,[Arret sans nom],0,5.3637324
node/6930917973,-3.9579964,,Après barrage,0,5.3617224
node/6931151021,-3.94723,,Arrêt,0,5.2993777
node/6931151022,-3.9523798,,Sogefia,0,5.2975523
node/6931151023,-3.9571428,,Arrêt,0,5.2958991
node/6931151024,-3.9596352,,Pharmacie Saint François,0,5.2952895
node/6931151025,-3.9646348,,Grande Pharmacie Iroko,0,5.2941237
node/6931151026,-3.9695299,,Arrêt,0,5.2929966
node/6931151027,-3.971683,,Pharmacie Du Boulevard Du Gabon,0,5.2924858
node/6931151028,-3.9757097,,Polyclinique La Madone,0,5.2940696
node/6931151029,-3.9801776,,Arrêt,0,5.2965781
node/6931151030,-3.9828604,,Arrêt,0,5.298031
node/6931151031,-4.027668,,Gare Nord,0,5.3590066
node/6931273195,-3.9540428,,Koumassi Sicogi - Dépôt SOTRA,0,5.2873212
node/6931273196,-3.964256,,[Arret sans nom],0,5.2849829
node/6931273197,-3.9651793,,[Arret sans nom],0,5.2875055
node/6931273198,-3.9684516,,Arrêt,0,5.2873493
node/6931273199,-3.9694119,,[Arret sans nom],0,5.2883388
node/6931273200,-3.9762314,,Sicomex,0,5.293018
node/6931273203,-4.0184375,,Gare Sud,0,5.3148159
node/6931792543,-4.0117713,,Pharmacie du Rond-point,0,5.3074119
node/6931792544,-4.0071049,,[Arret sans nom],0,5.3090558
node/6931792545,-3.9672808,,Centre comercial Koumassi,0,5.2889971
node/6931792546,-3.9622262,,Arrêt,0,5.2839293
node/6931792547,-3.9586401,,Pharmacie Bethanie,0,5.2847439
node/6931792548,-3.9543311,,Arrêt,0,5.2857761
node/6931792550,-3.9538698,,Koumassi Sicogi - Dépôt SOTRA,0,5.2884523
node/6931985671,-3.970533,,Grand Carrefour de Koumassi,0,5.2870688
node/6931985672,-4.001299,,Ivosep Treichville,0,5.2985627
node/6932152400,-4.060057,,Arrêt,0,5.3266769
node/6932152402,-4.0598402,,Ghandi,0,5.3250076
node/6932152404,-4.0599193,,Ghandi,0,5.3253408
node/6932152405,-4.0669167,,Arrêt,0,5.3600658
node/6932152407,-4.0182858,,Gare Sud,0,5.314853
node/6932239010,-3.9502595,,CIAD,0,5.3286224
node/6932239011,-3.951901,,Arrêt,0,5.3291271
node/6932239012,-3.9522216,,Arrêt,0,5.338314
node/6932239013,-3.9526011,,Carrefour Mel Theodore,0,5.3443655
node/6932239014,-3.9535043,,Pharmacie Riviera III,0,5.348653
node/6932239015,-3.9545015,,Collège l'Ardoise,0,5.3509724
node/6932239016,-3.9606719,,Arrêt,0,5.3550168
node/6932239017,-3.9637336,,Arrêt,0,5.3569209
node/6932239019,-4.0185761,,Gare Sud,0,5.3149333
node/6932253478,-3.9808642,,Angré Château,0,5.4127978
node/6932253479,-3.984559,,Arrêt,0,5.4102497
node/6932253480,-3.9930569,,Arrêt,0,5.3866094
node/6932253481,-3.9885655,,Arrêt,0,5.4076842
node/6932253483,-3.9809279,,Angré Château,0,5.4128518
node/6932323632,-3.9635029,,Arrêt,0,5.3569409
node/6932323633,-3.9543647,,Collège Ardoise,0,5.3517214
node/6932323634,-3.9531872,,Pharmacie Riviera III,0,5.3485048
node/6932323635,-3.9524998,,Carrefour Mel Theodore,0,5.3446873
node/6932323636,-3.9448656,,École libanaise Al Ghadir,0,5.3284521
node/6933043352,-4.0617429,,Terminus Yopougon Camp Militaire,0,5.3228845
node/6933043354,-4.0599163,,Ghandi,0,5.3245991
node/6933043355,-4.0607049,,[Arret sans nom],0,5.3278586
node/6933043356,-4.0581514,,[Arret sans nom],0,5.3300685
node/6933043357,-4.0559573,,[Arret sans nom],0,5.3314439
node/6933043359,-4.018425,,Gare Sud,0,5.3145591
node/6933080250,-3.9428298,,Arrêt,0,5.3283246
node/6933080251,-3.9447637,,École libanaise Al Ghadir,0,5.3282992
node/6933080252,-3.9460498,,Arrêt,0,5.3283286
node/6933080253,-3.9479502,,Pharmacie M'pouto,0,5.328364
node/6933080254,-3.9527768,,Beverly,0,5.3380122
node/6933080255,-3.9578046,,Carrefour Sol Béni,0,5.3311481
node/6933080256,-3.980421,,Arrêt,0,5.329493
node/6933080257,-3.9996752,,SIB,0,5.3353723
node/6933080258,-3.9401878,,Mosquée Cité Eden,0,5.3284154
node/6933080260,-3.9401855,,Mosquée Cité Eden,0,5.3283646
node/6933080262,-4.0026096,,Arrêt,0,5.3461454
node/6933080263,-3.9789297,,Mosquée Golf,0,5.3391939
node/6933080264,-3.9812806,,Arrêt,0,5.3325809
node/6933080265,-3.9790913,,Arrêt,0,5.3297881
node/6933080266,-3.9529652,,Beverly,0,5.3380134
node/6933128807,-4.0560298,,[Arret sans nom],0,5.3312516
node/6933128808,-4.0580978,,[Arret sans nom],0,5.3299817
node/6933128810,-4.0623571,,Terminus Yopougon Camp Militaire,0,5.3222556
node/6933231056,-4.0094478,,Station Total,0,5.3017767
node/6933231057,-4.0061849,,Pharmacie de l'Avenue 27,0,5.3029158
node/6933291484,-4.0272913,,Gare Nord,0,5.3589712
node/6933302185,-4.0277539,,Gare Nord,0,5.3591995
node/6934648710,-4.0210558,,Arrêt,0,5.4266332
node/6934648711,-4.0538116,,Arrêt,0,5.4438112
node/6934648712,-4.0603428,,Arrêt,0,5.4435976
node/6934648713,-4.0647738,,Arrêt,0,5.4434975
node/6934648714,-4.0679455,,Arrêt,0,5.4433733
node/6934648715,-4.0693985,,Arrêt,0,5.442806
node/6934648716,-4.0686147,,Arrêt,0,5.4392747
node/6934648717,-4.068663,,Arrêt,0,5.4321434
node/6934648718,-4.0699659,,Arrêt,0,5.428223
node/6934648719,-4.0783779,,Arrêt,0,5.413004
node/6934648720,-4.0834808,,Arrêt,0,5.4036687
node/6934648721,-4.0842761,,Arrêt,0,5.4009224
node/6934648722,-4.0810159,,Arrêt,0,5.3935763
node/6934648723,-4.078453,,Arrêt,0,5.3892384
node/6934648724,-4.0757427,,Arrêt,0,5.3836466
node/6934648725,-4.0773951,,Arrêt,0,5.3747704
node/6934648726,-4.0820444,,Arrêt,0,5.3762544
node/6934648728,-4.0759718,,Arrêt,0,5.3838941
node/6934648729,-4.0784458,,Arrêt,0,5.389032
node/6934648730,-4.0806236,,Arrêt,0,5.3928929
node/6934648731,-4.0842976,,Arrêt,0,5.4014804
node/6934648732,-4.0784144,,Arrêt,0,5.4130749
node/6934648733,-4.070195,,Arrêt,0,5.4279813
node/6934648734,-4.0686617,,Arrêt,0,5.4326393
node/6934648735,-4.069498,,Arrêt,0,5.4427909
node/6934648736,-4.0650186,,Arrêt,0,5.4435987
node/6934648737,-4.0602688,,Arrêt,0,5.4437261
node/6934648738,-4.0536714,,Arrêt,0,5.4438909
node/6934648739,-4.0481434,,Arrêt,0,5.4432611
node/6934648740,-4.0438735,,Arrêt,0,5.4392603
node/6934657650,-4.0169741,,220 logements,0,5.3480962
node/6934657651,-3.9618933,,Carrefour Akwaba,0,5.2690497
node/6934657652,-3.9633662,,Hôpital de Port-Bouët,0,5.2629137
node/6934657653,-3.9637684,,Nouveau marché Port-Bouët,0,5.2574343
node/6934657654,-3.961553,,Océan Espadon,0,5.2567198
node/6934657655,-3.9621216,,Église Méthodiste Unie Port-Bouët,0,5.2542438
node/6934657656,-3.9607128,,Wharf Port-Bouët,0,5.2530566
node/6934657657,-3.9560196,,Terminus Port-Bouët Phare,0,5.2510654
node/6934749721,-4.0201934,,Arrêt,0,5.400118
node/6934798183,-4.0027148,,Centre Commercial du Dokui,0,5.3970398
node/6934798184,-4.0014133,,Sainte Monique,0,5.3997114
node/6934815685,-3.9960703,,Superette Akwaba,0,5.3994163
node/6934815686,-3.9916306,,22ème,0,5.3979557
node/6934815687,-3.9959845,,Superette Akwaba,0,5.3992227
node/6934815688,-3.9972693,,Pharmacie Sainte Monique,0,5.3994417
node/6934815689,-4.0008152,,Station Petro Ivoire,0,5.3997942
node/6934815690,-4.0013301,,Sainte Monique,0,5.3994657
node/6934815692,-4.0026122,,Centre Commercial du Dokui,0,5.3970104
node/6934872150,-4.0506908,,Yopougon Kowëit,0,5.3221354
node/6934872151,-4.0802555,,Sideci Matignon,0,5.3218817
node/6934922723,-4.0109827,,Abobo Akeikoi Village,0,5.4604925
node/6934922724,-4.0111108,,Destin,0,5.4554315
node/6934922725,-4.0126598,,André Bar,0,5.4531085
node/6934922726,-4.0136415,,Arrêt,0,5.4493063
node/6934922727,-4.0143429,,Arrêt,0,5.4446991
node/6934922728,-4.0141618,,Arrêt,0,5.4400103
node/6934922731,-4.0137548,,Arrêt,0,5.4327535
node/6934922732,-4.0124023,,Arrêt,0,5.4336247
node/6934922733,-4.0143033,,Arrêt,0,5.4393221
node/6934922734,-4.0145279,,Arrêt,0,5.4445716
node/6934922735,-4.0137662,,Arrêt,0,5.4493357
node/6934922736,-4.0127617,,André Bar,0,5.4531566
node/6934922737,-4.0112489,,Destin,0,5.4554448
node/6934922738,-4.0110518,,Abobo Akeikoi Village,0,5.4604068
node/6934970640,-4.0352396,,Gare Abobodoumé,0,5.3102833
node/6935113685,-4.0240914,,Arrêt,0,5.4306528
node/6935113687,-4.0236072,,Terminus tours Administratives,0,5.3314011
node/6935117220,-4.0273828,,Gare Nord,0,5.3591731
node/6935117222,-3.9897309,,Woodin,0,5.3610508
node/6935117223,-3.9897537,,[Arret sans nom],0,5.3653222
node/6935117224,-3.9898489,,Nsia Banque,0,5.3685842
node/6935117225,-3.9904759,,Leader price,0,5.372732
node/6935117227,-3.9926612,,Carrefour Sainte Cécile - Terminus 35,0,5.3770534
node/6935251104,-3.9926425,,Carrefour Sainte Cécile - Terminus 35,0,5.3771843
node/6935251105,-3.9904471,,Sococé Vallon,0,5.3742722
node/6935251106,-3.9897873,,Nsia Banque,0,5.3686002
node/6935251107,-3.9897014,,[Arret sans nom],0,5.364963
node/6935251108,-3.9896753,,Woodin,0,5.3606736
node/6935251109,-3.9907542,,Versus Bank,0,5.3576192
node/6935251110,-3.9912866,,École de Police,0,5.3522302
node/6935251111,-3.99993,,Mermoz,0,5.3387479
node/6935251112,-4.0278565,,Gare Nord,0,5.3591581
node/6935274791,-3.9831166,,Groupe Scolaire Kouamé Konan,0,5.2627714
node/6935274792,-3.9774759,,Groupe Scolaire Petit Bassam,0,5.2569108
node/6935274793,-3.9696513,,Arrêt,0,5.2576259
node/6935274794,-3.965703,,Marché,0,5.2585828
node/6935274796,-3.9608596,,Pharmacie Océan,0,5.2568159
node/6935274797,-3.9581761,,Lycée Moderne Port Bouët,0,5.256199
node/6935274798,-3.9610527,,Carrefour Akwaba,0,5.2658583
node/6935274799,-3.9661886,,Digue de Koumassi,0,5.2758153
node/6935274800,-3.9692871,,CIE Bia Sud,0,5.2813533
node/6935274801,-3.962945,,Arrêt,0,5.2900094
node/6935274802,-3.9596587,,Arrêt,0,5.2907532
node/6935274803,-3.9555147,,Gare Koumassi,0,5.294113
node/6935274804,-3.9498116,,Pharmacie Regina,0,5.298266
node/6935274805,-3.9495504,,Pharmacie Regina,0,5.2982253
node/6935274806,-3.9582726,,Ajavon,0,5.2909815
node/6935274807,-3.9612938,,Foyer des Jeunes,0,5.2902818
node/6935274808,-3.9668678,,Centre Commercial Koumassi,0,5.2889304
node/6935274809,-3.9667035,,Carrefour Ancien Koumassi,0,5.2768282
node/6935274810,-3.9577992,,43ème Bima,0,5.2576733
node/6935274811,-3.9579253,,Lycée moderne Port-bouët ,0,5.2560567
node/6935274812,-3.9642432,,Nouveau Marché Port-Bouët,0,5.2574824
node/6935274813,-3.965754,,District de Port-Bouet,0,5.2584759
node/6935274814,-3.9693877,,Arrêt,0,5.2576319
node/6935274815,-3.9790309,,Arrêt,0,5.2572754
node/6935274816,-3.9893487,,Stade de la SIR,0,5.2569161
node/6935401276,-4.006142,,Arrêt,0,5.3852315
node/6935401277,-4.0060079,,Arrêt,0,5.3852595
node/6935401278,-4.0064532,,Arrêt,0,5.3984537
node/6935401279,-4.0064304,,Arrêt,0,5.4022949
node/6935401280,-4.0063405,,Arrêt,0,5.4087036
node/6935401281,-4.0062828,,Arrêt,0,5.4109493
node/6935401282,-4.0062493,,Arrêt,0,5.4143906
node/6935401283,-4.0170009,,Arrêt,0,5.420498
node/6935401284,-4.0141176,,Arrêt,0,5.4189547
node/6935407385,-4.0123071,,Arrêt,0,5.4179854
node/6935407386,-4.0094626,,Arrêt,0,5.4164927
node/6935488165,-4.0041834,,"Parc des Sports, Boulevard Valéry Giscard d'Estaing",0,5.2983706
node/6935488166,-3.9445075,,Carrefour Aéroport,0,5.2470403
node/6935488167,-3.9295542,,Arrêt,0,5.2446806
node/6935488168,-3.925598,,Arrêt,0,5.2440381
node/6935488169,-3.922044,,Arrêt,0,5.2434545
node/6935488170,-3.9170243,,Arrêt,0,5.2426599
node/6935488171,-3.9115848,,Arrêt,0,5.2417851
node/6935488172,-3.9051327,,Mosquée,0,5.2407648
node/6935494486,-3.9593026,,Arrêt,0,5.260825
node/6935494487,-3.984569,,Avenue de la Côte d'Ivoire / Boulevard V.G.E.,0,5.2976825
node/6935494488,-3.9005903,,Terminus Gonzagueville,0,5.2402774
node/6935494499,-3.9050053,,Mosquée,0,5.2405691
node/6935494500,-3.9104489,,Arrêt,0,5.2414058
node/6935494501,-3.9156765,,Arrêt,0,5.2422365
node/6935494502,-3.9216458,,Arrêt,0,5.243186
node/6935494503,-3.9251152,,Arrêt,0,5.2437256
node/6935494504,-3.9298091,,Arrêt,0,5.2444775
node/6935494505,-3.9372025,,Arrêt,0,5.2456701
node/6935494506,-3.94366,,Arrêt,0,5.2467051
node/6935494507,-3.9541537,,Arrêt,0,5.2492829
node/6935494508,-3.9579213,,43ème Bima,0,5.2573475
node/6935494509,-4.0065188,,Palais des Sports,0,5.299118
node/6935494511,-4.0149692,,Avenue Christiani,0,5.3101948
node/6937770645,-4.0082087,,Arrêt,0,5.3002327
node/6937770646,-3.9594314,,Arrêt,0,5.2618319
node/6937770647,-3.9424717,,Arrêt,0,5.2467278
node/6937770648,-3.9007735,,Terminus Gonzagueville,0,5.2400864
node/6937770649,-3.8973275,,Arrêt,0,5.2395482
node/6937770650,-3.893671,,Arrêt,0,5.2389973
node/6937770652,-3.8845293,,Pharmacie Bénediction,0,5.2375957
node/6937770653,-3.8802069,,Anani,0,5.2369286
node/6937770654,-3.8798529,,Anani,0,5.2368898
node/6937770655,-3.8749894,,Anani - Rond-point,0,5.2369172
node/6937770656,-3.8833565,,Arrêt,0,5.2372444
node/6937770657,-3.888965,,Collège privé les Cartésiens d'Abidjan,0,5.2380744
node/6937770658,-3.8928086,,Arrêt,0,5.2386868
node/6937770659,-3.8962466,,Arrêt,0,5.2391862
node/6937770660,-3.9013763,,Terminus Gonzagueville,0,5.2399789
node/6937789671,-3.9649889,,Arrêt,0,5.256211
node/6938095648,-4.01522,,Gare Abobo Sogephia,0,5.4354794
node/6938222040,-4.0222809,,Arrêt,0,5.4251869
node/6938222041,-4.0239143,,Arrêt,0,5.4191963
node/6938222042,-4.0240283,,Arrêt,0,5.4148659
node/6938222043,-4.0292727,,Arrêt,0,5.4147991
node/6938324861,-4.0807772,,Ebimpé Village,0,5.5005578
node/6938324862,-4.0807946,,Arrêt,0,5.5031942
node/6938324863,-4.0801696,,Arrêt,0,5.5033771
node/6938324864,-4.0769751,,Arrêt,0,5.5031182
node/6938324865,-4.0770207,,Arrêt,0,5.5007033
node/6938324866,-4.0762322,,Arrêt,0,5.5002134
node/6938324867,-4.07344,,Arrêt,0,5.5002334
node/6938324868,-4.0699397,,Arrêt,0,5.5000185
node/6938324869,-4.066591,,Arrêt,0,5.4982283
node/6938324870,-4.0678543,,Arrêt,0,5.4912933
node/6938324871,-4.0690076,,Arrêt,0,5.4869787
node/6938324872,-4.0697157,,Arrêt,0,5.4842033
node/6938324873,-4.0709844,,Arrêt,0,5.4791892
node/6938324874,-4.0715718,,Arrêt,0,5.4769371
node/6938324875,-4.072693,,Arrêt,0,5.4724328
node/6938324876,-4.0737471,,Arrêt,0,5.4679499
node/6938324877,-4.0739322,,Arrêt,0,5.4644949
node/6938324878,-4.0733501,,Arrêt,0,5.4606874
node/6938324879,-4.0724757,,Arrêt,0,5.4565342
node/6938324880,-4.0713693,,Arrêt,0,5.4517454
node/6938324881,-4.0706693,,Arrêt,0,5.4485133
node/6938324882,-4.0696567,,Arrêt,0,5.4441757
node/6938324883,-4.0681963,,Arrêt,0,5.4435135
node/6938324884,-4.056062,,Arrêt,0,5.443862
node/6938343085,-4.0494295,,Arrêt,0,5.4440736
node/6938407500,-3.9639542,,Hotel Communal Port-Bouët,0,5.2608437
node/6938407501,-3.9635653,,Hôpital Géneral de Port-Bouët,0,5.2629757
node/6938407503,-3.9564407,,Arrêt,0,5.293872
node/6938407504,-3.8886204,,Collège privé les Cartésiens d'Abidjan,0,5.2382227
node/6938756997,-3.9975952,,Farandole,0,5.3640511
node/6938792077,-3.9845087,,Arrêt,0,5.4036801
node/6938792078,-3.993252,,Arrêt,0,5.3829263
node/6938792079,-4.0186301,,Gare Sud,0,5.3147389
node/6939014886,-3.9887345,,Arrêt,0,5.3010837
node/6939014887,-3.9663789,,Pharmacie Sainte Aghate,0,5.3023803
node/6939014888,-3.9640502,,Terminus Remblais 03,0,5.3029659
node/6939014890,-3.9638825,,Terminus Remblais 03,0,5.302855
node/6939014891,-3.9684999,,Arrêt,0,5.3018088
node/6939014892,-3.9714879,,Arrêt,0,5.2984764
node/6939014894,-3.9848064,,Arrêt,0,5.3022895
node/6939014895,-4.0274686,,Gare Nord,0,5.359076
node/6939076692,-4.0059154,,Terminus dépôt SOTRA,0,5.2875728
node/6944816371,-4.0768933,,Sideci Pharmacie Lem,0,5.3314425
node/6944816372,-4.0798317,,Sideci Lem,0,5.3305385
node/6944816373,-4.0813807,,[Arret sans nom],0,5.3270574
node/6944816374,-4.0806283,,Akadjoba,0,5.3246445
node/6944887181,-4.0237293,,Terminus tours Administratives,0,5.3310827
node/6944887182,-4.0220542,,Arrêt,0,5.4253525
node/6944887183,-4.0240122,,Arrêt,0,5.4193151
node/6944887184,-4.0241008,,Arrêt,0,5.4150828
node/6944920985,-4.0292533,,Arrêt,0,5.4148679
node/6944920986,-4.0334697,,Terminus bus 51/52,0,5.4148038
node/6944934858,-4.0817052,,Arrêt,0,5.3274379
node/6944934859,-4.080812,,Sideci Lem - Carrefour Sgbci,0,5.330154
node/6944934860,-4.0773064,,Sideci Pharmacie Lem,0,5.3314305
node/6945017053,-3.99141,,École de Police,0,5.3521541
node/6945017054,-3.9914516,,[Arret sans nom],0,5.3569943
node/6945458783,-4.0082677,,Siège SOTRA,0,5.2865574
node/6945659474,-3.9722067,,Station Oilibya,0,5.2569502
node/6945659475,-3.9647529,,Arrêt,0,5.2566851
node/6945659476,-3.9643009,,Pharmacie Atlantique,0,5.2546846
node/6945659477,-3.9565238,,Port-Bouët Phare,0,5.2511255
node/6945864857,-4.0047848,,Vridi canal - Terminus 23,0,5.2531341
node/6945864858,-4.0046923,,Vridi canal - Terminus 23,0,5.2531701
node/6945864859,-4.0087358,,[Arret sans nom],0,5.2657115
node/6945864860,-4.0033337,,Arrêt du CHU,0,5.2957541
node/6945966271,-4.0134249,,Ciprel,0,5.260642
node/6945966272,-4.0138507,,[Arret sans nom],0,5.2649101
node/6945966273,-4.011446,,[Arret sans nom],0,5.265254
node/6945966274,-4.0086137,,[Arret sans nom],0,5.2660346
node/6945966275,-4.0060763,,[Arret sans nom],0,5.2688363
node/6948222228,-3.9581171,,Arrêt,0,5.3539352
node/6948222230,-3.9522725,,Arrêt,0,5.3417576
node/6948222231,-3.9521505,,Arrêt,0,5.3392567
node/6948222232,-3.952243,,Arrêt,0,5.3384929
node/6948222233,-3.943904,,Carrefour Ambassade de Chine,0,5.334941
node/6948222234,-3.9452136,,Antenne,0,5.3392333
node/6948222235,-3.9428439,,Akwaba,0,5.3385917
node/6948222236,-3.9393644,,Pharmacie,0,5.3355172
node/6948222237,-3.9368539,,Arrêt,0,5.3328633
node/6948222238,-3.9348771,,Centre de santé Municipal de M'Badon,0,5.3307248
node/6948222239,-3.9323347,,Teminus M'Badon,0,5.3286344
node/6948270620,-3.9322612,,Teminus M'Badon,0,5.3285142
node/6948270621,-3.9347577,,Centre de santé Municipal de M'Badon,0,5.3305385
node/6948270622,-3.9397017,,Pharmacie,0,5.3357956
node/6948270623,-3.9451191,,Arrêt,0,5.339027
node/6948270624,-3.9418454,,Ambassade de Chine,0,5.3329114
node/6948270625,-3.9568537,,Arrêt,0,5.3538285
node/6948290580,-3.9368337,,Arrêt,0,5.3327177
node/6948290581,-3.9429814,,Bureau Bad,0,5.3385823
node/6948290582,-3.9438068,,[Arret sans nom],0,5.3350024
node/6948466331,-3.9767852,,Arrêt,0,5.353946
node/6948466332,-3.9695473,,Arrêt,0,5.3560356
node/6948466333,-3.9273548,,Arrêt,0,5.3732347
node/6948466334,-3.9221262,,Arrêt,0,5.3744488
node/6948466335,-3.9116914,,Késsé,0,5.3738883
node/6948466336,-3.9090387,,Syndicat,0,5.3664705
node/6948466337,-3.8946091,,Station TEXACO,0,5.3613312
node/6948466338,-3.8895766,,La Poste,0,5.357652
node/6948466339,-3.8879555,,Pharmacie Du Marché,0,5.357433
node/6948466341,-3.8903531,,Sous-Prefecture de Bingerville,0,5.3576379
node/6948466343,-3.9285967,,Nouveau Goudron,0,5.372677
node/6948466345,-4.0026914,,Pharmacie les 7 Colonnes,0,5.3455151
node/6948695731,-3.9906777,,Arrêt,0,5.3346312
node/6948695732,-3.9758237,,Arrêt,0,5.3396564
node/6948695733,-3.9761442,,Arrêt,0,5.3414919
node/6948695734,-3.9751571,,Arrêt,0,5.3438403
node/6948695735,-3.975412,,Arrêt,0,5.3470921
node/6948695736,-3.9767209,,Arrêt,0,5.3520693
node/6948695738,-3.9760919,,Arrêt,0,5.3530066
node/6948695739,-3.9766203,,Arrêt,0,5.35209
node/6948695740,-3.9752188,,Arrêt,0,5.3468223
node/6948695741,-3.9750874,,Arrêt,0,5.343802
node/6948695742,-3.9760651,,Arrêt,0,5.3416148
node/6948695743,-3.9757586,,Arrêt,0,5.3397193
node/6948695744,-3.9754911,,Arrêt,0,5.3385022
node/6948695745,-3.9902714,,Arrêt,0,5.3344937
node/6948695746,-3.9957176,,Arrêt,0,5.3349056
node/6948706680,-4.0157926,,Warafa Assurance,0,5.321664
node/6948706681,-4.0152582,,Arrêt Résidence Nabil,0,5.3184017
node/6948706682,-4.0092923,,[Arret sans nom],0,5.3044274
node/6948791226,-4.0042001,,Terminus CHU Treichville,0,5.2949249
node/6948855820,-3.9679608,,Arrêt,0,5.3565604
node/6948855821,-3.9614752,,Arrêt,0,5.3599399
node/6948855822,-3.9289306,,Cité Millenium,0,5.3717967
node/6948855823,-3.9253854,,Arrêt,0,5.3584311
node/6948855824,-3.9247158,,Arrêt,0,5.3556661
node/6948855825,-3.924163,,Arrêt,0,5.3532496
node/6948855826,-3.9233825,,Collège Jeune Filles,0,5.3498507
node/6948855827,-3.9225573,,Oribat Cité Don Mello,0,5.3397928
node/6948855828,-3.9226348,,Arrêt,0,5.3329467
node/6948855829,-3.9191627,,Arrêt,0,5.3282217
node/6948855830,-3.9169304,,Paroisse,0,5.3283086
node/6948855831,-3.9161011,,EPP Abatta,0,5.326625
node/6948920956,-3.923136,,Arrêt,0,5.3342136
node/6948920957,-3.9158679,,Arrêt,0,5.3262131
node/6948920958,-3.9161935,,EPP Abatta,0,5.3267028
node/6948920959,-3.9169358,,Paroisse,0,5.3282218
node/6948920960,-3.9227374,,Arrêt,0,5.3329487
node/6948920961,-3.9220896,,Arrêt,0,5.3417243
node/6948920962,-3.9222706,,Arrêt,0,5.3443775
node/6948920963,-3.9228521,,Arrêt,0,5.3471041
node/6948920964,-3.9242797,,Arrêt,0,5.3532917
node/6948920965,-3.9254397,,Arrêt,0,5.3583733
node/6948920966,-3.9258534,,Sodeci Abatta,0,5.359984
node/6948920967,-3.9301027,,Nouveau Goudron,0,5.3722754
node/6951127812,-3.968976,,Arrêt,0,5.2579604
node/6951127813,-3.9654422,,Mairie Port-Bouët,0,5.2597086
node/6951127815,-3.9687383,,[Arret sans nom],0,5.2595919
node/6951127816,-4.0181731,,Gare Sud,0,5.3145654
node/6951182059,-3.9533649,,Arrêt,0,5.3373639
node/6951182060,-3.9559445,,Arrêt,0,5.3344449
node/6951182061,-3.9570247,,Arrêt,0,5.3308416
node/6951182062,-3.9531144,,Arrêt,0,5.3295658
node/6951182064,-3.9535137,,Arrêt,0,5.3296352
node/6951182065,-3.9572031,,Arrêt,0,5.330835
node/6951182066,-3.952412,,Arrêt,0,5.3414479
node/6951224049,-3.9630926,,Arrêt,0,5.2921887
node/6951224050,-3.9693582,,Commissariat de Police du 6ᵉ,0,5.2898905
node/6951224051,-4.0276527,,Gare Nord,0,5.3586694
node/6951939383,-3.9554248,,Gare Koumassi,0,5.2941431
node/6951939384,-4.0273499,,Gare Nord,0,5.3587923
node/6952071069,-3.9635003,,Terminus 31 Remblais,0,5.3024324
node/6952071070,-3.9623322,,Trois Ampoules,0,5.2975569
node/6952132224,-4.0109539,,"BIAO, Treichville",0,5.2988296
node/6952132225,-3.9883868,,"Pizza, Marcory",0,5.2884596
node/6952132226,-3.9855024,,"Bernabé Parc à Fer, Boulevard de Marseille",0,5.2853422
node/6952132227,-3.9824903,,[Arret sans nom],0,5.2786718
node/6952132228,-3.9767262,,Église Notre-Dame d'Afrique,0,5.2734369
node/6952132229,-3.9714865,,Sept Villas,0,5.2734089
node/6952132230,-3.9672503,,Arrêt,0,5.276028
node/6952132232,-3.9434065,,Arrêt,0,5.2486135
node/6952132233,-3.9386439,,EPP Aéroport,0,5.2544081
node/6952132234,-3.934246,,Aéroport,0,5.2536201
node/6952132235,-3.9450909,,Carrefour Aéroport,0,5.2469401
node/6952132240,-3.9409603,,Cité ASECNA,0,5.2544028
node/6952132241,-3.9424355,,Arrêt,0,5.2508117
node/6952132242,-3.9435728,,Arrêt,0,5.2480679
node/6952132243,-3.947171,,Maquis 5 sur 5,0,5.247278
node/6952132244,-3.9610943,,Pharmacie Océan,0,5.2567618
node/6952132245,-3.9627318,,Abattoir Port-Bouët,0,5.266498
node/6952132246,-3.9751598,,Arrêt,0,5.2726637
node/6952132247,-3.9878453,,Arrêt,0,5.28785
node/6952132248,-3.9917104,,Arrêt,0,5.2895893
node/6952132250,-3.9954532,,Arrêt,0,5.2912033
node/6952132251,-4.0104501,,"BIAO, Treichville",0,5.2984459
node/6952132252,-4.0182926,,Gare Sud,0,5.3144382
node/6952200468,-3.9495367,,Arrêt,0,5.3091986
node/6952200469,-3.9481486,,Centre Médico-social,0,5.3097742
node/6952200470,-3.9837456,,Hôpital Général de Marcory,0,5.3012025
node/6952200471,-3.986865,,Arrêt,0,5.3034286
node/6952200472,-4.0094613,,Arrêt,0,5.3042605
node/6952200475,-4.007007,,Arrêt,0,5.3052353
node/6952200476,-3.9855715,,Arrêt,0,5.3027926
node/6952200477,-3.952005,,Akromiambla-Terminus 32 Koumassi,0,5.3118954
node/6952244517,-4.0471624,,Arrêt,0,5.441531
node/6952566208,-4.0559909,,Arrêt,0,5.4436978
node/6952566209,-4.0699545,,Arrêt,0,5.4448793
node/6952566210,-4.0708852,,Arrêt,0,5.4490874
node/6952566211,-4.0716147,,Arrêt,0,5.4522514
node/6952566212,-4.0718146,,Arrêt,0,5.4532246
node/6952566213,-4.0726206,,Arrêt,0,5.4567491
node/6952566214,-4.0734789,,Arrêt,0,5.4606701
node/6952566215,-4.0739724,,Arrêt,0,5.4636378
node/6952566216,-4.074022,,Arrêt,0,5.4644695
node/6952566217,-4.0738437,,Arrêt,0,5.4679793
node/6952566218,-4.0727828,,Arrêt,0,5.4724295
node/6952566219,-4.0716872,,Arrêt,0,5.4769985
node/6952566220,-4.0710461,,Arrêt,0,5.4793881
node/6952566221,-4.0703045,,Arrêt,0,5.4821955
node/6952566222,-4.0699115,,Arrêt,0,5.4839777
node/6952566223,-4.0692893,,Arrêt,0,5.486354
node/6952566224,-4.0680795,,Arrêt,0,5.4911611
node/6952566225,-4.0667948,,Arrêt,0,5.4982644
node/6952566226,-4.0740864,,Arrêt,0,5.5001119
node/6952566227,-4.0767123,,Arrêt,0,5.5000518
node/6954138437,-3.9734097,,Petit Café,0,5.2862329
node/6954138438,-3.9775054,,Arrêt,0,5.2807083
node/6954138439,-3.9804116,,Arrêt,0,5.2823321
node/6954138440,-4.0126625,,Arrêt,0,5.300639
node/6954138442,-3.9828832,,Agence Nationale de la Formation Professionnelle (AGEFOP),0,5.28394
node/6954138443,-3.9776556,,Arrêt,0,5.2809293
node/6954138444,-3.973057,,UTTb Université Loko,0,5.2870755
node/6954138445,-3.9693475,,Marché DjeKonan,0,5.2892455
node/6954138446,-3.9518099,,Arrêt,0,5.3133129
node/6954511639,-3.9679319,,CIE Koumassi,0,5.2834138
node/6954511640,-3.9686649,,Hôpital de Koumassi,0,5.286559
node/6954926526,-4.0989914,,[Arret sans nom],0,5.3583583
node/6954926527,-4.1000086,,[Arret sans nom],0,5.3615502
node/6954926528,-4.0967993,,[Arret sans nom],0,5.3641759
node/6955038705,-3.9531577,,Koumassi Soweto - Dépôt 5,0,5.2859504
node/6955038706,-3.9582532,,Pharmacie Bethanie,0,5.2847586
node/6955038707,-3.9611265,,Sation Lavage,0,5.2840528
node/6955038708,-3.9680882,,CIE Koumassi,0,5.2836422
node/6955038709,-3.9688808,,Hôpital de Koumassi,0,5.2870421
node/6955038710,-3.984628,,Pharmacie Massarana,0,5.2996014
node/6955038711,-4.0275521,,Gare Nord,0,5.3587075
node/6955514933,-4.0217512,,Cité Administrative,0,5.3331711
node/6955514934,-3.9598243,,Arrêt Pharmacie Palmeraie,0,5.3635731
node/6955514935,-3.9580205,,Arrêt,0,5.3710263
node/6955514936,-3.9587393,,Arrêt,0,5.3720811
node/6955514937,-3.964382,,Cocody SCI Les Rosiers,0,5.3808935
node/6955514938,-3.9598592,,Arrêt,0,5.3727874
node/6955514939,-3.9592516,,Arrêt,0,5.3685488
node/6955514940,-4.0184346,,Gare Sud,0,5.3149553
node/6958966895,-3.9341971,,Aéroport,0,5.253474
node/6961370878,-3.981805,,Arrêt,0,5.2774525
node/6961370879,-3.9788787,,Pharmacie de Bietry,0,5.2744205
node/6961370880,-3.9421921,,Arrêt Dr08,0,5.2516684
node/6961370881,-3.9410589,,Cité ASECNA,0,5.2543801
node/6961643500,-4.0725361,,[Arret sans nom],0,5.3618139
node/6961643501,-4.0923724,,[Arret sans nom],0,5.373881
node/6961643502,-4.0945986,,[Arret sans nom],0,5.3718154
node/6963093974,-4.0858988,,Amondji,0,5.3396466
node/6963093975,-4.0810166,,Arrêt,0,5.3395998
node/6963093976,-4.0792436,,Pont Vagabond,0,5.3382505
node/6963093977,-4.0747274,,Arrêt,0,5.3403236
node/6963093979,-4.0181436,,Gare Sud,0,5.3147296
node/6963093981,-4.0732643,,Saint André lavage,0,5.3415106
node/6963093982,-4.0859069,,Amondji,0,5.3395197
node/6964184463,-3.9928235,,Aghien 2 plateaux,0,5.3883091
node/6964184464,-4.0044791,,[Arret sans nom],0,5.3359625
node/6964184466,-3.9923066,,Aghien 2 plateaux,0,5.3885302
node/6964184467,-4.0021368,,Carrefour la Vie,0,5.3502206
node/6964502135,-3.9596674,,Arrêt Pharmacie Palmeraie,0,5.3635871
node/6966758103,-4.0846449,,BAE,0,5.3609547
node/6966758104,-4.0882243,,Arrêt,0,5.3551851
node/6966758105,-4.0957546,,Carrefour Antenne Ananeraie,0,5.3549701
node/6966758106,-4.0988526,,Oasis,0,5.354878
node/6966758107,-4.0993729,,Sorbonne,0,5.3502259
node/6966758108,-4.0997625,,Arrêt,0,5.3462622
node/6966758109,-4.1031267,,Arrêt,0,5.333344
node/6966758111,-4.1044571,,Arrêt,0,5.3292232
node/6966758112,-4.1004723,,Arrêt,0,5.3441658
node/6966758113,-4.0999784,,Arrêt,0,5.3460138
node/6966758114,-4.0994869,,Sorbonne,0,5.3500978
node/6966758115,-4.0994742,,Arrêt,0,5.3529605
node/6966758116,-4.0992308,,Oasis,0,5.3549421
node/6966758117,-4.0918869,,Arrêt,0,5.3551971
node/6966849451,-4.016671,,Arrêt,0,5.3233545
node/6966849452,-4.0138976,,Arrêt,0,5.4486134
node/6966927285,-3.9637296,,Hotel Communal Port-Bouët,0,5.2613392
node/6966927286,-3.9605525,,Wharf Port-Bouët,0,5.2528723
node/6966927287,-4.0132633,,Arrêt,0,5.3027916
node/6966942817,-4.0140968,,Arrêt,0,5.4469386
node/6966942818,-4.0166429,,Arrêt,0,5.4381706
node/6966942819,-4.0159589,,Arrêt,0,5.4141149
node/6966942820,-4.0164229,,Arrêt,0,5.4069719
node/6967070473,-4.0007964,,Arrêt,0,5.2655592
node/6967070474,-4.0085238,,Arrêt,0,5.2772629
node/6967070475,-4.0085185,,Arrêt,0,5.279469
node/6967070476,-4.0210712,,Arrêt,0,5.3959876
node/6967070477,-4.016604,,Arrêt,0,5.4118438
node/6967070478,-4.0178807,,Arrêt,0,5.4197437
node/6967070479,-4.0187565,,Arrêt,0,5.4227157
node/6967070480,-4.0289891,,Arrêt,0,5.4356834
node/6967070481,-4.0302558,,Arrêt,0,5.4364023
node/6967070482,-4.0319341,,Arrêt,0,5.4370672
node/6967070483,-4.0332256,,Arrêt,0,5.4373075
node/6967070484,-4.0362847,,Arrêt,0,5.4377581
node/6967074785,-4.0391982,,Arrêt,0,5.4381539
node/6967074787,-4.0485819,,PK 18 Agripac,0,5.4435976
node/6967158577,-4.0197301,,Arrêt,0,5.4255661
node/6967158578,-4.017465,,Arrêt,0,5.4195782
node/6967158579,-4.0226068,,Arrêt,0,5.3053862
node/6967158580,-4.0082905,,Pharmacie du Port,0,5.2891307
node/6968911549,-4.0212006,,Abobo Gendarmerie,0,5.4269192
node/6968911550,-4.0229219,,Arrêt,0,5.4289586
node/6968911551,-4.0812264,,Arrêt,0,5.4078444
node/6968911556,-4.0851445,,CHU de Yopougon,0,5.3570551
node/6968911557,-4.080236,,Arrêt,0,5.3698106
node/6968911558,-4.0777087,,Arrêt,0,5.3746728
node/6968911559,-4.0687166,,Arrêt,0,5.4392253
node/6969221528,-4.0793476,,Arrêt,0,5.3423532
node/6969221530,-4.0177429,,Gare Sud,0,5.3141434
node/6969371620,-3.9117702,,Feh Kessé,0,5.3743039
node/6969583471,-4.0097992,,Clinique Providence,0,5.3472803
node/6969583472,-4.0106696,,Supermarché Casino,0,5.3451973
node/6969583474,-4.0185824,,Gare Sud,0,5.3147951
node/6969583476,-4.01752,,Gare Sud,0,5.3154387
node/6969583477,-4.0166201,,Novotel,0,5.3161731
node/6969583478,-4.0151837,,[Arret sans nom],0,5.3172748
node/6969583479,-4.015578,,Arrêt,0,5.3202726
node/6969583480,-4.0192916,,Arrêt,0,5.3209056
node/6969583481,-4.0207359,,Arrêt,0,5.3217388
node/6969583482,-4.0207185,,Hotel de Ville,0,5.3233639
node/6969583483,-4.0207171,,Arrêt,0,5.3257514
node/6969583484,-4.0207332,,Arrêt,0,5.3278011
node/6969620785,-4.0217525,,Cité Administrative,0,5.3335937
node/6970095632,-3.985249,,Termunis 81/82,0,5.4031227
node/6970095633,-3.9859892,,Arrêt,0,5.3971746
node/6970095634,-3.9875704,,Pharmacie Les 7 Lys,0,5.3841166
node/6970095635,-3.979157,,Arrêt,0,5.3643008
node/6970095637,-3.977256,,Riviera 2,0,5.3542958
node/6970095638,-3.978931,,Arrêt,0,5.3623286
node/6970095639,-3.9866585,,DGI,0,5.3924174
node/6970095641,-3.9853522,,Termunis 81/82,0,5.4031427
node/6970366278,-3.9506122,,Arrêt,0,5.3554107
node/6970366281,-3.950804,,Arrêt,0,5.3552038
node/6970366282,-3.9482653,,Arrêt,0,5.3652007
node/6970366283,-3.9522095,,Arrêt,0,5.3643008
node/6979256984,-4.0181825,,Arrêt,0,5.403546
node/6979431044,-3.9848581,,Arrêt,0,5.4038146
node/6979431045,-3.977142,,Arrêt,0,5.39671
node/6979431046,-3.9754421,,Arrêt,0,5.3902524
node/6979431047,-3.9747639,,Arrêt,0,5.387788
node/6979431048,-3.9737651,,Arrêt,0,5.3839137
node/6979431049,-3.9734902,,Arrêt,0,5.3828575
node/6979431051,-3.9627425,,Arrêt,0,5.3749859
node/6979431052,-3.984727,,Arrêt,0,5.4036825
node/6979712503,-3.9195342,,Arrêt,0,5.3281463
node/6979712504,-3.9224169,,Arrêt,0,5.3318471
node/6979712505,-3.9227159,,Arrêt,0,5.3394623
node/6979712506,-3.923066,,Arrêt,0,5.3479974
node/6979712507,-3.9234415,,Arrêt,0,5.3497346
node/6979712508,-3.924564,,Arrêt,0,5.3546363
node/6979712509,-3.9253713,,Arrêt,0,5.3579717
node/6979712510,-3.9221386,,Arrêt;Sodeci,0,5.3601
node/6979712511,-3.9265072,,Arrêt,0,5.3622665
node/6979712512,-3.9268023,,Arrêt,0,5.3635464
node/6979712513,-3.928193,,Arrêt,0,5.3687351
node/6979712514,-3.9379911,,Arrêt,0,5.3703787
node/6979712515,-3.9279167,,Arrêt,0,5.3679286
node/6979712516,-3.9227716,,Arrêt,0,5.3470093
node/6979712517,-3.9223344,,Arrêt,0,5.3449917
node/6979712518,-3.9218402,,Arrêt,0,5.3428352
node/6979712519,-3.9221104,,Arrêt,0,5.3413324
node/6980029236,-3.9344399,,Arrêt,0,5.2452454
node/6980029237,-3.9723435,,Arrêt,0,5.2569228
node/6980029238,-4.0062828,,Bank Of Africa,0,5.2684644
node/6980029239,-4.0139727,,Arrêt,0,5.2646043
node/6980029241,-4.0112543,,Arrêt,0,5.2587043
node/6980029242,-4.0138916,,[Arret sans nom],0,5.2648347
node/6980029243,-4.006083,,[Arret sans nom],0,5.2686721
node/6980258130,-3.9560491,,Terminus Port-Bouët Phare,0,5.2509145
node/6980521688,-4.0032211,,Arrêt,0,5.3433974
node/6980521689,-3.9976139,,Arrêt,0,5.3628414
node/6980521690,-4.0057075,,Arrêt,0,5.399921
node/6980521691,-4.0065511,,Arrêt,0,5.4015232
node/6980521692,-4.0065081,,Arrêt,0,5.4034191
node/6980521695,-4.0192406,,Terminus Gendarmerie Abobo,0,5.4241696
node/6980521696,-4.0134712,,Arrêt,0,5.4185708
node/6980521697,-4.0074744,,Arrêt,0,5.4155561
node/6980521698,-4.0062694,,Arrêt,0,5.4135434
node/6980521699,-4.0064277,,Arrêt,0,5.4035807
node/6980521700,-3.9990999,,Arrêt,0,5.3998663
node/6980521701,-3.992904,,Arrêt,0,5.3987194
node/6980521702,-3.9927913,,Arrêt,0,5.387006
node/6980521703,-3.9934525,,Arrêt,0,5.3819122
node/7025968250,-3.9718473,,Arrêt,0,5.2578469
node/7025975082,-3.9994057,,Arrêt,0,5.2642798
node/7025975083,-4.003783,,Arrêt,0,5.2682835
node/7025992286,-4.10439,,Arrêt,0,5.3292373
node/7026069662,-4.0083388,,[Arret sans nom],0,5.2771214
node/7026279881,-4.0149826,,Arrêt,0,5.341978
node/7026364429,-3.9547831,,Arrêt,0,5.2855772
node/7026390486,-3.9641359,,[Arret sans nom],0,5.2850417
node/7028872830,-3.9616643,,Océan Espadon,0,5.2566557
node/7028872831,-4.0278525,,Gare Nord,0,5.3588917
node/7043603291,-3.9736383,,Cité étudiante Riviera 2,0,5.3534289
node/7043642288,-4.0957761,,Carrefour Antenne Ananeraie,0,5.3550743
node/7044975088,-4.0344058,,Gare Lagunaire Yopougon STL,0,5.3109066
node/7044975089,-4.0170439,,Gare Lagunaire Plateau STL,0,5.3143858
node/7044975090,-4.0100701,,Gare Lagunaire Treichville STL,0,5.3135839
node/7046900012,-3.952125,,Gare Lagunaire Koumassi STL,0,5.315627
node/7046900013,-3.9603245,,Gare Lagunaire M'pouto STL,0,5.3240676
node/7046964142,-4.015859,,Gare Lagunaire de Treichville Sotra,0,5.3108107
node/7046964143,-4.0347196,,Gare Lagunaire d’Abobo-Doumé Sotra,0,5.3107009
node/7047063325,-4.0176728,,Gare Lagunaire du Plateau Sotra,0,5.3140753
node/7047101136,-4.0021442,,Gare lagunaire de Blockauss Sotra,0,5.3212342
node/7047930662,-4.0016118,,Arrêt,0,5.3562773
node/7047930663,-3.9856634,,Arrêt,0,5.4096636
node/7048020780,-3.9091802,,Syndicat,0,5.3665112
node/7048020781,-3.9119428,,Késsé,0,5.3739184
node/7048020782,-3.9446417,,Camp Millitaire d'Akouédo,0,5.3676562
node/7048020783,-3.9495032,,Église Apostolique de Côte d'Ivoire,0,5.3652501
node/7049258139,-4.1020069,,Yopougon Gesco - Terminus du bus 34,0,5.3672056
node/7049258140,-4.0973914,,Arrêt,0,5.365903
node/7049258141,-4.0976979,,Arrêt,0,5.3634963
node/7049258142,-4.1003995,,Arrêt,0,5.3608051
node/7049258143,-4.0998034,,Arrêt,0,5.3587021
node/7049258144,-4.0940326,,Mamie Adjoua,0,5.3582214
node/7049258145,-4.088628,,Arrêt,0,5.3552799
node/7049730219,-4.0120965,,Arrêt,0,5.3009034
node/7049730220,-3.9392397,,EPP Aéroport,0,5.2545644
node/7049730221,-3.9712512,,Sept Villas,0,5.2734289
node/7049730222,-3.9852691,,Arrêt,0,5.2844982
node/7051810979,-4.0031956,,Carrefour La Vie,0,5.3485715
node/7051810981,-4.0128221,,Terminus Liberté,0,5.3528057
node/7051810982,-3.9885668,,Ecole de Police,0,5.3503194
node/7051810984,-3.9797437,,Riviera 2,0,5.3530834
node/7051811086,-3.9788968,,Station Total Riviera 2,0,5.3529853
node/7051811087,-3.9909077,,Vallon,0,5.35446
node/7051811088,-4.0043946,,Escalier,0,5.3546991
node/7051811090,-4.0146225,,Adjamé liberté,0,5.3533605
node/7051905145,-4.0228106,,Gare Anono,0,5.3498521
node/7051905146,-4.0223607,,Station,0,5.3495777
node/7051905147,-4.0227932,,Banfora,0,5.347757
node/7051905148,-4.0227107,,Marché,0,5.3464705
node/7051905149,-4.0226899,,Eglise Saint Michel,0,5.3451372
node/7051905150,-4.0234597,,Eglise,0,5.343631
node/7051905151,-3.9993949,,SODEFOR,0,5.3490415
node/7051905152,-3.9919236,,Carrefour CHU,0,5.3494341
node/7051905153,-3.9869374,,Arrêt,0,5.3505471
node/7051905154,-3.9724706,,Terminus Anono,0,5.3445751
node/7051905155,-3.9744008,,Marché,0,5.3452895
node/7051905157,-3.9724521,,Terminus Anono,0,5.34455
node/7051905159,-3.9769623,,Arrêt,0,5.3504075
node/7051905160,-3.9778259,,Au Lavage,0,5.3500924
node/7051905161,-3.9809205,,A la Mosquée,0,5.3510311
node/7051905162,-3.9905101,,Carrefour CHU,0,5.349577
node/7051905163,-4.0228461,,Gare Anono,0,5.3497766
node/7052162358,-3.989405,,Ecole de Police,0,5.3501191
node/7052162359,-4.0226577,,Carrefour Saint Michel,0,5.3454176
node/7052162360,-4.0216117,,A La Caisse,0,5.3418391
node/7052162361,-3.9457347,,Akouédo,0,5.3673438
node/7052162362,-3.9324155,,Playce Palmeraie,0,5.3719142
node/7052162363,-3.9287925,,Nouveau Goudron,0,5.3728529
node/7052162364,-3.9122875,,Kessé,0,5.3743603
node/7052162365,-3.8981583,,CIE,0,5.3602229
node/7052162366,-3.8947412,,Station Texaco,0,5.3613609
node/7052162367,-3.8882764,,Collège Moderne,0,5.3575885
node/7052162369,-3.8845441,,Carrefour Bangui,0,5.3573081
node/7052162370,-3.8843443,,Terminus Carrefour Bangui,0,5.357718
node/7052162371,-3.8844985,,Carrefour Bangui,0,5.3571933
node/7052162372,-3.887693,,Collège Moderne,0,5.3574283
node/7052162373,-3.9374359,,Faya,0,5.3703106
node/7052162375,-4.0224532,,Gare en haut,0,5.350286
node/7052340401,-4.0218316,,Clinique Fraternité,0,5.3493033
node/7052340402,-4.0042631,,Escalier,0,5.3548993
node/7052340403,-3.9904813,,Vallon-1er Pont,0,5.3546376
node/7052340404,-4.0227482,,Gare en haut,0,5.3504162
node/7052340405,-3.9542839,,Terminus M'Pouto,0,5.3271876
node/7052340406,-3.9543486,,Terminus M'Pouto,0,5.3271989
node/7052340407,-3.9579682,,A l'Arrêt,0,5.3310206
node/7052340408,-3.9557567,,Banny,0,5.3347781
node/7052340409,-3.9537035,,Maison Blanche,0,5.337175
node/7052340410,-3.952691,,Mel Théodore,0,5.3452694
