location_type,stop_id,stop_name,stop_lat,stop_lon,parent_station
0,node/768587345,Yopougon Niangon-Terminus 27,5.3164439,-4.0893341,
0,node/768587373,Yopougon Sideci - Terminus 42,5.3198783,-4.0804016,
0,node/1227889258,Gare lagunaire Aqualines du Plateau,5.3158647,-4.0148847,
0,node/2381298633,Agban,5.3608351,-4.0171229,
0,node/2444131222,Fraternité Matin,5.3438972,-4.018311,
0,node/2460519991,Saint André lavage,5.3423485,-4.0732432,
0,node/2493226931,Arrêt,5.3413464,-4.0238611,
0,node/2493730483,Gare Koumassi,5.2942027,-3.9551669,
0,node/2760843854,Terminus 05 Lycée Municipal de Koumassi,5.3121324,-3.945225,
0,node/2948146673,Terminus bus 47,5.3396167,-4.0832298,
0,node/3067761599,Arrêt du Maroc,5.3396157,-4.0912463,
0,node/3067766555,Mosquée du Maroc,5.3400629,-4.0973067,
0,node/3075945505,Saint André,5.3423254,-4.0738295,
0,node/3137208051,[Arret sans nom],5.3427541,-4.0668084,
0,node/3137217828,2 poteaux,5.3436761,-4.0709484,
0,node/3137243386,Newton,5.3446768,-4.0679411,
0,node/3145728412,Riviera 2,5.3531115,-3.979568,
0,node/3218806159,Eglise Evangélique Internationnal Foursquare,5.3117096,-3.9487208,
0,node/3326195828,Saint Jean,5.3368705,-4.0037743,
0,node/3666057101,Pharmacie Port-Bouët II,5.3470567,-4.0884501,
0,node/3950172145,Figayo,5.3493507,-4.0734547,
0,node/4029208102,ENA,5.3616481,-3.9973698,
0,node/4107240891,Pharmacie de Bietry,5.2742845,-3.9787018,
0,node/4411562346,Terminus 85,5.3296306,-4.061373,
0,node/4999458824,Terminus CHU Treichville,5.2948647,-4.004071,
0,node/5057165424,Ex-pharmacie Mockey,5.30185,-4.011123,
0,node/5057297311,Carrefour St Jean,5.3369029,-4.0039817,
0,node/5068855021,Terminus 704 abobo Belleville,5.4158258,-3.9933116,
0,node/5143730222,Terminus M'pouto - CIAD,5.328322,-3.940785,
0,node/5143751833,Terminus M'pouto - CIAD,5.3284442,-3.9410686,
0,node/5281604034,[Arret sans nom],5.3437686,-4.0711802,
0,node/5390465849,Gare lagunaire Aqualines Yopougon,5.3078259,-4.0374018,
0,node/5414376221,Stif,5.3555889,-4.0205264,
0,node/5739489700,Complexe sportif de Yopougon,5.3415133,-4.0623618,
0,node/5927302128,Figayo,5.3493427,-4.073208,
0,node/5934409413,Arrêt,5.3419897,-4.1003513,
0,node/5936892363,Yopougon Gesco - Terminus du bus 34,5.3671401,-4.1020437,
0,node/5953580661,Pharmacie Val de Grace,5.3802448,-3.967352,
0,node/5953580667,Carrefour Palmeraie,5.3618751,-3.9593077,
0,node/5953580668,Station Shell Riviera 3,5.3582581,-3.9643623,
0,node/5954541435,CIAD,5.3286164,-3.9498433,
0,node/5954541439,Boulevard de France,5.3347766,-3.9902179,
0,node/5954541440,Carrefour de la Vie,5.3492831,-4.0024723,
0,node/5957239662,Carrefour 22ème,5.3989296,-3.991548,
0,node/5957239663,Carrefour Opéra,5.3855754,-3.9931428,
0,node/5957239665,ENA,5.3615936,-3.9975968,
0,node/5957239666,Hôtel Ivoire,5.328578,-4.0050058,
0,node/5958266385,Pharmacie Les Laureades,5.3975314,-3.9860303,
0,node/5958266386,Petro Ivoire 7è Tranche,5.3806539,-3.9881294,
0,node/5958266387,Commisariat 30è Art.,5.373758,-3.9845519,
0,node/5958266388,Terminus 202 Attoban,5.3701109,-3.9813021,
0,node/5958266389,Parmacie St Bernard,5.3673274,-3.9797109,
0,node/5958266390,Pharmacie St Ange,5.3573659,-3.9782153,
0,node/5958266391,Collège André Malraux,5.3558222,-3.9779596,
0,node/5958266392,Riviera 2,5.3541895,-3.9773239,
0,node/6098848385,Saint Paul Plateau,5.3247785,-4.0207447,
0,node/6136850508,Hôtel de Ville,5.3238162,-4.0205509,
0,node/6136850509,Hôtel de Ville,5.3234932,-4.0205339,
0,node/6136858285,Terminus Hotel de Ville,5.3226907,-4.0205256,
0,node/6195348341,Cathédrale Saint paul,5.3317403,-4.021322,
0,node/6281030720,Terminus bus 51/52,5.4148488,-4.0333199,
0,node/6474137921,Gare Abobo Sogephia,5.4351428,-4.0144508,
0,node/6474137923,BICICI,5.4364247,-4.0125419,
0,node/6474137925,Cours Sociaux,5.4382745,-4.0147435,
0,node/6474137927,Avenue Kaza,5.4381179,-4.019424,
0,node/6474137929,Camp Commando,5.4355472,-4.0202491,
0,node/6474137931,Station Shell,5.4306474,-4.0200922,
0,node/6474137932,Abobo Gendarmerie,5.4263959,-4.0198488,
0,node/6474137934,Abobo Gendarmerie,5.4234101,-4.0187446,
0,node/6474137936,2ème Arrêt,5.4171616,-4.0166455,
0,node/6474137938,Banco,5.4131456,-4.015971,
0,node/6474137940,Anador,5.4089746,-4.0160152,
0,node/6474137942,Université Nangui Abrogoua,5.392647,-4.0207427,
0,node/6474137944,Macaci,5.3774907,-4.0255918,
0,node/6474137946,Gare Nord,5.3592442,-4.027655,
0,node/6474137948,Gare Nord,5.3591608,-4.0274455,
0,node/6474137950,Grande Mosquée Adjamé,5.3533564,-4.0257671,
0,node/6474137952,Foire de Chine,5.347769,-4.0256668,
0,node/6474137954,Mairie d'Adjamé,5.3431984,-4.0259753,
0,node/6474137956,Cité Administrative,5.3312372,-4.0238205,
0,node/6474137958,Immeuble Sogefiha,5.3278045,-4.0238801,
0,node/6474137967,Gare Sud,5.3145043,-4.0181049,
0,node/6474137979,Présidence,5.3179651,-4.019718,
0,node/6474137980,Galerie du Parc,5.3225013,-4.0197472,
0,node/6474137981,Camp Galliéni,5.3339569,-4.0247204,
0,node/6474137982,Institut National de la Santé Publique,5.3386571,-4.026107,
0,node/6474137983,Mairie d'Adjamé,5.343713,-4.0260496,
0,node/6474137984,Marché Forum,5.3459921,-4.0258452,
0,node/6474138985,Pharmacie du Banco,5.3503682,-4.0255664,
0,node/6474138986,Grande Mosquée Adjamé,5.3534527,-4.0259071,
0,node/6474138987,Gare Nord,5.3586829,-4.028099,
0,node/6474138988,Macaci,5.3765774,-4.0263861,
0,node/6474138989,Filtisac,5.3906844,-4.021035,
0,node/6474138990,Anador,5.4085961,-4.0162969,
0,node/6474138991,Banco,5.4135848,-4.0162419,
0,node/6474138992,Saint-Joseph 2ème Arrêt,5.4183764,-4.0173344,
0,node/6474138993,Abobo Gendarmerie,5.4237125,-4.0190818,
0,node/6474138994,Bar Ivoire Abobo,5.4315506,-4.020231,
0,node/6474138995,DGI Abobo,5.4363436,-4.0203886,
0,node/6474138996,Avenue Kaza,5.4382274,-4.0189201,
0,node/6474138997,Carrefour Akeïkoi,5.4383936,-4.0138587,
0,node/6474138999,Terminus Gare Sud,5.3149589,-4.0190673,
0,node/6474139031,Cité Universitaire Abobo,5.4350792,-4.0127537,
0,node/6474139033,Quai 15,5.4354761,-4.0154322,
0,node/6815808830,Station Shell Riviera 3,5.3580852,-3.9641507,
0,node/6815808831,Carrefour Palmeraie,5.3620442,-3.9591336,
0,node/6815808833,CNPS 9ème Tranche,5.3865761,-3.9744202,
0,node/6815808834,Marché COCOVICO,5.4010646,-3.9780418,
0,node/6815808839,Quick Market,5.3738506,-3.9618125,
0,node/6815808840,Quick Market,5.3737728,-3.9618581,
0,node/6815808842,Commissariat 35è Art.,5.3776142,-3.9635563,
0,node/6815808843,CNPS 9ème Tranche,5.3866021,-3.9745308,
0,node/6815808844,Marché COCOVICO,5.4010482,-3.9781939,
0,node/6815808845,Pharmacie du bonheur,5.3698807,-3.9587098,
0,node/6815808846,Groupe Scolaire St Marc,5.383206,-3.9725319,
0,node/6819328985,Camp Commando de Koumassi,5.282599,-3.9692172,
0,node/6819329085,Grand Carrefour de Koumassi,5.2892136,-3.9707407,
0,node/6819329086,Hôtel Ibis Marcory,5.2921087,-3.9741109,
0,node/6819329185,Hôtel Ibis Marcory,5.2916293,-3.973691,
0,node/6819329285,Chimtec Grand carrefour Marcory,5.3008419,-3.9897184,
0,node/6820855646,Ambassade des USA,5.335819,-3.9767155,
0,node/6820855647,Hotel du Golf,5.3309825,-3.9728877,
0,node/6820855648,Hotel du Golf,5.3310297,-3.9730064,
0,node/6820855649,Ex Terminus Sotra;Carrefour Sol Beni,5.3312498,-3.9579229,
0,node/6831076677,Cathédrale Saint paul,5.332764,-4.021605,
0,node/6831076678,Église Méthodiste Unie de Côte d'Ivoire,5.3299678,-4.0205671,
0,node/6831076682,Gare Sud,5.3148704,-4.0185085,
0,node/6832290086,Cap Sud,5.2988832,-3.9867521,
0,node/6899034705,Gare de Bassam,5.2996481,-4.0022393,
0,node/6899034706,Gendarmerie,5.3004143,-3.9997862,
0,node/6899034707,Notre-dame,5.303315,-4.0037983,
0,node/6899034708,Pharmacie Nanan Yamousso,5.3072484,-4.005186,
0,node/6899034709,Après le Pont,5.3099574,-4.0061407,
0,node/6899034710,Adjamé Liberté,5.3534116,-4.0160603,
0,node/6899053345,Adjamé Liberté,5.3534437,-4.014858,
0,node/6899053346,Gare de Bingerville,5.3535364,-4.0120307,
0,node/6899053347,Feux du plateau,5.325075,-4.0152949,
0,node/6899053348,Nanan Yamousso,5.3101491,-4.0061218,
0,node/6899053349,Gare de Bassam,5.2996797,-4.0024275,
0,node/6899241573,Abobo Gare Mairie,5.4200067,-4.0174383,
0,node/6899241574,Mobil,5.4143755,-4.0159818,
0,node/6899241575,Lavage,5.3846198,-4.0215227,
0,node/6899241576,Macaci,5.37725,-4.0257575,
0,node/6899241577,Adjamé Liberté,5.3543459,-4.0164004,
0,node/6899264970,Marché Gouro,5.349107,-4.0212174,
0,node/6899264971,Adjamé Liberté,5.3547097,-4.0163905,
0,node/6899264972,Station Total,5.358734,-4.016791,
0,node/6899264973,Abobo Gare Mairie,5.4215493,-4.0171184,
0,node/6902638988,Carrefour Marché,5.4195759,-4.0153363,
0,node/6902638989,Petro Ivoire,5.4186048,-4.0135168,
0,node/6902638990,Au Bar,5.4168519,-4.0101975,
0,node/6902638991,Petit Carrefour,5.4157998,-4.0080786,
0,node/6902638992,Samaké,5.4152338,-4.0067032,
0,node/6902638993,Azur,5.3994804,-4.0064894,
0,node/6902638994,Panneau ZOO,5.3780522,-4.0070352,
0,node/6902638995,Abobo Gare Mairie,5.4197843,-4.0157753,
0,node/6902638996,Ciné Cool,5.4176548,-4.0117095,
0,node/6902638997,Boulangerie Samake,5.4144283,-4.0062697,
0,node/6902638998,Menuiserie,5.410863,-4.0062877,
0,node/6902638999,Tchapatcha,5.4101067,-4.0063067,
0,node/6902639000,Chaîne Avion,5.4092677,-4.0063409,
0,node/6902639001,Pharmacie Dokui,5.4051188,-4.0063993,
0,node/6902639002,SODECI,5.4036347,-4.0064176,
0,node/6902639003,Étage Noir,5.4020967,-4.0064567,
0,node/6902639004,Mobil,5.4001879,-4.0064867,
0,node/6902639005,Arrêt Dokui,5.3968179,-4.006353,
0,node/6902639006,Ancien Feu,5.3929293,-4.005793,
0,node/6902639007,Bangui,5.3872276,-4.005732,
0,node/6902639008,Vidange,5.3851864,-4.0060126,
0,node/6902639009,HMA,5.382931,-4.0063262,
0,node/6902639010,Carrefour paillet,5.3721147,-4.0118134,
0,node/6902639011,Carrefour 2 Plateaux,5.3653117,-4.0157876,
0,node/6902639012,Gare des gbakas d’Abobo par le zoo,5.3553627,-4.0160705,
0,node/6902868224,Petro Ivoire,5.4184847,-4.0136214,
0,node/6902868225,Ciné Cool,5.4176463,-4.0120067,
0,node/6902868226,Au Bar,5.4167077,-4.0102981,
0,node/6902868227,Pharmacie Dokui,5.4051935,-4.0065403,
0,node/6902868228,SODECI,5.4036701,-4.0065873,
0,node/6902868229,Étage Noir,5.40212,-4.0066315,
0,node/6902868230,Mobil,5.4002027,-4.0066597,
0,node/6902868231,Azur,5.3994577,-4.0066034,
0,node/6902868232,Arrêt Dokui,5.3965911,-4.0064518,
0,node/6902868233,Ancien Feu,5.3928327,-4.0059301,
0,node/6902868234,Bangui,5.387253,-4.005859,
0,node/6902868235,Vidange,5.3853034,-4.0060952,
0,node/6902868236,HMA,5.382907,-4.0064118,
0,node/6902868237,Carrefour paillet,5.3716859,-4.0122239,
0,node/6902868238,Carrefour 2 Plateaux,5.365405,-4.0159576,
0,node/6902868239,Willy Agban,5.3633371,-4.0168128,
0,node/6902868240,Cimetière,5.3668297,-4.0152077,
0,node/6902868241,CIE,5.3765337,-4.0094557,
0,node/6902868242,ZOO,5.3789939,-4.0070149,
0,node/6902868243,Eglise,5.3900553,-4.0056173,
0,node/6902868244,Pharmacie Racines,5.41329,-4.0099567,
0,node/6902868245,Abobo Gare Mairie,5.4197639,-4.0160257,
0,node/6902975747,Christine Bar,5.4500232,-4.0135154,
0,node/6902975748,Terminus Akéikoi Village,5.4607326,-4.0109926,
0,node/6902975749,À l'École,5.45899,-4.0107733,
0,node/6902975750,Destin,5.455207,-4.0112928,
0,node/6902975751,Monnaie,5.4542173,-4.0119566,
0,node/6902975752,André Bar,5.4528753,-4.0128592,
0,node/6902975753,Carrefour Marché,5.4510493,-4.0133357,
0,node/6902975754,A l'étage,5.446249,-4.0143571,
0,node/6902975755,Boulangerie,5.4394513,-4.0141843,
0,node/6902975756,Carrefour Akéikoi,5.4384053,-4.0140378,
0,node/6902975757,Gare Gbaka Akeïkoi,5.4225885,-4.0161726,
0,node/6903084141,Carrefour Marché,5.4510779,-4.0134484,
0,node/6903084142,André Bar,5.4530404,-4.0129173,
0,node/6903084143,Monnaie,5.4542793,-4.0120751,
0,node/6903097494,Au goudron,5.438503,-4.0142825,
0,node/6903097495,Abobo Gare,5.4227551,-4.0160694,
0,node/6903097496,Au tournant,5.4230451,-4.013945,
0,node/6903097497,Lycée Moderne Abobo 1 & 2,5.4278809,-4.0146415,
0,node/6903097498,Célibataire,5.433455,-4.0124107,
0,node/6903097499,JAUG,5.4352003,-4.0124925,
0,node/6903097500,Cité,5.4383233,-4.0135883,
0,node/6903097501,Boulangerie,5.449017,-4.0138345,
0,node/6903097502,Christine Bar,5.4500084,-4.0136722,
0,node/6903097503,Destin,5.4552984,-4.01134,
0,node/6903097504,À l'École,5.4594779,-4.0109968,
0,node/6903097505,Terminus Akéikoi Village,5.460775,-4.0111868,
0,node/6903193216,Mosquée,5.4429021,-4.0144891,
0,node/6903193217,A l'étage,5.4463091,-4.0144891,
0,node/6903268819,Abobo Gare Mairie,5.42194,-4.0165181,
0,node/6903268820,Gare Abobo Kennedy-Marché/ Mosquée Ado,5.4223082,-4.0163197,
0,node/6903268821,Station,5.4211585,-4.0100057,
0,node/6903268822,Kennedy Marché,5.4236887,-4.0015221,
0,node/6903296476,Mosquée,5.4220774,-4.011662,
0,node/6903296477,Carrefour Kennedy,5.4186997,-4.0059623,
0,node/6903296478,Carrefour Kennedy,5.418665,-4.0058919,
0,node/6903296479,Makan Traoré,5.4211643,-4.0039433,
0,node/6903296480,Au marché,5.4236156,-4.0015453,
0,node/6903296481,A Gauche,5.423623,-4.0021714,
0,node/6903296482,Makan Traoré,5.4214359,-4.0037249,
0,node/6903347574,Cocody Riviera M'badon,5.3286546,-3.9324706,
0,node/6903347575,Nouveau marché,5.3293417,-3.9332267,
0,node/6903347576,Ancien marché,5.329969,-3.9339946,
0,node/6903347577,Centre de santé Municipal de M'Badon,5.3307517,-3.9350317,
0,node/6903347578,La ferme,5.331008,-3.9352626,
0,node/6903347579,Pharmacie,5.3353839,-3.9393933,
0,node/6903347580,2 poteaux,5.3384154,-3.9427407,
0,node/6903347581,Antenne,5.339948,-3.945032,
0,node/6903347582,Carrefour Akouédo,5.345935,-3.9457017,
0,node/6903347583,École,5.3461517,-3.9471733,
0,node/6903347584,2ème rond-point,5.3458217,-3.9505483,
0,node/6903370485,Gare en haut,5.3503568,-4.0227501,
0,node/6903374200,Station,5.4210882,-4.0100339,
0,node/6903374201,Immeuble Cercueil,5.4196516,-4.00729,
0,node/6903374202,Immeuble Cercueil,5.4195942,-4.0074087,
0,node/6903397403,Terminus mosquée Ado Kenedy,5.4234508,-3.9978515,
0,node/6903397404,À l'École,5.4215774,-3.9978489,
0,node/6903397405,[Arret sans nom],5.4198617,-3.9979409,
0,node/6903397406,Dahico,5.4185867,-3.9980283,
0,node/6903397407,Étage Noir,5.4157689,-3.9992242,
0,node/6903406997,Samaké,5.415578,-4.0059533,
0,node/6903406998,Eglise,5.4156012,-4.0037563,
0,node/6903504058,Eglise,5.4155167,-4.0037625,
0,node/6903504059,Monastère,5.4155583,-4.0007112,
0,node/6903504060,Monastère,5.4154526,-4.0008035,
0,node/6903504061,Étage Noir,5.4157731,-3.999403,
0,node/6903504062,Dahico,5.4185995,-3.9981732,
0,node/6903525051,Hôtel du centre,5.4339087,-4.0272132,
0,node/6903525052,A la Pompe,5.437375,-4.0337387,
0,node/6903525053,Dépôt,5.4377181,-4.0360617,
0,node/6903525054,Anokoi,5.4390697,-4.0444772,
0,node/6903525055,Anokoi,5.439303,-4.0444823,
0,node/6903525056,Marahoué,5.4422211,-4.0479148,
0,node/6903525057,Agripac,5.4439581,-4.0487972,
0,node/6903525058,Terminus,5.447775,-4.0509604,
0,node/6903525059,Terminus,5.4479797,-4.0508555,
0,node/6903525060,Agripac,5.4446545,-4.0489498,
0,node/6903525061,Marahoué,5.4425017,-4.0477433,
0,node/6903525062,Dépôt,5.4379717,-4.0360937,
0,node/6903525063,A la Pompe,5.4376377,-4.033852,
0,node/6903525064,Marché de Nuit,5.4367133,-4.030245,
0,node/6903525065,Hôtel du centre,5.4340417,-4.026894,
0,node/6903525066,Abobo Gare,5.4217034,-4.018191,
0,node/6903535584,Complexe,5.3489387,-4.0206447,
0,node/6903544086,Gare en haut,5.350348,-4.0224464,
0,node/6903544087,Maternité,5.3481387,-4.0180948,
0,node/6903544088,Adjamé Liberté,5.3521055,-4.014163,
0,node/6903544089,2ème pont,5.3547793,-4.0029137,
0,node/6903544090,Marché,5.3301187,-3.9339759,
0,node/6903602207,Abobo Gendarmerie,5.4263231,-4.0203577,
0,node/6903602208,Mosquée Blanche,5.4298704,-4.0233336,
0,node/6903602209,Solibra,5.4332219,-4.0262471,
0,node/6903602210,Château,5.4359152,-4.0288774,
0,node/6903602211,A l'escalier,5.4383388,-4.0383071,
0,node/6903602212,PK 18 ancien marché,5.4497913,-4.0521369,
0,node/6903602213,Abobo Gare,5.4220421,-4.0184916,
0,node/6903602214,Abobo Gendarmerie,5.4260466,-4.0204342,
0,node/6903602215,Gendarmerie Avant le Feu,5.426524,-4.0208376,
0,node/6903602216,Mosquée Blanche,5.4297276,-4.0236152,
0,node/6903602217,Solibra,5.4330817,-4.0264367,
0,node/6903602218,Château,5.4357519,-4.0290698,
0,node/6903602219,Marché de Nuit,5.4365893,-4.0306363,
0,node/6903602220,A l'escalier,5.4380495,-4.0384581,
0,node/6903602221,Nouvelle Gare,5.4382834,-4.0411411,
0,node/6903602222,Agripac Avant le Feu,5.4448006,-4.0493193,
0,node/6903602223,Station Total,5.4493883,-4.0520966,
0,node/6903602224,PK 18 ancien marché,5.4499639,-4.052542,
0,node/6903639366,Attoban camp,5.370557,-3.9761316,
0,node/6903639367,Escalier,5.3694267,-3.9776678,
0,node/6903639368,Pharmacie Saint Bernard,5.3673899,-3.9794185,
0,node/6903639369,Carrefour Garage,5.3658448,-3.9793174,
0,node/6903639370,Polyclinique Sacré-Coeur,5.365069,-3.9792552,
0,node/6903639371,Jules ferry,5.3642087,-3.9790994,
0,node/6903639372,Hôtel Manhatan,5.362115,-3.9788028,
0,node/6903639373,Doraville,5.3589924,-3.978316,
0,node/6903639374,Pharmacie Saint ange,5.3571667,-3.9780678,
0,node/6903639375,André Malraux,5.356275,-3.9777617,
0,node/6903639376,Gare en haut,5.3505392,-4.0228251,
0,node/6903968407,Pharmacie Saint Bernard,5.3672689,-3.9796695,
0,node/6903968408,Carrefour Garage,5.3655779,-3.9794498,
0,node/6904171063,Attécoubé Terminus 04,5.343795,-4.0345833,
0,node/6904171064,[Arret sans nom],5.346448,-4.0345467,
0,node/6904171065,Marché,5.3490624,-4.033957,
0,node/6904171066,Station Afriquia,5.3501257,-4.032333,
0,node/6904171067,Carrefour Attecoubé,5.3524283,-4.0328135,
0,node/6904171068,[Arret sans nom],5.3574167,-4.0309717,
0,node/6904171070,Pharmacie du Banco,5.3513557,-4.0254169,
0,node/6904171071,Adjamé Santé,5.3412757,-4.0261722,
0,node/6904171072,Institut National de la Santé Publique,5.3381159,-4.025807,
0,node/6904171073,Cité Administrative,5.3318344,-4.0230192,
0,node/6904171074,Cité financière Plateau,5.3266073,-4.0206008,
0,node/6904171075,SIB Alpha 2000,5.3237991,-4.0196512,
0,node/6904171076,Primature,5.3206169,-4.0196681,
0,node/6904171077,Résidence Cheick Yacouba Sylla,5.3089287,-4.0157481,
0,node/6904171078,Marché Treichville,5.3094876,-4.0142576,
0,node/6904171079,[Arret sans nom],5.3109791,-4.0099697,
0,node/6904171080,Biafra,5.3126563,-4.006092,
0,node/6904171081,Banque Atlantique,5.3076251,-3.9933399,
0,node/6904171082,Hôtel Hamanieh,5.3052787,-3.9888629,
0,node/6904171083,Sainte Thérèse,5.3043423,-3.9869873,
0,node/6904171084,Commissariat du 9 ème,5.3064581,-3.9858381,
0,node/6904188585,Gare Marcory,5.3088083,-3.9839517,
0,node/6905326498,Gare Nord,5.3589119,-4.0281877,
0,node/6905326503,Château,5.4366266,-4.0307925,
0,node/6905344262,Préfecture de Police,5.3843543,-4.0219308,
0,node/6905344263,Arrêt Centre Bus,5.4375564,-4.0351608,
0,node/6905344264,Terminus 45 À l'escalier,5.4384645,-4.0390169,
0,node/6905344265,Arrêt Centre Bus,5.4378844,-4.0351391,
0,node/6905344266,Château,5.4365245,-4.0299554,
0,node/6905344267,Arrêt,5.4328931,-4.0259685,
0,node/6905344268,Abobo Gendarmerie,5.4284112,-4.0222108,
0,node/6905344273,Préfecture de Police,5.3836534,-4.0219627,
0,node/6905553518,Abobo Gendarmerie,5.4284566,-4.0225102,
0,node/6905553519,[Arret sans nom],5.4327155,-4.0261674,
0,node/6905719605,Foire de Chine,5.3485701,-4.0256884,
0,node/6905719606,Église Méthodiste Unie de Côte d'Ivoire,5.3299376,-4.0206943,
0,node/6905719607,60 logements Plateau,5.3251345,-4.0201163,
0,node/6905719608,Hôpital du port,5.3087867,-4.0177138,
0,node/6905719609,Maison du Congres,5.3097288,-4.0148424,
0,node/6905719610,Pharmacie du Rond-point,5.3073425,-4.0116929,
0,node/6905719611,[Arret sans nom],5.3090218,-4.0069793,
0,node/6905719612,Nanan Yamousso,5.3080275,-4.005442,
0,node/6905719613,Paroisse Notre-Dame de Treichville,5.3048828,-4.0043543,
0,node/6905719614,Pharmacie de l'Entente,5.3045623,-4.0015648,
0,node/6905719615,Marché de Belleville,5.3055251,-3.998829,
0,node/6905719616,Banque Atlantique,5.3075214,-3.9931172,
0,node/6905719617,Hôtel Hamanieh,5.3049722,-3.9887868,
0,node/6905719618,Commissariat du 9éme,5.3055778,-3.986118,
0,node/6905719619,Station Shell,5.308097,-3.9847286,
0,node/6905719620,[Arret sans nom],5.3584965,-4.0284151,
0,node/6905719621,[Arret sans nom],5.357702,-4.0304951,
0,node/6905719622,Carrefour Attecoubé,5.3515438,-4.0321715,
0,node/6905719623,Banque Atlantique,5.3489601,-4.03386,
0,node/6905719624,Commissariat du 10ᵉ arrondissement,5.3471108,-4.0344246,
0,node/6905719625,Attécoubé Terminus 04,5.3437946,-4.0344802,
0,node/6905772459,Saint Paul,5.3251603,-4.0219475,
0,node/6905772460,Immeuble Sogephia Hévéa,5.3282245,-4.0239746,
0,node/6905772461,Musée du Plateau,5.3337809,-4.0245113,
0,node/6905772466,Cours Sociaux,5.4383593,-4.0160546,
0,node/6905842305,Gare Nord,5.3590397,-4.0275686,
0,node/6905842307,Long Champs,5.3252327,-4.0224693,
0,node/6906463287,Gare Koumassi,5.293902,-3.9560075,
0,node/6906463288,Pharmacie Ehilie,5.2928524,-3.9602508,
0,node/6906463289,Mosquée,5.2913568,-3.966735,
0,node/6906463290,Échangeur de Marcory,5.2956714,-3.980944,
0,node/6906463291,Grand carrefour Marcory,5.2998527,-3.98845,
0,node/6906463292,Collège Moderne Autoroute,5.2998184,-3.9976917,
0,node/6906463293,Gare de Bassam,5.2999823,-4.0026734,
0,node/6906463294,Ecobank,5.3018099,-4.003273,
0,node/6906463296,Adjamé Liberté,5.3534012,-4.0155251,
0,node/6906507833,BICICI,5.4365892,-4.0124238,
0,node/6906575629,Adjamé Liberté,5.3546594,-4.0164467,
0,node/6906575630,Williams-Ville,5.3631417,-4.0169033,
0,node/6906575631,Carrefour 2 Plateaux,5.3658197,-4.0157829,
0,node/6906575632,[Arret sans nom],5.3662557,-4.0156117,
0,node/6906575633,Paillet,5.3716139,-4.0122293,
0,node/6906575634,[Arret sans nom],5.374069,-4.0112578,
0,node/6906575635,[Arret sans nom],5.3898833,-4.005605,
0,node/6906575636,[Arret sans nom],5.4045622,-4.0065311,
0,node/6906575637,[Arret sans nom],5.4113412,-4.0064187,
0,node/6906575638,ANADER,5.4126483,-4.0064133,
0,node/6906590689,Samaké,5.4148754,-4.0064263,
0,node/6906590691,Samaké,5.41527,-4.0068417,
0,node/6906590692,Chaîne Avion,5.4101483,-4.0063152,
0,node/6906590693,1ere Boutique,5.4073533,-4.0063867,
0,node/6906590694,Carrefour 2 Plateaux,5.3659384,-4.0155634,
0,node/6906590695,Adajmé Liberté,5.3546002,-4.0162927,
0,node/6906596960,Adjamé Liberté,5.35345,-4.015528,
0,node/6906596961,Nanan Yamousso,5.3100359,-4.0060884,
0,node/6906596962,Karwil,5.3054677,-4.0044435,
0,node/6906596963,Notre-dame,5.3031308,-4.0036369,
0,node/6906596964,Gare de Bassam,5.3003893,-4.0026404,
0,node/6906596965,Collège Moderne Autoroute,5.2998444,-3.9983918,
0,node/6906596966,Cap Sud,5.2987234,-3.9859637,
0,node/6906596967,Échangeur Marcory,5.2959351,-3.981013,
0,node/6906596968,Auto-école,5.2912433,-3.9675638,
0,node/6906596969,Arrêt,5.2919737,-3.964494,
0,node/6906596970,Boulangerie,5.292783,-3.9610541,
0,node/6906699462,ZOO,5.3790616,-4.0069936,
0,node/6906699463,1ere Boutique,5.4074152,-4.0065336,
0,node/6906699464,Paillet,5.3723989,-4.0116794,
0,node/6906699465,[Arret sans nom],5.3898979,-4.0054621,
0,node/6906699466,Arrêt Dokui,5.3967647,-4.0065122,
0,node/6906699467,Arrêt Dokui,5.3968689,-4.0063445,
0,node/6906699468,ANADER,5.4121402,-4.0062842,
0,node/6906699469,[Arret sans nom],5.4169293,-4.0106347,
0,node/6906699470,[Arret sans nom],5.4170815,-4.0106159,
0,node/6906699471,Abobo Mairie,5.4197017,-4.0159368,
0,node/6906699472,Abobo Mairie,5.4197512,-4.0156192,
0,node/6907121506,Gare Williamsville,5.3675641,-4.0235294,
0,node/6907121507,Mosquée,5.3658243,-4.0207037,
0,node/6907121508,Croix Bleue,5.3643529,-4.0189161,
0,node/6907121509,Agban avant le pont,5.3576606,-4.0160715,
0,node/6907121510,Pharmacie le Belier,5.3501391,-4.0169929,
0,node/6907121511,Indenié,5.3417336,-4.0230855,
0,node/6907121512,Mairie du Plateau,5.3220152,-4.018503,
0,node/6907121513,Institut Français,5.3219502,-4.0170059,
0,node/6907121514,CNPS,5.3195012,-4.0144649,
0,node/6907121515,Gare Marcory,5.3088742,-3.984068,
0,node/6907141795,RTI,5.342209,-4.0033579,
0,node/6907141796,Archibat,5.3459837,-4.0029046,
0,node/6907141797,Marché de Cocody,5.3356901,-4.0007897,
0,node/6907141798,Gare Blockauss,5.3232894,-4.0021679,
0,node/6907141799,Banque Mondiale,5.3278237,-4.0013589,
0,node/6907141800,Marché de Cocody,5.3355267,-4.0007635,
0,node/6907141801,CIE,5.3384172,-4.0038072,
0,node/6907141802,Palm Club,5.351632,-4.0021657,
0,node/6907141803,Gare Nord,5.3587491,-4.0274511,
0,node/6907147644,Texaco,5.3543654,-4.0180323,
0,node/6907147645,Pont lycée technique,5.3478735,-4.0101289,
0,node/6907147646,SODEMI,5.3442806,-4.0038018,
0,node/6907147647,SGBCI,5.3404792,-4.0033259,
0,node/6907147648,Marché de Cocody,5.336444,-3.9999757,
0,node/6907147649,PMI,5.3334363,-4.0003179,
0,node/6907147650,Banque Mondiale,5.3280617,-4.00118,
0,node/6907147651,Gare Blockauss,5.323287,-4.0020444,
0,node/6907154300,Boulangerie Top baquette,5.3528511,-4.0168481,
0,node/6907154301,220 logements,5.3472669,-4.017115,
0,node/6907157792,Gare Nord,5.3589598,-4.0273707,
0,node/6907157793,Renault,5.3559786,-4.0213836,
0,node/6907157794,Adjamé Liberté,5.3534802,-4.0158064,
0,node/6907157795,CERAP - INADES,5.339615,-4.000587,
0,node/6908599212,Gare Campus Cocody,5.3464621,-3.9946557,
0,node/6908599213,ISTC,5.343718,-4.0013186,
0,node/6908599215,Quai 49,5.4354972,-4.0153091,
0,node/6908618074,INSAAC,5.3456864,-3.9968976,
0,node/6908618077,EPV Konaté,5.427395,-4.016795,
0,node/6908618078,Lycée Moderne d'Abobo,5.4286537,-4.0146633,
0,node/6908728765,[Arret sans nom],5.4339703,-4.012329,
0,node/6908728766,[Arret sans nom],5.432656,-4.013431,
0,node/6908728767,[Arret sans nom],5.4273213,-4.0162121,
0,node/6908728771,ISTC,5.343821,-4.0008199,
0,node/6908728772,Gare Campus Cocody,5.3462119,-3.9937238,
0,node/6908782549,[Arret sans nom],5.43182,-4.0147361,
0,node/6908782550,[Arret sans nom],5.429723,-4.014638,
0,node/6908782552,Cité des Arts,5.3450487,-3.9978676,
0,node/6908782553,université méthodiste de Côte D'Ivoire,5.3466283,-3.993895,
0,node/6908914485,[Arret sans nom],5.357415,-4.0160582,
0,node/6908914486,Cours socio éducatif,5.3491257,-4.0171632,
0,node/6908914487,Piscine d’État de Treichville,5.3082112,-3.9996571,
0,node/6908914488,Gare Marcory,5.3090397,-3.9839441,
0,node/6908914489,Boulangerie Top Qualité,5.3555536,-4.0161239,
0,node/6908914490,Liberté,5.3513262,-4.0170747,
0,node/6908914491,Pharmacie le Belier,5.3503722,-4.0170975,
0,node/6908914492,Indenié,5.3418097,-4.0230188,
0,node/6908914493,Banque SIB,5.3421743,-4.025647,
0,node/6908914494,Bicici plateau,5.321186,-4.0183783,
0,node/6908914495,Pyramide,5.321624,-4.0167837,
0,node/6908914496,Siège Moov,5.3184312,-4.0145266,
0,node/6908914498,Croix Bleue,5.3641726,-4.0188664,
0,node/6908914499,Infirmerie Sinikeya,5.3653249,-4.0202826,
0,node/6908914500,Gare Williamsville,5.3670874,-4.0235066,
0,node/6909039462,Petro Ivoire,5.3589877,-4.0318263,
0,node/6909039464,Pharmacie Sainte Marie,5.3468603,-4.0257324,
0,node/6909039468,Cité Policière,5.3080247,-4.0159526,
0,node/6909039469,CHU,5.2958623,-4.0046789,
0,node/6909039470,PTT Km4,5.2927793,-3.9984496,
0,node/6909039471,Pharmacie Santé Publique,5.2914467,-3.9957435,
0,node/6909108442,Terminus Cité Fairmont,5.3585383,-4.0375583,
0,node/6909108450,arrêt,5.305135,-4.0149536,
0,node/6909108451,Services Techniques du District,5.29123,-3.9902017,
0,node/6909121487,Gare Marcory,5.3088407,-3.9840127,
0,node/6909208699,Parc des Sports,5.2971256,-4.0074831,
0,node/6909208700,"SIYOA, Boulevard de Marseille",5.2895393,-3.990781,
0,node/6909225529,[Arret sans nom],5.36188,-4.0724972,
0,node/6909225530,[Arret sans nom],5.3647534,-4.0745652,
0,node/6909225533,[Arret sans nom],5.3727101,-4.0961792,
0,node/6909225534,[Arret sans nom],5.3742257,-4.0895635,
0,node/6909225535,Nestlé,5.372722,-4.0867558,
0,node/6909225536,Arrêt,5.3745633,-4.0781781,
0,node/6909225537,[Arret sans nom],5.3703887,-4.0796923,
0,node/6909225538,[Arret sans nom],5.3683786,-4.0786743,
0,node/6909225539,Direction de la Sotra,5.3670367,-4.0761986,
0,node/6909225540,[Arret sans nom],5.3628133,-4.0736157,
0,node/6909225541,[Arret sans nom],5.3612471,-4.0702482,
0,node/6909225542,Lycée Moderne Yopougon Andokoi,5.3623019,-4.0678704,
0,node/6909225543,Centre Ivoire Couture,5.3615148,-4.0667894,
0,node/6909225544,Gare Nord,5.3585831,-4.0278578,
0,node/6909225545,Gare Sud,5.3146893,-4.0183049,
0,node/6909237619,CHU Treichville,5.2948194,-4.0033954,
0,node/6909237622,Délices de France,5.301827,-3.9881326,
0,node/6909237623,Services Techniques du District,5.2913004,-3.9900511,
0,node/6909237624,PTT Km4,5.2931333,-3.9994307,
0,node/6909237625,Quincaillerie Générale,5.3023437,-4.0141223,
0,node/6909237626,Arrêt,5.3049356,-4.0150089,
0,node/6909237627,Cité Policière,5.308109,-4.0161832,
0,node/6909237631,Gare Nord,5.3591167,-4.0279602,
0,node/6909237632,Station Petro Ivoire,5.358876,-4.0319963,
0,node/6909237633,Terminus 02 Cité Fairmont,5.3582206,-4.0364602,
0,node/6909430718,[Arret sans nom],5.3765208,-4.094158,
0,node/6909430720,Gare CTE,5.3618706,-4.0668847,
0,node/6909430721,Lycée Moderne Yopougon Andokoi,5.3621938,-4.0678369,
0,node/6909430722,Station Total,5.3607938,-4.0710622,
0,node/6909430723,[Arret sans nom],5.362382,-4.0736572,
0,node/6909430724,[Arret sans nom],5.365409,-4.0742996,
0,node/6909430725,Direction de la Sotra,5.36707,-4.0764347,
0,node/6909430726,[Arret sans nom],5.3683719,-4.0788862,
0,node/6909430727,Station,5.3690582,-4.080222,
0,node/6909430728,[Arret sans nom],5.3699698,-4.0819788,
0,node/6909430729,JOMACO,5.3741086,-4.0896792,
0,node/6909430730,Dépôt Yopougon zone Industrielle,5.3741528,-4.0958456,
0,node/6909521603,Hôpital Municipal,5.2645534,-3.9848298,
0,node/6909521604,Groupe Scolaire N'Sikan,5.2632614,-3.9834323,
0,node/6909521605,CIE,5.257665,-3.9849267,
0,node/6909521606,arrêt,5.2558751,-3.9956283,
0,node/6909521607,Gestoci,5.26373,-3.9989162,
0,node/6909521608,Pont de Vridi,5.2704314,-4.0062621,
0,node/6909521609,"Etablissements Rey, Port",5.2978357,-4.0143099,
0,node/6909521610,Sicodis,5.3005436,-4.0175241,
0,node/6909521611,Terminus 32,5.305037,-4.0231458,
0,node/6909521612,Grand Moulin Abidjan,5.3069377,-4.0211629,
0,node/6909521613,Hôpital du Pont,5.3088247,-4.0179278,
0,node/6909521614,"Avenue 11, Rue 12, Treichville",5.305655,-4.0117363,
0,node/6909521615,"Avenue 15, Rue 12, Treichville",5.3039938,-4.0111588,
0,node/6909521616,Paroisse Notre Dame,5.3040254,-4.0034158,
0,node/6909521617,Marché Belleville,5.3056574,-3.9987874,
0,node/6909521620,Gare Marcory,5.3087649,-3.9838718,
0,node/6909546905,Vridi Cité - Terminus 53,5.266603,-3.9871428,
0,node/6909546906,Pharmacie Vridi Port,5.259526,-3.9818252,
0,node/6909546907,Stade de la SIR,5.2571616,-3.9892306,
0,node/6909546908,Vridi-Iran,5.2588247,-3.9978983,
0,node/6909546909,"CPMA, Vridi",5.2676512,-4.0031425,
0,node/6909546910,PALM-CI,5.277976,-4.0085496,
0,node/6909546911,Bolloré,5.2821643,-4.0084685,
0,node/6909546912,Siège SOTRA,5.2864977,-4.008455,
0,node/6909546913,Arrêt,5.292271,-4.008424,
0,node/6909546914,Ciment Bélier,5.296841,-4.0131528,
0,node/6909546915,Port Autonome Abidjan,5.3029759,-4.0212547,
0,node/6909546916,Maison du Congres,5.309804,-4.0149741,
0,node/6909546917,Collège Bosco,5.3059215,-4.0050815,
0,node/6909707221,Niangon Sud à droite,5.3226268,-4.1045,
0,node/6909707223,Carrefour Académie,5.3233679,-4.1057378,
0,node/6909707224,Caféier,5.325714,-4.1059349,
0,node/6909707225,Lubafrique,5.3310513,-4.1037691,
0,node/6909707226,2ème arrêt ANADOR,5.3338915,-4.1029765,
0,node/6909707227,Carrefour Anador,5.3358784,-4.1014047,
0,node/6909707228,Pharmacie Cité Maroc,5.3404237,-4.1004632,
0,node/6909707229,CIE,5.3407014,-4.0892462,
0,node/6909707230,[Arret sans nom],5.3450164,-4.0892456,
0,node/6909707231,Grand Centre,5.3481316,-4.0875008,
0,node/6909707232,Port-Bouët II,5.3540742,-4.0874934,
0,node/6909707233,[Arret sans nom],5.3561104,-4.0851103,
0,node/6909707234,BAE,5.3604209,-4.0850901,
0,node/6909707236,Gare Nord,5.358951,-4.0277736,
0,node/6909707238,Gare Sud,5.3147518,-4.0183735,
0,node/6909737821,Feu du Collège Bosco,5.3058324,-4.0049374,
0,node/6909737822,"Avenue 10, Rue 12, Treichville",5.3062141,-4.0120606,
0,node/6909737824,Grand Moulin Abidjan,5.3067759,-4.0211598,
0,node/6909737825,Siège Port Autonome Abidjan,5.3033621,-4.0217286,
0,node/6909737826,Port Autonome Abidjan,5.2945614,-4.0095509,
0,node/6909737827,Siège SOTRA,5.2878677,-4.0082981,
0,node/6909737828,Bolloré,5.2820277,-4.0083516,
0,node/6909737829,Movis,5.2787,-4.00841,
0,node/6909737830,Pont de Vridi,5.2705271,-4.0061063,
0,node/6909812227,Cité Administrative,5.3309411,-4.0239378,
0,node/6909812228,CHU de Yopougon,5.3572641,-4.0849641,
0,node/6909812229,[Arret sans nom],5.3552565,-4.0867444,
0,node/6909812230,Pharmacie Port-Bouët II,5.3469666,-4.0880983,
0,node/6909812231,[Arret sans nom],5.3453455,-4.0891591,
0,node/6909812232,Mosquée du Maroc,5.3400138,-4.0974297,
0,node/6909812233,Pharmacie Cité Maroc,5.3401847,-4.1003975,
0,node/6909812234,Carrefour Anador,5.335861,-4.1013081,
0,node/6909812235,Lubafrique,5.3305692,-4.1037999,
0,node/6909812236,[Arret sans nom],5.3273952,-4.1051263,
0,node/6909812237,Caféier,5.32569,-4.1058531,
0,node/6909812238,Niangon Sud à droite,5.3226401,-4.1045248,
0,node/6909923471,Siporex-Sicomex,5.3568101,-4.0739979,
0,node/6909923472,Siporex avant le feu,5.3538004,-4.0740046,
0,node/6909923473,William-Ponty,5.3448074,-4.0732898,
0,node/6909923474,Yopougon 16ème Advans,5.3388868,-4.0732871,
0,node/6909923475,Saguidiba,5.3326109,-4.0733247,
0,node/6909923477,Gare Yopougon Kouté,5.3297734,-4.0735526,
0,node/6910224899,Gare Campus Cocody,5.3463096,-3.9936456,
0,node/6910224902,Gare Yopougon Kouté,5.3297134,-4.0738578,
0,node/6910224905,Saguidiba,5.3315587,-4.0735191,
0,node/6910224906,Côte d'Ivoire-Telecom,5.3344863,-4.0734252,
0,node/6910224907,Yopougon 16ème Advans,5.338834,-4.0734096,
0,node/6910224908,Saint André lavage,5.3418778,-4.0734078,
0,node/6910224909,William-Ponty,5.345666,-4.0734038,
0,node/6910224910,Siporex après le feu,5.3540928,-4.0741883,
0,node/6910224911,Siporex-Sicomex,5.3566819,-4.0741772,
0,node/6910272309,CPMA-Vridi,5.2678334,-4.0031259,
0,node/6910272310,Vridi-Iran,5.2588726,-3.9977641,
0,node/6910272311,"SIR, Vridi",5.2565075,-3.9932473,
0,node/6910272312,CIE,5.2577882,-3.9854582,
0,node/6910272313,"Cité CIE, Vridi",5.2582659,-3.9824273,
0,node/6910272314,Temple des Vainqueurs,5.2600531,-3.9820028,
0,node/6910272315,Hôpital Municipal,5.2644761,-3.9850263,
0,node/6910272316,Terminus Cité Vridi,5.2666602,-3.9874196,
0,node/6910518025,Cité Administrative,5.3313223,-4.0228166,
0,node/6910584802,Abobo Gendarmerie,5.4267852,-4.0201529,
0,node/6910703473,Institut des aveugles,5.350955,-4.0632851,
0,node/6910703474,Bel Air,5.3476916,-4.0632758,
0,node/6910703475,Complexe sportif de Yopougon,5.3418057,-4.0622364,
0,node/6910703476,Nouveau quartier,5.3380456,-4.0622136,
0,node/6910703477,Clinique les Oliviers,5.3333961,-4.0621975,
0,node/6910743309,Terminus 85,5.3294751,-4.061462,
0,node/6910743310,Clinique les Oliviers,5.333826,-4.0623826,
0,node/6910743311,Nouveau quartier,5.3375141,-4.0623477,
0,node/6910743312,Bel Air,5.3460439,-4.0634635,
0,node/6910743313,Sable,5.3556644,-4.0660062,
0,node/6910743314,Institut des aveugles,5.3513983,-4.0634474,
0,node/6910755171,Ben,5.3237979,-4.0804794,
0,node/6910755172,Marejea,5.3255979,-4.0764964,
0,node/6910755173,Iris3,5.3255738,-4.0718266,
0,node/6910755174,Yopougon Sideci - Terminus 42,5.3198733,-4.0802502,
0,node/6910755176,Marché Kouté,5.3242746,-4.0667291,
0,node/6910755177,L'usine du camp,5.3236042,-4.0615042,
0,node/6910755178,Stenb,5.3236336,-4.0577316,
0,node/6910755179,Le petit soleil,5.3222355,-4.0535085,
0,node/6910755180,Yopougon Kowëit,5.3222275,-4.0507693,
0,node/6910755181,La faveur,5.3222395,-4.0464583,
0,node/6910755182,Pharmacie Chenain,5.3198693,-4.0439746,
0,node/6910755183,Iris 3,5.3171339,-4.0439826,
0,node/6910755184,Bon choix,5.3137348,-4.0440027,
0,node/6910794085,Santé Village,5.3095505,-4.0439558,
0,node/6910794088,Gare Abobo-Doumé,5.3101983,-4.0353389,
0,node/6910797790,Arrêt,5.4258812,-4.01971,
0,node/6910797791,Arrêt,5.4182684,-4.0128435,
0,node/6910797792,Arrêt,5.4156089,-4.0054353,
0,node/6910797793,Arrêt,5.4155902,-3.999584,
0,node/6910797794,Termunis 81/82,5.4038607,-3.9856156,
0,node/6910797795,BICICI,5.4031254,-3.9792073,
0,node/6910797796,Arrêt,5.4011881,-3.9780821,
0,node/6910797797,Arrêt,5.3988302,-3.9776878,
0,node/6910797798,Arrêt,5.3963428,-3.977036,
0,node/6910797799,Arrêt,5.3932466,-3.9761992,
0,node/6910797800,Arrêt,5.3946558,-3.971504,
0,node/6910797801,Cité Diaspora,5.4000986,-3.9649835,
0,node/6910797802,SOCIAM,5.4025338,-3.9621642,
0,node/6910797803,SOCIAM,5.4022965,-3.9620463,
0,node/6910797804,CHU Angré,5.399963,-3.9570893,
0,node/6910797805,Arrêt,5.4154527,-4.0022783,
0,node/6910797806,CHU Angré,5.3997812,-3.9570173,
0,node/6910797807,Arrêt,5.4003923,-3.9592423,
0,node/6910797808,Arrêt,5.4011774,-3.960527,
0,node/6910797809,Arrêt,5.3991713,-3.9657399,
0,node/6910797810,Arrêt,5.3964463,-3.9689626,
0,node/6910797811,Arrêt,5.3933681,-3.9736088,
0,node/6910797812,Arrêt,5.3929368,-3.9754415,
0,node/6910797813,Arrêt,5.3954823,-3.9769683,
0,node/6910797814,Arrêt,5.3963101,-3.9772754,
0,node/6910797815,Arrêt,5.4003569,-3.9781552,
0,node/6910797816,Arrêt,5.4022415,-3.978471,
0,node/6910797817,BICICI,5.4029505,-3.9794534,
0,node/6910797818,Arrêt,5.4042516,-3.9898295,
0,node/6910797819,Saint Ambroise,5.4070126,-3.9911934,
0,node/6910797820,Arrêt,5.4103992,-3.9941237,
0,node/6910797821,Arrêt,5.4136035,-3.9953287,
0,node/6912410269,Lycée Classique d'Abidjan,5.3317315,-4.0043772,
0,node/6912410270,Hôtel Ivoire,5.3286968,-4.0047695,
0,node/6912410271,Hôtel Ivoire,5.3278806,-4.0029871,
0,node/6912410272,Hôtel Ivoire,5.3277329,-4.0032565,
0,node/6912410273,Lycée Classique d'Abidjan,5.3327049,-4.0045047,
0,node/6912410274,SODEMI,5.3439798,-4.0037108,
0,node/6912410275,Pont lycée technique,5.3477876,-4.0095505,
0,node/6912654329,Carrefour Express,5.3290976,-4.0751626,
0,node/6912729876,BMW,5.3581253,-4.0012691,
0,node/6912729877,SOCITECH,5.3601195,-3.998725,
0,node/6912729878,Macaci,5.3648148,-3.9976354,
0,node/6912729879,Mobil 2 Plateaux,5.367356,-3.9983993,
0,node/6912729880,Sococé 2 Plateaux,5.3718047,-3.9984268,
0,node/6912729881,BOA,5.3745478,-3.9985198,
0,node/6912729882,Snedai,5.3755833,-3.9985338,
0,node/6912729883,Carrefour Duncan,5.3776569,-3.9976312,
0,node/6912729884,Las Palmas,5.3809527,-3.9943103,
0,node/6912805206,Pharmacie du Marché,5.3388207,-4.0792393,
0,node/6912805207,[Arret sans nom],5.3373258,-4.0765581,
0,node/6912805208,Patisserie,5.3384061,-4.0752894,
0,node/6912805209,Ex Chaine Avion Rue Princesse,5.3467623,-4.0652525,
0,node/6912805210,Camp FRCI,5.3408189,-4.0599974,
0,node/6912805211,Carrefour Marché,5.3398655,-4.0572368,
0,node/6912805212,Carrefour Lama Fofana,5.3373205,-4.0549944,
0,node/6912805213,Banque Atlantique,5.3337105,-4.0550186,
0,node/6912805214,Offoumou Yapo,5.3316575,-4.0520655,
0,node/6912805215,Tizra,5.3293394,-4.0497521,
0,node/6912805216,[Arret sans nom],5.3264792,-4.0494691,
0,node/6912805217,Arrêt,5.3247299,-4.0494999,
0,node/6912805219,Gare Abobo-Doumé,5.3104606,-4.0354465,
0,node/6912820385,Carrefour Opéra,5.3847656,-3.9932407,
0,node/6912820386,Mahikari,5.3888111,-3.9927523,
0,node/6912820387,Ambassade de Chine,5.3926338,-3.992269,
0,node/6912820388,Les Oscars,5.3942154,-3.9921141,
0,node/6912820389,BHCI,5.3963811,-3.9918337,
0,node/6912820390,Shawarma House,5.4005116,-3.9913523,
0,node/6912820391,Petro Ivoire Angré,5.4038172,-3.9909124,
0,node/6912820392,Notre Dame,5.4042033,-3.9882535,
0,node/6912820393,FIRDA,5.4034748,-3.9819806,
0,node/6912820394,"Ancien Terminus 90, Les Arcades",5.4033098,-3.9765606,
0,node/6912820395,Soleil 2,5.4006902,-3.9728354,
0,node/6912820396,Clinique Médicale Sainte Justine,5.3971939,-3.9694727,
0,node/6912820397,Cité Diaspora,5.3998522,-3.9648829,
0,node/6912820398,Clinique Médicale Sainte Justine,5.3972237,-3.9697282,
0,node/6912820399,"Ancien Terminus 90, Les Arcades",5.4031598,-3.9764213,
0,node/6912820400,FIRDA,5.4033208,-3.9820585,
0,node/6912820401,Termunis 81/82,5.4037772,-3.9856793,
0,node/6912820402,Notre Dame,5.4041375,-3.9887434,
0,node/6912820403,Petro Ivoire Angré,5.4037567,-3.9906882,
0,node/6912820404,Carrefour 22è,5.4002961,-3.9911377,
0,node/6912820405,BHCI,5.3965825,-3.9915941,
0,node/6912820406,Ambassade de Chine,5.3926201,-3.9920829,
0,node/6912820407,Mahikari,5.3895654,-3.9924668,
0,node/6912820408,Opéra,5.3845481,-3.9930996,
0,node/6912820409,Las Palmas,5.3809502,-3.9940546,
0,node/6912820410,Carrefour Duncan,5.3779505,-3.9970644,
0,node/6912820411,Le Roi du Pain,5.3753472,-3.9983567,
0,node/6912820412,Sococé 2 Plateaux,5.3725038,-3.9983278,
0,node/6912820413,Mobil 2 Plateaux,5.3677225,-3.9981432,
0,node/6912820414,Macaci,5.3654376,-3.9973648,
0,node/6912820415,Saint Jacques,5.3574699,-4.0012391,
0,node/6912820416,Palm Club,5.3525544,-4.0018639,
0,node/6912820417,Carrefour la Vie,5.3493692,-4.0022742,
0,node/6912820418,Arrêt,5.344562,-4.0028093,
0,node/6913011676,Sitarail,5.3266074,-4.0255438,
0,node/6913011677,Gare Yopougon Kouté,5.3293875,-4.073499,
0,node/6913190443,Bon choix,5.3134744,-4.0441328,
0,node/6913190444,Santé Village,5.3087112,-4.043768,
0,node/6913190445,Iris 3,5.3166799,-4.0440879,
0,node/6913190446,Arrêt,5.3208014,-4.0441167,
0,node/6913190447,La faveur,5.3221154,-4.0468311,
0,node/6913190448,Arrêt,5.323918,-4.0496448,
0,node/6913190449,Commissariat de Police du 19ᵉ Arrondissement,5.3270841,-4.0503167,
0,node/6913190450,Tizra,5.3295798,-4.0501732,
0,node/6913190451,Offoumou Yapo,5.3313998,-4.0519957,
0,node/6913190452,La Poste,5.3337753,-4.0550937,
0,node/6913190453,Pharmacie Sacré-cœur,5.3369773,-4.055093,
0,node/6913190454,Pharmacie Béatitude,5.3401473,-4.058547,
0,node/6913190455,Nouveau quartier,5.3407362,-4.0608235,
0,node/6913190456,Ex Chaine Avion Rue Princesse,5.3466167,-4.0650474,
0,node/6913190457,Newton,5.3447353,-4.0678006,
0,node/6913190458,Marche Sicogi,5.3395304,-4.0745628,
0,node/6913190459,Patisserie,5.3379928,-4.0751928,
0,node/6913190460,Pharmacie du Marché,5.3372574,-4.0770331,
0,node/6913190461,Terrain Sogefiha,5.3372711,-4.0806585,
0,node/6913201897,Antenne,5.3335416,-4.0733126,
0,node/6913201898,Cabine Bleue,5.3290163,-4.0757574,
0,node/6913201899,Akadjoba,5.3243327,-4.0799806,
0,node/6913201900,Saint Pierre,5.3239194,-4.0871836,
0,node/6913201901,EPP Niangon,5.3233739,-4.0925668,
0,node/6913201902,Arrêt,5.3197171,-4.0944323,
0,node/6913201903,Arrêt,5.3163701,-4.0947904,
0,node/6913201904,Arrêt Yop 38,5.3152357,-4.0928994,
0,node/6913201907,Terminus 27,5.315995,-4.0900334,
0,node/6913201908,Arrêt,5.3150643,-4.0934497,
0,node/6913201909,EPP SICOGI Niangon Sud,5.3172602,-4.0948509,
0,node/6913201910,Carrefour Marché,5.3202551,-4.0943199,
0,node/6913201911,EPP Niangon,5.3233885,-4.0926667,
0,node/6913201912,Saint Pierre,5.3240967,-4.0869619,
0,node/6913201913,Akadjoba,5.3246783,-4.0797426,
0,node/6913201914,Arrêt de bus,5.3287702,-4.0762905,
0,node/6913201915,Gare Sud,5.3146172,-4.0184952,
0,node/6913291219,Gare Sud,5.3144986,-4.0183564,
0,node/6913703797,CNTG-BNETD,5.329485,-3.9977011,
0,node/6913703798,UCAO,5.3310059,-3.9970399,
0,node/6913703799,Maison du PDCI-RDA,5.3350719,-3.9973538,
0,node/6913703800,Piscine d’État de Treichville,5.3084936,-3.9997195,
0,node/6913703801,NSIA,5.3074734,-3.990551,
0,node/6913703802,Gare Marcory,5.3086966,-3.9837714,
0,node/6913703803,Maison du Parti,5.3353656,-3.9975172,
0,node/6913703804,UCAO,5.3310313,-3.9969162,
0,node/6913703805,CNTG-BNETD,5.3293836,-3.9976804,
0,node/6913857608,Sable,5.3557108,-4.0658826,
0,node/6913857611,Complexe Sportif de Yopougon,5.3407344,-4.0646331,
0,node/6913857612,Mairie de Yopougon,5.3424009,-4.0665987,
0,node/6913929664,La Marine,5.3443401,-4.0375561,
0,node/6913929665,Sitarail,5.3278599,-4.0262003,
0,node/6913929666,Gare Sud,5.3146272,-4.0182404,
0,node/6913929668,La Marine,5.3441859,-4.0376761,
0,node/6913929669,Gare Yopougon Kouté,5.3295615,-4.0737128,
0,node/6913931703,Gendarmerie,5.3367091,-4.0216157,
0,node/6913974340,Gendarmerie,5.3369705,-4.0217222,
0,node/6915341517,Soleil 2,5.400545,-3.9728972,
0,node/6915341518,Arrêt,5.4035247,-3.9837323,
0,node/6915341519,Arrêt,5.4062326,-3.9906836,
0,node/6915341520,Arrêt,5.4297269,-3.9894234,
0,node/6915341521,Arrêt,5.4313416,-3.9891222,
0,node/6915341523,Abobo Biabou,5.4564179,-3.9725804,
0,node/6915341525,Abobo Biabou,5.4564283,-3.9726482,
0,node/6915341526,Arrêt,5.4454571,-3.978184,
0,node/6915341527,Arrêt,5.4430187,-3.9810371,
0,node/6915341528,Arrêt,5.441543,-3.9831075,
0,node/6915341529,Arrêt,5.4403681,-3.9847859,
0,node/6915341530,Arrêt,5.4391313,-3.9859783,
0,node/6915341531,Arrêt,5.4368688,-3.9875153,
0,node/6915341532,Arrêt,5.4356843,-3.987991,
0,node/6915341533,Arrêt,5.434457,-3.9883619,
0,node/6915341534,Arrêt,5.4327625,-3.9887503,
0,node/6915341535,Arrêt,5.4312302,-3.9889419,
0,node/6915341536,Arrêt,5.4293215,-3.9892581,
0,node/6915341537,Arrêt,5.4264243,-3.9896961,
0,node/6915341538,Arrêt,5.4229496,-3.9902515,
0,node/6915341539,Arrêt,5.4208149,-3.9905681,
0,node/6915341540,Arrêt,5.4195345,-3.9907254,
0,node/6915341541,Arrêt,5.4182159,-3.9909298,
0,node/6915341542,Arrêt,5.4158878,-3.9922122,
0,node/6915341543,Arrêt,5.4154923,-3.9928597,
0,node/6915341544,Arrêt,5.4148205,-3.9947036,
0,node/6915341545,Arrêt,5.4141247,-3.9952879,
0,node/6915341546,Arrêt,5.409531,-3.9932262,
0,node/6915341547,Petro Ivoire Angré,5.4050885,-3.990564,
0,node/6915341548,Arrêt,5.403643,-3.9829561,
0,node/6915341549,Arrêt,5.4033522,-3.9807645,
0,node/6915487638,9 Kilo,5.3585446,-3.96346,
0,node/6915487639,Rond-Point de la Palmeraie,5.360974,-3.9586683,
0,node/6915487640,Carrefour de la Gendarmerie,5.3606149,-3.9598948,
0,node/6915487641,Cap Nord,5.3568703,-3.9665508,
0,node/6915487642,Riviera 2,5.3532599,-3.9779824,
0,node/6915487643,École de Police,5.3502292,-3.9881887,
0,node/6915487644,École de la Gendarmerie,5.3492233,-3.9943092,
0,node/6915487645,Carrefour de la Vie,5.3485522,-4.0018322,
0,node/6915647682,Mairie d'ABOBO,5.4217637,-4.0185375,
0,node/6915647683,Arrêt,5.4270593,-4.0212736,
0,node/6915647684,Arrêt,5.4303911,-4.0241622,
0,node/6915696792,9 Kilo,5.3587403,-3.9635319,
0,node/6915696795,Chic Shop,5.3596047,-3.9620358,
0,node/6915696796,Cap Nord,5.3574857,-3.9657802,
0,node/6915696797,École de Police,5.3504609,-3.9881605,
0,node/6915696798,Carrefour CHU,5.3494956,-3.9916044,
0,node/6915696799,École de la Gendarmerie,5.3493834,-3.994457,
0,node/6915696800,Carrefour de la Vie,5.3485982,-4.0029649,
0,node/6915722685,Arrêt,5.4333404,-4.0266778,
0,node/6915722686,Anokoi,5.4390733,-4.0446977,
0,node/6915722687,PK 18 Agripac,5.4434752,-4.0485036,
0,node/6915722688,Arrêt,5.4482915,-4.0512502,
0,node/6915722689,Arrêt,5.4503535,-4.0529903,
0,node/6915722690,Arrêt,5.4565524,-4.0545715,
0,node/6915722691,Arrêt,5.4574448,-4.054497,
0,node/6915722692,Arrêt,5.465098,-4.0544278,
0,node/6915722693,Arrêt,5.4662168,-4.0540279,
0,node/6915722694,Arrêt,5.4680953,-4.0530974,
0,node/6915722695,Arrêt,5.4794949,-4.0538658,
0,node/6915722696,Arrêt,5.4828953,-4.0513358,
0,node/6915722697,Arrêt,5.4837187,-4.0513476,
0,node/6915722698,Arrêt,5.4866626,-4.05146,
0,node/6915722699,Arrêt,5.4890597,-4.0515593,
0,node/6915722700,Arrêt,5.4904279,-4.0516047,
0,node/6915722701,Arrêt,5.490915,-4.0516233,
0,node/6915722702,Arrêt,5.4914503,-4.051639,
0,node/6915722703,Arrêt,5.4928779,-4.0516636,
0,node/6915722704,Arrêt,5.4940805,-4.0517658,
0,node/6915722705,Arrêt,5.495095,-4.0517794,
0,node/6915722706,Arrêt,5.4960474,-4.0516644,
0,node/6915722707,Arrêt,5.4970767,-4.0515036,
0,node/6915722708,Arrêt,5.497669,-4.051438,
0,node/6915722709,Arrêt,5.4979794,-4.0513918,
0,node/6915722710,Arrêt,5.4995751,-4.0516497,
0,node/6915722711,Arrêt,5.500507,-4.0519247,
0,node/6915722712,Arrêt,5.5011338,-4.0520934,
0,node/6915722713,Arrêt,5.5015989,-4.0522125,
0,node/6915722714,Arrêt,5.5026911,-4.0525268,
0,node/6915722715,Arrêt,5.5045432,-4.0530594,
0,node/6915722716,Arrêt,5.5053444,-4.0532829,
0,node/6915722717,Mairie d'Anyama,5.5064599,-4.0531365,
0,node/6915722719,Mairie d'Anyama,5.5064064,-4.0530408,
0,node/6915722720,Arrêt,5.4976427,-4.0513828,
0,node/6915722721,Arrêt,5.5027177,-4.0523687,
0,node/6915722722,Arrêt,5.4994894,-4.0514357,
0,node/6915722723,Arrêt,5.4949787,-4.0516383,
0,node/6915722724,Arrêt,5.4888603,-4.051407,
0,node/6915722725,Arrêt,5.4863031,-4.0513417,
0,node/6915722726,Arrêt,5.4825896,-4.0512201,
0,node/6915722727,Arrêt,5.479955,-4.0531887,
0,node/6915722728,Arrêt A l'Ecole,5.4757466,-4.0552147,
0,node/6915722729,Arrêt Contrôle,5.470731,-4.0531044,
0,node/6915722730,Arrêt,5.4669354,-4.0534141,
0,node/6915722731,Arrêt Ancienne Gendarmerie,5.4611068,-4.053759,
0,node/6915722732,Arrêt,5.4526174,-4.0544875,
0,node/6915722733,Arrêt Ancien Marché,5.4503748,-4.0526523,
0,node/6915722734,Arrêt Terminus,5.4483606,-4.0510764,
0,node/6915722735,Arrêt Agripac,5.4449974,-4.0491425,
0,node/6915722736,Arrêt,5.4436482,-4.0484067,
0,node/6916152424,Terminus dépôt SOTRA,5.28758,-4.0057551,
0,node/6916152425,Pharmacie du Port,5.2890666,-4.0084018,
0,node/6916152426,Arrêt du CHU,5.2961604,-4.0033572,
0,node/6916152427,Gare de Bassam,5.2991407,-4.0024808,
0,node/6916181080,Arrêt,5.3478959,-4.0026565,
0,node/6916181081,Grande Pharmacie /Terminus 300FCFA,5.3700062,-3.9983308,
0,node/6916280433,Arrêt,5.4157357,-3.9930971,
0,node/6916280434,Terminus Abobo Baoulé,5.4149934,-3.9940211,
0,node/6916280435,Pharmacie Actuelle,5.4129627,-3.9948875,
0,node/6916280436,Arrêt,5.4103431,-3.9939447,
0,node/6916280437,Arrêt,5.4085794,-3.9923863,
0,node/6916280438,Saint Ambroise,5.4071215,-3.9910921,
0,node/6916280439,Arrêt,5.4055233,-3.990494,
0,node/6916280440,Arrêt,5.4011787,-3.9910264,
0,node/6916280441,Carrefour 22ème,5.3991513,-3.9912618,
0,node/6916280442,SODECI,5.3973362,-3.991524,
0,node/6916280443,Paris Baguette,5.3945043,-3.9918311,
0,node/6916280444,Arrêt,5.3875127,-3.9927256,
0,node/6916280445,Arrêt,5.3797969,-3.9952144,
0,node/6916280446,NSIA,5.3737207,-3.9983542,
0,node/6916280447,SGBGI,5.3700155,-3.9981216,
0,node/6916280448,Cité BAD,5.3465781,-4.002571,
0,node/6916280449,CIE,5.3386878,-4.0035403,
0,node/6917146061,Commissariat du 9 ème,5.3065218,-3.9865047,
0,node/6917146062,Commissariat du 9 ème,5.3061086,-3.9857063,
0,node/6917146063,King Cash,5.3034179,-3.9807831,
0,node/6917146064,Cabinet Médical du 3ème pont,5.3015677,-3.9776047,
0,node/6917146065,Marché de Marcory,5.3005869,-3.9757915,
0,node/6917146066,Paroisse Sainte Bernadette,5.2986259,-3.9722389,
0,node/6917146067,Pharmacie Bagoué,5.2982013,-3.9714765,
0,node/6917146068,Bank of Africa,5.2968312,-3.9688084,
0,node/6917146069,Arrêt,5.2965895,-3.9650103,
0,node/6917146070,Arrêt,5.2975636,-3.9608221,
0,node/6917146071,Place Inchallah,5.2983628,-3.9572333,
0,node/6917146072,Koumassi Prodomo,5.299281,-3.9531506,
0,node/6917146073,Gare Mesano,5.3001329,-3.9494388,
0,node/6917146074,Koumassi Mesano,5.3008577,-3.9476752,
0,node/6917146075,Koumassi Mesano,5.3002935,-3.9483867,
0,node/6917146076,Station Petro Ivoire,5.2998074,-3.9505841,
0,node/6917146077,Place Inchallah,5.2989496,-3.9543702,
0,node/6917146078,Arrêt,5.2980163,-3.9585451,
0,node/6917146079,Arrêt,5.2972737,-3.9619419,
0,node/6917146080,Arrêt,5.2962808,-3.9660523,
0,node/6917146081,Bank of Africa,5.296728,-3.9687629,
0,node/6917146082,Pharmacie Bagoué,5.2980069,-3.9712863,
0,node/6917146083,Marché de Marcory,5.3006211,-3.9759814,
0,node/6917146084,Cabinet Médical du 3ème pont,5.3016585,-3.9778785,
0,node/6917151685,Arrêt,5.3044464,-3.9828404,
0,node/6917151686,Commissariat du 9 ème,5.3062161,-3.9860886,
0,node/6917151687,Arrêt,5.3077309,-3.988849,
0,node/6917151688,Yan Auto Ecole,5.3084636,-3.9904413,
0,node/6919194336,Gare Abobo-Doumé,5.3106101,-4.0352896,
0,node/6919312942,Cité Bracodi Rte Cité verte,5.3270854,-4.0923844,
0,node/6919312943,Cité Verte,5.332209,-4.1119954,
0,node/6919312945,Collège Sebaco,5.3316148,-4.109973,
0,node/6919312946,Cité Bracodi Rte Cité verte,5.3306787,-4.1058974,
0,node/6919312947,Banque BNI,5.3296893,-4.1035223,
0,node/6919312948,Le repère,5.3284241,-4.100539,
0,node/6919312949,Carrefour de Niangon,5.3278005,-4.0976201,
0,node/6919312950,Akadjoba,5.3241547,-4.0812954,
0,node/6919312951,Gare Abobo-Doumé,5.3103655,-4.0351267,
0,node/6919327587,Le petit soleil,5.322126,-4.053652,
0,node/6919327588,Blé Doré,5.3235388,-4.0573213,
0,node/6919327589,Marché Kouté,5.3241224,-4.0669544,
0,node/6919327590,Carrefour Kouté,5.3251706,-4.0710314,
0,node/6919327591,Marejea,5.325455,-4.0761933,
0,node/6919327593,Akadjoba,5.3238646,-4.0818366,
0,node/6919327594,Arrêt,5.3264405,-4.0914322,
0,node/6919327595,Carrefour de Niangon,5.327729,-4.0976496,
0,node/6919327596,Le repère,5.3283566,-4.1005786,
0,node/6919327597,Top Qualitée,5.3295851,-4.1035169,
0,node/6919327598,Cité Bracodi Rte Cité verte,5.3307695,-4.1063239,
0,node/6919758025,Arrêt,5.2982594,-3.9831407,
0,node/6919758026,Arrêt,5.2961308,-3.9792079,
0,node/6919758027,Arrêt,5.2945624,-3.9763809,
0,node/6919758028,Arrêt,5.293456,-3.9743974,
0,node/6919758029,Arrêt,5.2927669,-3.9712223,
0,node/6919758030,Arrêt,5.2932236,-3.9690283,
0,node/6919758031,Arrêt,5.2940469,-3.965347,
0,node/6919758032,Arrêt,5.2951953,-3.9603108,
0,node/6919758033,Arrêt,5.2961324,-3.9565101,
0,node/6919758034,Sogefia,5.297599,-3.9526269,
0,node/6919758035,Arrêt,5.2987064,-3.9478318,
0,node/6919758036,Station Petro Ivoire,5.3015424,-3.9469644,
0,node/6919758037,Arrêt,5.3043266,-3.9453759,
0,node/6919758038,Bon Samaritain,5.3080062,-3.946713,
0,node/6919758039,Pharmacie Fanny,5.3099762,-3.9473403,
0,node/6919758040,Patisserie MC,5.3109106,-3.9466942,
0,node/6919758041,Terminus 05 Lycée Municipal de Koumassi,5.311165,-3.9450346,
0,node/6924851825,"Avenue 19, Rue 12, Treichville",5.3023303,-4.0106387,
0,node/6924851826,FIESTA,5.3047639,-4.0115547,
0,node/6924851828,Treichville Entente,5.3028704,-4.0006757,
0,node/6924851829,Nostalgie,5.3015791,-4.0016802,
0,node/6924851830,Banque Bicici,5.300882,-4.003555,
0,node/6924851831,[Arret sans nom],5.2999593,-4.0062869,
0,node/6924851833,Gare Nord,5.3586294,-4.0277536,
0,node/6924979791,"Avenue 19, Rue 12, Treichville",5.3025272,-4.0106307,
0,node/6924979792,Pharmacie de l'Avenue 27,5.3029946,-4.0062426,
0,node/6924979794,Treichville Entente,5.3032777,-4.0008245,
0,node/6926746685,[Arret sans nom],5.3296238,-4.0208888,
0,node/6926746686,Cité Administrative,5.3309876,-4.0236032,
0,node/6926746688,Terminus Gare Sud,5.3149603,-4.018979,
0,node/6926746689,Station Total,5.3018048,-4.0096436,
0,node/6926746749,Arrêt,5.4538834,-3.9737989,
0,node/6926746750,Arrêt,5.4385456,-3.9864522,
0,node/6926746751,Arrêt,5.4222388,-3.9903197,
0,node/6926746752,Arrêt,5.4154549,-3.9996626,
0,node/6926746753,Arrêt,5.4154484,-4.0016378,
0,node/6926746754,Arrêt,5.4155231,-4.0054049,
0,node/6926746755,Samaké,5.4152696,-4.0071858,
0,node/6926746757,Gare Nord,5.3590439,-4.0280449,
0,node/6926746758,Arrêt,5.4155963,-4.0019605,
0,node/6926746759,Arrêt,5.4156232,-3.9928882,
0,node/6926746760,Sotra,5.4196603,-3.9908193,
0,node/6926746761,Arrêt,5.422222,-3.9904401,
0,node/6926746762,Arrêt,5.4265157,-3.9898619,
0,node/6926746763,Arrêt,5.43368,-3.9886816,
0,node/6926746764,Arrêt,5.4374054,-3.9873449,
0,node/6926746765,Arrêt,5.4402786,-3.9850082,
0,node/6926746766,Arrêt,5.443381,-3.9807703,
0,node/6926746767,Arrêt,5.4451883,-3.9785569,
0,node/6926943107,Bon Samaritain,5.3079127,-3.946597,
0,node/6926943108,Pharmacie Campement,5.3050831,-3.9451392,
0,node/6926943109,Hôpital Général de Marcory,5.3011838,-3.9835873,
0,node/6926943110,Pharmacie Notre-Dame,5.3034579,-4.0046641,
0,node/6926943111,Gare Sud,5.3146776,-4.0185633,
0,node/6926943112,Cité Administrative,5.3311928,-4.0236086,
0,node/6927022357,[Arret sans nom],5.3051694,-3.9840318,
0,node/6927037611,Arrêt,5.4159386,-3.9930649,
0,node/6927037612,Arrêt,5.408251,-4.0063405,
0,node/6927037613,Arrêt,5.4057129,-4.0063848,
0,node/6927037614,Arrêt,5.4013897,-4.0064518,
0,node/6927037615,Arrêt,5.3930717,-4.0057893,
0,node/6927037616,Arrêt,5.3875774,-4.0056726,
0,node/6927037617,Arrêt,5.3801858,-4.0066168,
0,node/6927037618,Arrêt,5.3625903,-4.0168427,
0,node/6927037619,Pharmacie le Belier,5.3503578,-4.0169801,
0,node/6927037620,Fraternité Matin,5.3456673,-4.0178358,
0,node/6927037621,Arrêt,5.3411247,-4.0237561,
0,node/6927037622,Arrêt,5.3372751,-4.0237963,
0,node/6927037623,Arrêt,5.3339228,-4.0238252,
0,node/6927037625,Cité Administrative,5.3310139,-4.0238251,
0,node/6927037626,Arrêt,5.3339515,-4.0238861,
0,node/6927037627,Ministère de la défense,5.3377117,-4.0238741,
0,node/6927037628,Arrêt,5.3557539,-4.0161668,
0,node/6927037629,Arrêt,5.379605,-4.0068716,
0,node/6927037630,Arrêt,5.386285,-4.0059958,
0,node/6927037631,Arrêt,5.4018603,-4.0065437,
0,node/6927037633,Abobo Belleville,5.4158855,-3.9933257,
0,node/6927327302,Arrêt,5.3434193,-4.0125125,
0,node/6927327303,Arrêt,5.346265,-4.0103402,
0,node/6927327304,Arrêt,5.3494085,-4.0088409,
0,node/6927327305,Arrêt,5.3529759,-4.0044479,
0,node/6927327306,Arrêt,5.4043844,-3.989773,
0,node/6927327307,Arrêt,5.4048944,-3.9851483,
0,node/6927327308,Arrêt,5.4082838,-3.9867901,
0,node/6927327309,Arrêt,5.407261,-3.9890592,
0,node/6927327310,Arrêt,5.3528041,-4.0043218,
0,node/6927327311,Arrêt,5.3493597,-4.0085859,
0,node/6927327312,Arrêt,5.3461658,-4.0102683,
0,node/6927327313,Polyclinique,5.3433536,-4.0124663,
0,node/6927327314,Gare Sud,5.3147983,-4.0186967,
0,node/6927330411,Campement,5.3022414,-3.9464354,
0,node/6927330412,Terminus 05 Lycée Municipal de Koumassi,5.3120389,-3.9450815,
0,node/6927330413,Pharmacie Fanny,5.3099838,-3.9472561,
0,node/6927330414,Arrêt,5.3362229,-4.0047298,
0,node/6927330416,Gare Campus Cocody,5.3462362,-3.9938503,
0,node/6927544633,INSAAC,5.3463523,-3.9972169,
0,node/6927544634,Saint Jean,5.3359628,-4.0030417,
0,node/6927544636,Saint Jean,5.3358129,-4.0029552,
0,node/6927544637,Gendarmerie,5.3482687,-3.9970998,
0,node/6927600976,Arrêt,5.3536864,-4.0175371,
0,node/6927600977,Mirador,5.3567305,-4.0250561,
0,node/6927631763,Arrêt SICOGI,5.3566458,-4.0241115,
0,node/6927694921,Gare Nord,5.3592856,-4.0275494,
0,node/6927701716,Arrêt,5.3470894,-3.9971908,
0,node/6928179123,Terminus Riviera 2,5.3534453,-3.9700449,
0,node/6928179124,Cité étudiante Riviera 2,5.3533983,-3.9736351,
0,node/6928179125,Riviera 2,5.3525929,-3.9780678,
0,node/6928179126,Petite Mosquée Riviéra Jardin,5.3512739,-3.9805625,
0,node/6928250859,Petite Mosquée Riviéra Jardin,5.3516026,-3.9803499,
0,node/6928250860,Riviera 2,5.3526374,-3.9781867,
0,node/6928250861,Arrêt,5.3530707,-3.9761267,
0,node/6928250862,Terminus Riviera 2,5.3534857,-3.9702004,
0,node/6928681599,Terminus Vridi-Iran,5.2563753,-3.9975737,
0,node/6928681601,Arrêt Cuirasse Ciment,5.2947326,-4.0101948,
0,node/6928681602,Gare Nord,5.3588804,-4.0279685,
0,node/6928704112,Terminus 32,5.3050571,-4.0228924,
0,node/6928704113,[Arret sans nom],5.3002851,-4.0170398,
0,node/6928704114,"Etablissements Rey, Port",5.29778,-4.0140854,
0,node/6928704115,Arrêt Bolloré logistique,5.264595,-3.9995223,
0,node/6928704117,Terminus Vridi-Iran,5.2562337,-3.9975522,
0,node/6929796960,Gare Sud,5.3143818,-4.0182207,
0,node/6929849943,Terminus Gare Sud,5.314962,-4.0189046,
0,node/6930487819,Arrêt,5.3078566,-3.9888954,
0,node/6930917942,Station Corlay Bingerville,5.3612016,-3.8943455,
0,node/6930917943,Après barrage,5.3618466,-3.9581935,
0,node/6930917944,Dalia,5.364055,-3.9537437,
0,node/6930917945,Église Apostolique de Côte d'Ivoire,5.3653603,-3.9497378,
0,node/6930917946,Camp Militaire d'Akouédo,5.3673945,-3.94563,
0,node/6930917947,Carrefour Faya,5.370105,-3.9389929,
0,node/6930917948,Résidence Genie 2000,5.3712573,-3.9347483,
0,node/6930917949,Optic 2000,5.3725084,-3.9301188,
0,node/6930917950,Jules Verne,5.3741413,-3.9237472,
0,node/6930917951,Pharmacie Saint Sylvestre,5.3718715,-3.9108525,
0,node/6930917952,Cité Hévéas,5.3645064,-3.9083956,
0,node/6930917953,Université de Cocody Pole Scientifique,5.3606115,-3.9031767,
0,node/6930917954,CIE,5.360275,-3.8979524,
0,node/6930917955,[Arret sans nom],5.360916,-3.8963887,
0,node/6930917956,Lycée Garçon de Bingerville,5.3577634,-3.8909747,
0,node/6930917957,Carrefour Marché,5.3574363,-3.8866322,
0,node/6930917958,Espace Orange,5.3583363,-3.8843503,
0,node/6930917959,Hôpital Mère-Enfant de Bingerville,5.360674,-3.8841063,
0,node/6930917961,Carrefour Marché,5.3573589,-3.886655,
0,node/6930917962,Lycée Garçon de Bingerville,5.3576746,-3.8908299,
0,node/6930917963,CIE,5.3601255,-3.8980114,
0,node/6930917964,Université de Cocody Pole Scientifique,5.360215,-3.9020951,
0,node/6930917965,Cité Hévéas,5.3643261,-3.9084667,
0,node/6930917966,Cité Marina,5.368265,-3.9097783,
0,node/6930917967,Arrêt,5.3714883,-3.9108391,
0,node/6930917968,Jules Verne,5.3740098,-3.9233838,
0,node/6930917969,Coris Bank,5.3716378,-3.9324215,
0,node/6930917970,Arrêt,5.3701704,-3.9379911,
0,node/6930917971,Camp Militaire d'Akouédo,5.3671088,-3.9456984,
0,node/6930917972,[Arret sans nom],5.3637324,-3.9527636,
0,node/6930917973,Après barrage,5.3617224,-3.9579964,
0,node/6931151021,Arrêt,5.2993777,-3.94723,
0,node/6931151022,Sogefia,5.2975523,-3.9523798,
0,node/6931151023,Arrêt,5.2958991,-3.9571428,
0,node/6931151024,Pharmacie Saint François,5.2952895,-3.9596352,
0,node/6931151025,Grande Pharmacie Iroko,5.2941237,-3.9646348,
0,node/6931151026,Arrêt,5.2929966,-3.9695299,
0,node/6931151027,Pharmacie Du Boulevard Du Gabon,5.2924858,-3.971683,
0,node/6931151028,Polyclinique La Madone,5.2940696,-3.9757097,
0,node/6931151029,Arrêt,5.2965781,-3.9801776,
0,node/6931151030,Arrêt,5.298031,-3.9828604,
0,node/6931151031,Gare Nord,5.3590066,-4.027668,
0,node/6931273195,Koumassi Sicogi - Dépôt SOTRA,5.2873212,-3.9540428,
0,node/6931273196,[Arret sans nom],5.2849829,-3.964256,
0,node/6931273197,[Arret sans nom],5.2875055,-3.9651793,
0,node/6931273198,Arrêt,5.2873493,-3.9684516,
0,node/6931273199,[Arret sans nom],5.2883388,-3.9694119,
0,node/6931273200,Sicomex,5.293018,-3.9762314,
0,node/6931273203,Gare Sud,5.3148159,-4.0184375,
0,node/6931792543,Pharmacie du Rond-point,5.3074119,-4.0117713,
0,node/6931792544,[Arret sans nom],5.3090558,-4.0071049,
0,node/6931792545,Centre Commercial Koumassi,5.2889971,-3.9672808,
0,node/6931792546,Arrêt,5.2839293,-3.9622262,
0,node/6931792547,Pharmacie Bethanie,5.2847439,-3.9586401,
0,node/6931792548,Arrêt,5.2857761,-3.9543311,
0,node/6931792550,Koumassi Sicogi - Dépôt SOTRA,5.2884523,-3.9538698,
0,node/6931985671,Grand Carrefour de Koumassi,5.2870688,-3.970533,
0,node/6931985672,Ivosep Treichville,5.2985627,-4.001299,
0,node/6932152400,Arrêt,5.3266769,-4.060057,
0,node/6932152402,Ghandi,5.3250076,-4.0598402,
0,node/6932152404,Ghandi,5.3253408,-4.0599193,
0,node/6932152405,Arrêt,5.3600658,-4.0669167,
0,node/6932152407,Gare Sud,5.314853,-4.0182858,
0,node/6932239010,CIAD,5.3286224,-3.9502595,
0,node/6932239011,Arrêt,5.3291271,-3.951901,
0,node/6932239012,Arrêt,5.338314,-3.9522216,
0,node/6932239013,Carrefour Mel Theodore,5.3443655,-3.9526011,
0,node/6932239014,Pharmacie Riviera III,5.348653,-3.9535043,
0,node/6932239015,Collège l'Ardoise,5.3509724,-3.9545015,
0,node/6932239016,Arrêt,5.3550168,-3.9606719,
0,node/6932239017,Arrêt,5.3569209,-3.9637336,
0,node/6932239019,Gare Sud,5.3149333,-4.0185761,
0,node/6932253478,Angré Château,5.4127978,-3.9808642,
0,node/6932253479,Arrêt,5.4102497,-3.984559,
0,node/6932253480,Arrêt,5.3866094,-3.9930569,
0,node/6932253481,Arrêt,5.4076842,-3.9885655,
0,node/6932253483,Angré Château,5.4128518,-3.9809279,
0,node/6932323632,Arrêt,5.3569409,-3.9635029,
0,node/6932323633,Collège Ardoise,5.3517214,-3.9543647,
0,node/6932323634,Pharmacie Riviera III,5.3485048,-3.9531872,
0,node/6932323635,Carrefour Mel Theodore,5.3446873,-3.9524998,
0,node/6932323636,École libanaise Al Ghadir,5.3284521,-3.9448656,
0,node/6933043352,Terminus Yopougon Camp Militaire,5.3228845,-4.0617429,
0,node/6933043354,Ghandi,5.3245991,-4.0599163,
0,node/6933043355,Arrêt,5.3278586,-4.0607049,
0,node/6933043356,Arrêt,5.3300685,-4.0581514,
0,node/6933043357,[Arret sans nom],5.3314439,-4.0559573,
0,node/6933043359,Gare Sud,5.3145591,-4.018425,
0,node/6933080250,Arrêt,5.3283246,-3.9428298,
0,node/6933080251,École libanaise Al Ghadir,5.3282992,-3.9447637,
0,node/6933080252,Arrêt,5.3283286,-3.9460498,
0,node/6933080253,Pharmacie M'pouto,5.328364,-3.9479502,
0,node/6933080254,Beverly,5.3380122,-3.9527768,
0,node/6933080255,Carrefour Sol Béni,5.3311481,-3.9578046,
0,node/6933080256,Arrêt,5.329493,-3.980421,
0,node/6933080257,SIB,5.3353723,-3.9996752,
0,node/6933080258,Mosquée Cité Eden,5.3284154,-3.9401878,
0,node/6933080260,Mosquée Cité Eden,5.3283646,-3.9401855,
0,node/6933080262,Arrêt,5.3461454,-4.0026096,
0,node/6933080263,Mosquée Golf,5.3391939,-3.9789297,
0,node/6933080264,Arrêt,5.3325809,-3.9812806,
0,node/6933080265,Arrêt,5.3297881,-3.9790913,
0,node/6933080266,Beverly,5.3380134,-3.9529652,
0,node/6933128807,[Arret sans nom],5.3312516,-4.0560298,
0,node/6933128808,Arrêt,5.3299817,-4.0580978,
0,node/6933128810,Terminus Yopougon Camp Militaire,5.3222556,-4.0623571,
0,node/6933231056,Station Total,5.3017767,-4.0094478,
0,node/6933231057,Pharmacie de l'Avenue 27,5.3029158,-4.0061849,
0,node/6933291484,Gare Nord,5.3589712,-4.0272913,
0,node/6933302185,Gare Nord,5.3591995,-4.0277539,
0,node/6934648710,Arrêt,5.4266332,-4.0210558,
0,node/6934648711,Arrêt,5.4438112,-4.0538116,
0,node/6934648712,Arrêt,5.4435976,-4.0603428,
0,node/6934648713,Arrêt,5.4434975,-4.0647738,
0,node/6934648714,Arrêt,5.4433733,-4.0679455,
0,node/6934648715,Arrêt,5.442806,-4.0693985,
0,node/6934648716,Arrêt,5.4392747,-4.0686147,
0,node/6934648717,Arrêt,5.4321434,-4.068663,
0,node/6934648718,Arrêt,5.428223,-4.0699659,
0,node/6934648719,Arrêt,5.413004,-4.0783779,
0,node/6934648720,Arrêt,5.4036687,-4.0834808,
0,node/6934648721,Arrêt,5.4009224,-4.0842761,
0,node/6934648722,Arrêt,5.3935763,-4.0810159,
0,node/6934648723,Arrêt,5.3892384,-4.078453,
0,node/6934648724,Arrêt,5.3836466,-4.0757427,
0,node/6934648725,Arrêt,5.3747704,-4.0773951,
0,node/6934648726,Arrêt,5.3762544,-4.0820444,
0,node/6934648728,Arrêt,5.3838941,-4.0759718,
0,node/6934648729,Arrêt,5.389032,-4.0784458,
0,node/6934648730,Arrêt,5.3928929,-4.0806236,
0,node/6934648731,Arrêt,5.4014804,-4.0842976,
0,node/6934648732,Arrêt,5.4130749,-4.0784144,
0,node/6934648733,Arrêt,5.4279813,-4.070195,
0,node/6934648734,Arrêt,5.4326393,-4.0686617,
0,node/6934648735,Arrêt,5.4427909,-4.069498,
0,node/6934648736,Arrêt,5.4435987,-4.0650186,
0,node/6934648737,Arrêt,5.4437261,-4.0602688,
0,node/6934648738,Arrêt,5.4438909,-4.0536714,
0,node/6934648739,Arrêt,5.4432611,-4.0481434,
0,node/6934648740,Arrêt,5.4392603,-4.0438735,
0,node/6934657650,220 logements,5.3480962,-4.0169741,
0,node/6934657651,Carrefour Akwaba,5.2690497,-3.9618933,
0,node/6934657652,Hôpital de Port-Bouët,5.2629137,-3.9633662,
0,node/6934657653,Nouveau Marché Port-Bouët,5.2574343,-3.9637684,
0,node/6934657654,Océan Espadon,5.2567198,-3.961553,
0,node/6934657655,Église Méthodiste Unie Port-Bouët,5.2542438,-3.9621216,
0,node/6934657656,Wharf Port-Bouët,5.2530566,-3.9607128,
0,node/6934657657,Terminus Port-Bouët Phare,5.2510654,-3.9560196,
0,node/6934749721,Arrêt,5.400118,-4.0201934,
0,node/6934798183,Centre Commercial du Dokui,5.3970398,-4.0027148,
0,node/6934798184,Sainte Monique,5.3997114,-4.0014133,
0,node/6934815685,Superette Akwaba,5.3994163,-3.9960703,
0,node/6934815686,22ème,5.3979557,-3.9916306,
0,node/6934815687,Superette Akwaba,5.3992227,-3.9959845,
0,node/6934815688,Pharmacie Sainte Monique,5.3994417,-3.9972693,
0,node/6934815689,Station Petro Ivoire,5.3997942,-4.0008152,
0,node/6934815690,Sainte Monique,5.3994657,-4.0013301,
0,node/6934815692,Centre Commercial du Dokui,5.3970104,-4.0026122,
0,node/6934872150,Yopougon Kowëit,5.3221354,-4.0506908,
0,node/6934872151,Sideci Matignon,5.3218817,-4.0802555,
0,node/6934922723,Abobo Akeikoi Village,5.4604925,-4.0109827,
0,node/6934922724,Destin,5.4554315,-4.0111108,
0,node/6934922725,André Bar,5.4531085,-4.0126598,
0,node/6934922726,Arrêt,5.4493063,-4.0136415,
0,node/6934922727,Arrêt,5.4446991,-4.0143429,
0,node/6934922728,Arrêt,5.4400103,-4.0141618,
0,node/6934922731,Arrêt,5.4327535,-4.0137548,
0,node/6934922732,Arrêt,5.4336247,-4.0124023,
0,node/6934922733,Arrêt,5.4393221,-4.0143033,
0,node/6934922734,Arrêt,5.4445716,-4.0145279,
0,node/6934922735,Arrêt,5.4493357,-4.0137662,
0,node/6934922736,André Bar,5.4531566,-4.0127617,
0,node/6934922737,Destin,5.4554448,-4.0112489,
0,node/6934922738,Abobo Akeikoi Village,5.4604068,-4.0110518,
0,node/6934970640,Gare Abobo-Doumé,5.3102833,-4.0352396,
0,node/6935113685,Arrêt,5.4306528,-4.0240914,
0,node/6935113687,Cité Administrative,5.3314011,-4.0236072,
0,node/6935117220,Gare Nord,5.3591731,-4.0273828,
0,node/6935117222,Woodin,5.3610508,-3.9897309,
0,node/6935117223,[Arret sans nom],5.3653222,-3.9897537,
0,node/6935117224,NSIA Banque,5.3685842,-3.9898489,
0,node/6935117225,Leader Price,5.372732,-3.9904759,
0,node/6935117227,Carrefour Sainte Cécile - Terminus 35,5.3770534,-3.9926612,
0,node/6935251104,Carrefour Sainte Cécile - Terminus 35,5.3771843,-3.9926425,
0,node/6935251105,Sococé Vallon,5.3742722,-3.9904471,
0,node/6935251106,NSIA Banque,5.3686002,-3.9897873,
0,node/6935251107,[Arret sans nom],5.364963,-3.9897014,
0,node/6935251108,Woodin,5.3606736,-3.9896753,
0,node/6935251109,Versus Bank,5.3576192,-3.9907542,
0,node/6935251110,École de Police,5.3522302,-3.9912866,
0,node/6935251111,Mermoz,5.3387479,-3.99993,
0,node/6935251112,Gare Nord,5.3591581,-4.0278565,
0,node/6935274791,Groupe Scolaire Kouamé Konan,5.2627714,-3.9831166,
0,node/6935274792,Groupe Scolaire Petit Bassam,5.2569108,-3.9774759,
0,node/6935274793,Arrêt,5.2576259,-3.9696513,
0,node/6935274794,Marché,5.2585828,-3.965703,
0,node/6935274796,Pharmacie Océan,5.2568159,-3.9608596,
0,node/6935274797,Lycée Moderne de Port-Bouët,5.256199,-3.9581761,
0,node/6935274798,Carrefour Akwaba,5.2658583,-3.9610527,
0,node/6935274799,Digue de Koumassi,5.2758153,-3.9661886,
0,node/6935274800,CIE Bia Sud,5.2813533,-3.9692871,
0,node/6935274801,Arrêt,5.2900094,-3.962945,
0,node/6935274802,Arrêt,5.2907532,-3.9596587,
0,node/6935274803,Gare Koumassi,5.294113,-3.9555147,
0,node/6935274804,Pharmacie Regina,5.298266,-3.9498116,
0,node/6935274805,Pharmacie Regina,5.2982253,-3.9495504,
0,node/6935274806,Ajavon,5.2909815,-3.9582726,
0,node/6935274807,Foyer des Jeunes,5.2902818,-3.9612938,
0,node/6935274808,Centre Commercial Koumassi,5.2889304,-3.9668678,
0,node/6935274809,Carrefour Ancien Koumassi,5.2768282,-3.9667035,
0,node/6935274810,43ème Bima,5.2576733,-3.9577992,
0,node/6935274811,Lycée Moderne de Port-Bouët,5.2560567,-3.9579253,
0,node/6935274812,Nouveau Marché Port-Bouët,5.2574824,-3.9642432,
0,node/6935274813,District de Port-Bouet,5.2584759,-3.965754,
0,node/6935274814,Arrêt,5.2576319,-3.9693877,
0,node/6935274815,Arrêt,5.2572754,-3.9790309,
0,node/6935274816,Stade de la SIR,5.2569161,-3.9893487,
0,node/6935401276,Arrêt,5.3852315,-4.006142,
0,node/6935401277,Arrêt,5.3852595,-4.0060079,
0,node/6935401278,Arrêt,5.3984537,-4.0064532,
0,node/6935401279,Arrêt,5.4022949,-4.0064304,
0,node/6935401280,Arrêt,5.4087036,-4.0063405,
0,node/6935401281,Arrêt,5.4109493,-4.0062828,
0,node/6935401282,Arrêt,5.4143906,-4.0062493,
0,node/6935401283,Arrêt,5.420498,-4.0170009,
0,node/6935401284,Arrêt,5.4189547,-4.0141176,
0,node/6935407385,Arrêt,5.4179854,-4.0123071,
0,node/6935407386,Arrêt,5.4164927,-4.0094626,
0,node/6935488165,"Parc des Sports, Boulevard Valéry Giscard d'Estaing",5.2983706,-4.0041834,
0,node/6935488166,Carrefour Aéroport,5.2470403,-3.9445075,
0,node/6935488167,Arrêt,5.2446806,-3.9295542,
0,node/6935488168,Arrêt,5.2440381,-3.925598,
0,node/6935488169,Arrêt,5.2434545,-3.922044,
0,node/6935488170,Arrêt,5.2426599,-3.9170243,
0,node/6935488171,Arrêt,5.2417851,-3.9115848,
0,node/6935488172,Mosquée,5.2407648,-3.9051327,
0,node/6935494486,Arrêt,5.260825,-3.9593026,
0,node/6935494487,Avenue de la Côte d'Ivoire / Boulevard V.G.E.,5.2976825,-3.984569,
0,node/6935494488,Terminus Gonzagueville,5.2402774,-3.9005903,
0,node/6935494499,Mosquée,5.2405691,-3.9050053,
0,node/6935494500,Arrêt,5.2414058,-3.9104489,
0,node/6935494501,Arrêt,5.2422365,-3.9156765,
0,node/6935494502,Arrêt,5.243186,-3.9216458,
0,node/6935494503,Arrêt,5.2437256,-3.9251152,
0,node/6935494504,Arrêt,5.2444775,-3.9298091,
0,node/6935494505,Arrêt,5.2456701,-3.9372025,
0,node/6935494506,Arrêt,5.2467051,-3.94366,
0,node/6935494507,Arrêt,5.2492829,-3.9541537,
0,node/6935494508,43ème Bima,5.2573475,-3.9579213,
0,node/6935494509,Palais des Sports,5.299118,-4.0065188,
0,node/6935494511,Avenue Christiani,5.3101948,-4.0149692,
0,node/6937770645,Arrêt,5.3002327,-4.0082087,
0,node/6937770646,Arrêt,5.2618319,-3.9594314,
0,node/6937770647,Arrêt,5.2467278,-3.9424717,
0,node/6937770648,Terminus Gonzagueville,5.2400864,-3.9007735,
0,node/6937770649,Arrêt,5.2395482,-3.8973275,
0,node/6937770650,Arrêt,5.2389973,-3.893671,
0,node/6937770652,Pharmacie Bénediction,5.2375957,-3.8845293,
0,node/6937770653,Anani,5.2369286,-3.8802069,
0,node/6937770654,Anani,5.2368898,-3.8798529,
0,node/6937770655,Anani - Rond-point,5.2369172,-3.8749894,
0,node/6937770656,Arrêt,5.2372444,-3.8833565,
0,node/6937770657,Collège privé les Cartésiens d'Abidjan,5.2380744,-3.888965,
0,node/6937770658,Arrêt,5.2386868,-3.8928086,
0,node/6937770659,Corridor,5.2391862,-3.8962466,
0,node/6937770660,Terminus Gonzagueville,5.2399789,-3.9013763,
0,node/6937789671,Arrêt,5.256211,-3.9649889,
0,node/6938095648,Gare Abobo Sogephia,5.4354794,-4.01522,
0,node/6938222040,Arrêt,5.4251869,-4.0222809,
0,node/6938222041,Arrêt,5.4191963,-4.0239143,
0,node/6938222042,Arrêt,5.4148659,-4.0240283,
0,node/6938222043,Arrêt,5.4147991,-4.0292727,
0,node/6938324861,Ebimpé Village,5.5005578,-4.0807772,
0,node/6938324862,Arrêt,5.5031942,-4.0807946,
0,node/6938324863,Arrêt,5.5033771,-4.0801696,
0,node/6938324864,Arrêt,5.5031182,-4.0769751,
0,node/6938324865,Arrêt,5.5007033,-4.0770207,
0,node/6938324866,Arrêt,5.5002134,-4.0762322,
0,node/6938324867,Arrêt,5.5002334,-4.07344,
0,node/6938324868,Arrêt,5.5000185,-4.0699397,
0,node/6938324869,Arrêt,5.4982283,-4.066591,
0,node/6938324870,Arrêt,5.4912933,-4.0678543,
0,node/6938324871,Arrêt,5.4869787,-4.0690076,
0,node/6938324872,Arrêt,5.4842033,-4.0697157,
0,node/6938324873,Arrêt,5.4791892,-4.0709844,
0,node/6938324874,Arrêt,5.4769371,-4.0715718,
0,node/6938324875,Arrêt,5.4724328,-4.072693,
0,node/6938324876,Arrêt,5.4679499,-4.0737471,
0,node/6938324877,Arrêt,5.4644949,-4.0739322,
0,node/6938324878,Arrêt,5.4606874,-4.0733501,
0,node/6938324879,Arrêt,5.4565342,-4.0724757,
0,node/6938324880,Arrêt,5.4517454,-4.0713693,
0,node/6938324881,Arrêt,5.4485133,-4.0706693,
0,node/6938324882,Arrêt,5.4441757,-4.0696567,
0,node/6938324883,Arrêt,5.4435135,-4.0681963,
0,node/6938324884,Arrêt,5.443862,-4.056062,
0,node/6938343085,Arrêt,5.4440736,-4.0494295,
0,node/6938407500,Hotel Communal Port-Bouët,5.2608437,-3.9639542,
0,node/6938407501,Hôpital Géneral de Port-Bouët,5.2629757,-3.9635653,
0,node/6938407503,Arrêt,5.293872,-3.9564407,
0,node/6938407504,Collège privé les Cartésiens d'Abidjan,5.2382227,-3.8886204,
0,node/6938756997,Farandole,5.3640511,-3.9975952,
0,node/6938792077,Arrêt,5.4036801,-3.9845087,
0,node/6938792078,Arrêt,5.3829263,-3.993252,
0,node/6938792079,Gare Sud,5.3147389,-4.0186301,
0,node/6939014886,Arrêt,5.3010837,-3.9887345,
0,node/6939014887,Pharmacie Sainte Aghate,5.3023803,-3.9663789,
0,node/6939014888,Terminus Remblais 03,5.3029659,-3.9640502,
0,node/6939014890,Terminus Remblais 03,5.302855,-3.9638825,
0,node/6939014891,Arrêt,5.3018088,-3.9684999,
0,node/6939014892,Arrêt,5.2984764,-3.9714879,
0,node/6939014894,Arrêt,5.3022895,-3.9848064,
0,node/6939014895,Gare Nord,5.359076,-4.0274686,
0,node/6939076692,Terminus dépôt SOTRA,5.2875728,-4.0059154,
0,node/6944816371,Sideci Pharmacie Lem,5.3314425,-4.0768933,
0,node/6944816372,Sideci Lem,5.3305385,-4.0798317,
0,node/6944816373,[Arret sans nom],5.3270574,-4.0813807,
0,node/6944816374,Akadjoba,5.3246445,-4.0806283,
0,node/6944887181,Cité Administrative,5.3310827,-4.0237293,
0,node/6944887182,Arrêt,5.4253525,-4.0220542,
0,node/6944887183,Arrêt,5.4193151,-4.0240122,
0,node/6944887184,Arrêt,5.4150828,-4.0241008,
0,node/6944920985,Arrêt,5.4148679,-4.0292533,
0,node/6944920986,Terminus bus 51/52,5.4148038,-4.0334697,
0,node/6944934858,Arrêt,5.3274379,-4.0817052,
0,node/6944934859,Sideci Lem - Carrefour Sgbci,5.330154,-4.080812,
0,node/6944934860,Sideci Pharmacie Lem,5.3314305,-4.0773064,
0,node/6945017053,École de Police,5.3521541,-3.99141,
0,node/6945017054,Arrêt,5.3569943,-3.9914516,
0,node/6945458783,Siège SOTRA,5.2865574,-4.0082677,
0,node/6945659474,Station Oilibya,5.2569502,-3.9722067,
0,node/6945659475,Arrêt,5.2566851,-3.9647529,
0,node/6945659476,Pharmacie Atlantique,5.2546846,-3.9643009,
0,node/6945659477,Port-Bouët Phare,5.2511255,-3.9565238,
0,node/6945864857,Vridi canal - Terminus 23,5.2531341,-4.0047848,
0,node/6945864858,Vridi canal - Terminus 23,5.2531701,-4.0046923,
0,node/6945864859,[Arret sans nom],5.2657115,-4.0087358,
0,node/6945864860,Arrêt du CHU,5.2957541,-4.0033337,
0,node/6945966271,Ciprel,5.260642,-4.0134249,
0,node/6945966272,[Arret sans nom],5.2649101,-4.0138507,
0,node/6945966273,[Arret sans nom],5.265254,-4.011446,
0,node/6945966274,[Arret sans nom],5.2660346,-4.0086137,
0,node/6945966275,[Arret sans nom],5.2688363,-4.0060763,
0,node/6948222228,Arrêt,5.3539352,-3.9581171,
0,node/6948222230,Arrêt,5.3417576,-3.9522725,
0,node/6948222231,Arrêt,5.3392567,-3.9521505,
0,node/6948222232,Arrêt,5.3384929,-3.952243,
0,node/6948222233,Carrefour Ambassade de Chine,5.334941,-3.943904,
0,node/6948222234,Antenne,5.3392333,-3.9452136,
0,node/6948222235,Akwaba,5.3385917,-3.9428439,
0,node/6948222236,Pharmacie,5.3355172,-3.9393644,
0,node/6948222237,Arrêt,5.3328633,-3.9368539,
0,node/6948222238,Centre de santé Municipal de M'Badon,5.3307248,-3.9348771,
0,node/6948222239,Teminus M'Badon,5.3286344,-3.9323347,
0,node/6948270620,Teminus M'Badon,5.3285142,-3.9322612,
0,node/6948270621,Centre de santé Municipal de M'Badon,5.3305385,-3.9347577,
0,node/6948270622,Pharmacie,5.3357956,-3.9397017,
0,node/6948270623,Arrêt,5.339027,-3.9451191,
0,node/6948270624,Ambassade de Chine,5.3329114,-3.9418454,
0,node/6948270625,Arrêt,5.3538285,-3.9568537,
0,node/6948290580,Arrêt,5.3327177,-3.9368337,
0,node/6948290581,Bureau Bad,5.3385823,-3.9429814,
0,node/6948290582,[Arret sans nom],5.3350024,-3.9438068,
0,node/6948466331,Arrêt,5.353946,-3.9767852,
0,node/6948466332,Arrêt,5.3560356,-3.9695473,
0,node/6948466333,Arrêt,5.3732347,-3.9273548,
0,node/6948466334,Arrêt,5.3744488,-3.9221262,
0,node/6948466335,Kessé,5.3738883,-3.9116914,
0,node/6948466336,Syndicat,5.3664705,-3.9090387,
0,node/6948466337,Station TEXACO,5.3613312,-3.8946091,
0,node/6948466338,La Poste,5.357652,-3.8895766,
0,node/6948466339,Pharmacie du Marché,5.357433,-3.8879555,
0,node/6948466341,Sous-Prefecture de Bingerville,5.3576379,-3.8903531,
0,node/6948466343,Nouveau Goudron,5.372677,-3.9285967,
0,node/6948466345,Pharmacie les 7 Colonnes,5.3455151,-4.0026914,
0,node/6948695731,Arrêt,5.3346312,-3.9906777,
0,node/6948695732,Arrêt,5.3396564,-3.9758237,
0,node/6948695733,Arrêt,5.3414919,-3.9761442,
0,node/6948695734,Arrêt,5.3438403,-3.9751571,
0,node/6948695735,Arrêt,5.3470921,-3.975412,
0,node/6948695736,Arrêt,5.3520693,-3.9767209,
0,node/6948695738,Arrêt,5.3530066,-3.9760919,
0,node/6948695739,Arrêt,5.35209,-3.9766203,
0,node/6948695740,Arrêt,5.3468223,-3.9752188,
0,node/6948695741,Arrêt,5.343802,-3.9750874,
0,node/6948695742,Arrêt,5.3416148,-3.9760651,
0,node/6948695743,Arrêt,5.3397193,-3.9757586,
0,node/6948695744,Arrêt,5.3385022,-3.9754911,
0,node/6948695745,Arrêt,5.3344937,-3.9902714,
0,node/6948695746,Arrêt,5.3349056,-3.9957176,
0,node/6948706680,Warafa Assurance,5.321664,-4.0157926,
0,node/6948706681,Arrêt Résidence Nabil,5.3184017,-4.0152582,
0,node/6948706682,[Arret sans nom],5.3044274,-4.0092923,
0,node/6948791226,Terminus CHU Treichville,5.2949249,-4.0042001,
0,node/6948855820,Arrêt,5.3565604,-3.9679608,
0,node/6948855821,Arrêt,5.3599399,-3.9614752,
0,node/6948855822,Cité Millenium,5.3717967,-3.9289306,
0,node/6948855823,Arrêt,5.3584311,-3.9253854,
0,node/6948855824,Arrêt,5.3556661,-3.9247158,
0,node/6948855825,Arrêt,5.3532496,-3.924163,
0,node/6948855826,Collège Jeune Filles,5.3498507,-3.9233825,
0,node/6948855827,Oribat Cité Don Mello,5.3397928,-3.9225573,
0,node/6948855828,Arrêt,5.3329467,-3.9226348,
0,node/6948855829,Arrêt,5.3282217,-3.9191627,
0,node/6948855830,Paroisse,5.3283086,-3.9169304,
0,node/6948855831,EPP Abatta,5.3267112,-3.9161199,
0,node/6948920956,Arrêt,5.3342136,-3.923136,
0,node/6948920957,Arrêt,5.3262131,-3.9158679,
0,node/6948920958,EPP Abatta,5.3267028,-3.9161935,
0,node/6948920959,Paroisse,5.3282218,-3.9169358,
0,node/6948920960,Arrêt,5.3329487,-3.9227374,
0,node/6948920961,Arrêt,5.3417243,-3.9220896,
0,node/6948920962,Arrêt,5.3443775,-3.9222706,
0,node/6948920963,Arrêt,5.3471041,-3.9228521,
0,node/6948920964,Arrêt,5.3532917,-3.9242797,
0,node/6948920965,Arrêt,5.3583733,-3.9254397,
0,node/6948920966,Sodeci Abatta,5.359984,-3.9258534,
0,node/6948920967,Nouveau Goudron,5.3722754,-3.9301027,
0,node/6951127812,Arrêt,5.2579604,-3.968976,
0,node/6951127813,Mairie Port-Bouët,5.2597086,-3.9654422,
0,node/6951127815,[Arret sans nom],5.2595919,-3.9687383,
0,node/6951127816,Gare Sud,5.3145654,-4.0181731,
0,node/6951182059,Arrêt,5.3373639,-3.9533649,
0,node/6951182060,Arrêt,5.3344449,-3.9559445,
0,node/6951182061,Arrêt,5.3308416,-3.9570247,
0,node/6951182062,Arrêt,5.3295658,-3.9531144,
0,node/6951182064,Arrêt,5.3296352,-3.9535137,
0,node/6951182065,Arrêt,5.330835,-3.9572031,
0,node/6951182066,Arrêt,5.3414479,-3.952412,
0,node/6951224049,Arrêt,5.2921887,-3.9630926,
0,node/6951224050,Commissariat de Police du 6ᵉ,5.2898905,-3.9693582,
0,node/6951224051,Gare Nord,5.3586694,-4.0276527,
0,node/6951939383,Gare Koumassi,5.2941431,-3.9554248,
0,node/6951939384,Gare Nord,5.3587923,-4.0273499,
0,node/6952071069,Terminus 31 Remblais,5.3024324,-3.9635003,
0,node/6952071070,Trois Ampoules,5.2975569,-3.9623322,
0,node/6952132224,"BIAO, Treichville",5.2988296,-4.0109539,
0,node/6952132225,"Pizza, Marcory",5.2884669,-3.9883861,
0,node/6952132226,"Bernabé Parc à Fer, Boulevard de Marseille",5.2853422,-3.9855024,
0,node/6952132227,[Arret sans nom],5.2786718,-3.9824903,
0,node/6952132228,Église Notre-Dame d'Afrique,5.2734369,-3.9767262,
0,node/6952132229,Sept Villas,5.2734089,-3.9714865,
0,node/6952132230,Arrêt,5.276028,-3.9672503,
0,node/6952132232,Arrêt,5.2486135,-3.9434065,
0,node/6952132233,EPP Aéroport,5.2544081,-3.9386439,
0,node/6952132234,Aéroport,5.2536201,-3.934246,
0,node/6952132235,Carrefour Aéroport,5.2469401,-3.9450909,
0,node/6952132240,Cité ASECNA,5.2544028,-3.9409603,
0,node/6952132241,Arrêt,5.2508117,-3.9424355,
0,node/6952132242,Arrêt,5.2480679,-3.9435728,
0,node/6952132243,Maquis 5 sur 5,5.247278,-3.947171,
0,node/6952132244,Pharmacie Océan,5.2567618,-3.9610943,
0,node/6952132245,Abattoir Port-Bouët,5.266498,-3.9627318,
0,node/6952132246,Arrêt,5.2726637,-3.9751598,
0,node/6952132247,Arrêt,5.28785,-3.9878453,
0,node/6952132248,Arrêt,5.2895893,-3.9917104,
0,node/6952132250,Arrêt,5.2912033,-3.9954532,
0,node/6952132251,"BIAO, Treichville",5.2984459,-4.0104501,
0,node/6952132252,Gare Sud,5.3144382,-4.0182926,
0,node/6952200468,Arrêt,5.3091986,-3.9495367,
0,node/6952200469,Centre Médico-social,5.3097742,-3.9481486,
0,node/6952200470,Hôpital Général de Marcory,5.3012025,-3.9837456,
0,node/6952200471,Arrêt,5.3034286,-3.986865,
0,node/6952200472,Arrêt,5.3042605,-4.0094613,
0,node/6952200475,Arrêt,5.3052353,-4.007007,
0,node/6952200476,Arrêt,5.3027926,-3.9855715,
0,node/6952200477,Akromiambla-Terminus 32 Koumassi,5.3118954,-3.952005,
0,node/6952244517,Arrêt,5.441531,-4.0471624,
0,node/6952566208,Arrêt,5.4436978,-4.0559909,
0,node/6952566209,Arrêt,5.4448793,-4.0699545,
0,node/6952566210,Arrêt,5.4490874,-4.0708852,
0,node/6952566211,Arrêt,5.4522514,-4.0716147,
0,node/6952566212,Arrêt,5.4532246,-4.0718146,
0,node/6952566213,Arrêt,5.4567491,-4.0726206,
0,node/6952566214,Arrêt,5.4606701,-4.0734789,
0,node/6952566215,Arrêt,5.4636378,-4.0739724,
0,node/6952566216,Arrêt,5.4644695,-4.074022,
0,node/6952566217,Arrêt,5.4679793,-4.0738437,
0,node/6952566218,Arrêt,5.4724295,-4.0727828,
0,node/6952566219,Arrêt,5.4769985,-4.0716872,
0,node/6952566220,Arrêt,5.4793881,-4.0710461,
0,node/6952566221,Arrêt,5.4821955,-4.0703045,
0,node/6952566222,Arrêt,5.4839777,-4.0699115,
0,node/6952566223,Arrêt,5.486354,-4.0692893,
0,node/6952566224,Arrêt,5.4911611,-4.0680795,
0,node/6952566225,Arrêt,5.4982644,-4.0667948,
0,node/6952566226,Arrêt,5.5001119,-4.0740864,
0,node/6952566227,Arrêt,5.5000518,-4.0767123,
0,node/6954138437,Petit Café,5.2862329,-3.9734097,
0,node/6954138438,Arrêt,5.2807083,-3.9775054,
0,node/6954138439,Arrêt,5.2823321,-3.9804116,
0,node/6954138440,Arrêt,5.300639,-4.0126625,
0,node/6954138442,Agence Nationale de la Formation Professionnelle (AGEFOP),5.28394,-3.9828832,
0,node/6954138443,Arrêt,5.2809293,-3.9776556,
0,node/6954138444,UTTb Université Loko,5.2870755,-3.973057,
0,node/6954138445,Marché DjeKonan,5.2892455,-3.9693475,
0,node/6954138446,Arrêt,5.3133129,-3.9518099,
0,node/6954511639,CIE Koumassi,5.2834138,-3.9679319,
0,node/6954511640,Hôpital de Koumassi,5.286559,-3.9686649,
0,node/6954926526,[Arret sans nom],5.3583583,-4.0989914,
0,node/6954926527,[Arret sans nom],5.3615502,-4.1000086,
0,node/6954926528,[Arret sans nom],5.3641759,-4.0967993,
0,node/6955038705,Koumassi Soweto - Dépôt 5,5.2859504,-3.9531577,
0,node/6955038706,Pharmacie Bethanie,5.2847586,-3.9582532,
0,node/6955038707,Sation Lavage,5.2840528,-3.9611265,
0,node/6955038708,CIE Koumassi,5.2836422,-3.9680882,
0,node/6955038709,Hôpital de Koumassi,5.2870421,-3.9688808,
0,node/6955038710,Pharmacie Massarana,5.2996014,-3.984628,
0,node/6955038711,Gare Nord,5.3587075,-4.0275521,
0,node/6955514933,Cité Administrative,5.3331711,-4.0217512,
0,node/6955514934,Arrêt Pharmacie Palmeraie,5.3635931,-3.9597532,
0,node/6955514935,Arrêt,5.3710263,-3.9580205,
0,node/6955514936,Arrêt,5.3720811,-3.9587393,
0,node/6955514937,Cocody SCI Les Rosiers,5.3808935,-3.964382,
0,node/6955514938,Arrêt,5.3727874,-3.9598592,
0,node/6955514939,Arrêt,5.3685488,-3.9592516,
0,node/6955514940,Gare Sud,5.3149553,-4.0184346,
0,node/6958966895,Aéroport,5.253474,-3.9341971,
0,node/6961370878,Arrêt,5.2774525,-3.981805,
0,node/6961370879,Pharmacie de Bietry,5.2744205,-3.9788787,
0,node/6961370880,Arrêt Dr08,5.2516684,-3.9421921,
0,node/6961370881,Cité ASECNA,5.2543801,-3.9410589,
0,node/6961643500,[Arret sans nom],5.3618139,-4.0725361,
0,node/6961643501,[Arret sans nom],5.373881,-4.0923724,
0,node/6961643502,[Arret sans nom],5.3718154,-4.0945986,
0,node/6963093974,Amondji,5.3396466,-4.0858988,
0,node/6963093975,Arrêt,5.3395998,-4.0810166,
0,node/6963093976,Pont Vagabond,5.3382505,-4.0792436,
0,node/6963093977,Arrêt,5.3403236,-4.0747274,
0,node/6963093979,Gare Sud,5.3147296,-4.0181436,
0,node/6963093981,Saint André lavage,5.3415106,-4.0732643,
0,node/6963093982,Amondji,5.3395197,-4.0859069,
0,node/6964184463,Aghien 2 plateaux,5.3883091,-3.9928235,
0,node/6964184464,[Arret sans nom],5.3359625,-4.0044791,
0,node/6964184466,Aghien 2 plateaux,5.3885302,-3.9923066,
0,node/6964184467,Carrefour la Vie,5.3502206,-4.0021368,
0,node/6964502135,Arrêt Pharmacie Palmeraie,5.3635871,-3.9596674,
0,node/6966758103,BAE,5.3609547,-4.0846449,
0,node/6966758104,Arrêt,5.3551851,-4.0882243,
0,node/6966758105,Carrefour Antenne Ananeraie,5.3549701,-4.0957546,
0,node/6966758106,Oasis,5.354878,-4.0988526,
0,node/6966758107,Sorbonne,5.3502259,-4.0993729,
0,node/6966758108,Arrêt,5.3462622,-4.0997625,
0,node/6966758109,Arrêt,5.333344,-4.1031267,
0,node/6966758111,Arrêt,5.3292232,-4.1044571,
0,node/6966758112,Arrêt,5.3441658,-4.1004723,
0,node/6966758113,Arrêt,5.3460138,-4.0999784,
0,node/6966758114,Sorbonne,5.3500978,-4.0994869,
0,node/6966758115,Arrêt,5.3529605,-4.0994742,
0,node/6966758116,Oasis,5.3549421,-4.0992308,
0,node/6966758117,Arrêt,5.3551971,-4.0918869,
0,node/6966849451,Arrêt,5.3233545,-4.016671,
0,node/6966849452,Arrêt,5.4486134,-4.0138976,
0,node/6966927285,Hotel Communal Port-Bouët,5.2613392,-3.9637296,
0,node/6966927286,Wharf Port-Bouët,5.2528723,-3.9605525,
0,node/6966927287,Arrêt,5.3027916,-4.0132633,
0,node/6966942817,Arrêt,5.4469386,-4.0140968,
0,node/6966942818,Arrêt,5.4381706,-4.0166429,
0,node/6966942819,Arrêt,5.4141149,-4.0159589,
0,node/6966942820,Arrêt,5.4069719,-4.0164229,
0,node/6967070473,Arrêt,5.2655592,-4.0007964,
0,node/6967070474,Arrêt,5.2772629,-4.0085238,
0,node/6967070475,Arrêt,5.279469,-4.0085185,
0,node/6967070476,Arrêt,5.3959876,-4.0210712,
0,node/6967070477,Arrêt,5.4118438,-4.016604,
0,node/6967070478,Arrêt,5.4197437,-4.0178807,
0,node/6967070479,Arrêt,5.4227157,-4.0187565,
0,node/6967070480,Arrêt,5.4356834,-4.0289891,
0,node/6967070481,Arrêt,5.4364023,-4.0302558,
0,node/6967070482,Arrêt,5.4370672,-4.0319341,
0,node/6967070483,Arrêt,5.4373075,-4.0332256,
0,node/6967070484,Arrêt,5.4377581,-4.0362847,
0,node/6967074785,Arrêt,5.4381539,-4.0391982,
0,node/6967074787,PK 18 Agripac,5.4435976,-4.0485819,
0,node/6967158577,Arrêt,5.4255661,-4.0197301,
0,node/6967158578,Arrêt,5.4195782,-4.017465,
0,node/6967158579,Arrêt,5.3053862,-4.0226068,
0,node/6967158580,Pharmacie du Port,5.2891307,-4.0082905,
0,node/6968911549,Abobo Gendarmerie,5.4269192,-4.0212006,
0,node/6968911550,Arrêt,5.4289586,-4.0229219,
0,node/6968911551,Arrêt,5.4078444,-4.0812264,
0,node/6968911556,CHU de Yopougon,5.3570551,-4.0851445,
0,node/6968911557,Arrêt,5.3698106,-4.080236,
0,node/6968911558,Arrêt,5.3746728,-4.0777087,
0,node/6968911559,Arrêt,5.4392253,-4.0687166,
0,node/6969221528,Arrêt,5.3423532,-4.0793476,
0,node/6969221530,Gare Sud,5.3141434,-4.0177429,
0,node/6969371620,Feh Kessé,5.3743039,-3.9117702,
0,node/6969583471,Clinique Providence,5.3472803,-4.0097992,
0,node/6969583472,Supermarché Casino,5.3451973,-4.0106696,
0,node/6969583474,Gare Sud,5.3147951,-4.0185824,
0,node/6969583476,Gare Sud,5.3154387,-4.01752,
0,node/6969583477,Novotel,5.3161731,-4.0166201,
0,node/6969583478,[Arret sans nom],5.3172748,-4.0151837,
0,node/6969583479,Arrêt,5.3202726,-4.015578,
0,node/6969583480,Arrêt,5.3209056,-4.0192916,
0,node/6969583481,Arrêt,5.3217388,-4.0207359,
0,node/6969583482,Hôtel de Ville,5.3233639,-4.0207185,
0,node/6969583483,Arrêt,5.3257514,-4.0207171,
0,node/6969583484,Arrêt,5.3278011,-4.0207332,
0,node/6969620785,Cité Administrative,5.3335937,-4.0217525,
0,node/6970095632,Termunis 81/82,5.4031227,-3.985249,
0,node/6970095633,Arrêt,5.3971746,-3.9859892,
0,node/6970095634,Pharmacie Les 7 Lys,5.3841166,-3.9875704,
0,node/6970095635,Arrêt,5.3643008,-3.979157,
0,node/6970095637,Riviera 2,5.3542958,-3.977256,
0,node/6970095638,Arrêt,5.3623286,-3.978931,
0,node/6970095639,DGI,5.3924174,-3.9866585,
0,node/6970095641,Termunis 81/82,5.4031427,-3.9853522,
0,node/6970366278,Arrêt,5.3554107,-3.9506122,
0,node/6970366281,Arrêt,5.3552038,-3.950804,
0,node/6970366282,Arrêt,5.3652007,-3.9482653,
0,node/6970366283,Arrêt,5.3643008,-3.9522095,
0,node/6979256984,Arrêt,5.403546,-4.0181825,
0,node/6979431044,Arrêt,5.4038146,-3.9848581,
0,node/6979431045,Arrêt,5.39671,-3.977142,
0,node/6979431046,Arrêt,5.3902524,-3.9754421,
0,node/6979431047,Arrêt,5.387788,-3.9747639,
0,node/6979431048,Arrêt,5.3839137,-3.9737651,
0,node/6979431049,Arrêt,5.3828575,-3.9734902,
0,node/6979431051,Arrêt,5.3749859,-3.9627425,
0,node/6979431052,Arrêt,5.4036825,-3.984727,
0,node/6979712503,Arrêt,5.3281463,-3.9195342,
0,node/6979712504,Arrêt,5.3318471,-3.9224169,
0,node/6979712505,Arrêt,5.3394623,-3.9227159,
0,node/6979712506,Arrêt,5.3479974,-3.923066,
0,node/6979712507,Arrêt,5.3497346,-3.9234415,
0,node/6979712508,Arrêt,5.3546363,-3.924564,
0,node/6979712509,Arrêt,5.3579717,-3.9253713,
0,node/6979712510,Arrêt;Sodeci,5.3601,-3.9221386,
0,node/6979712511,Arrêt,5.3622665,-3.9265072,
0,node/6979712512,Arrêt,5.3635464,-3.9268023,
0,node/6979712513,Arrêt,5.3687351,-3.928193,
0,node/6979712514,Arrêt,5.3703787,-3.9379911,
0,node/6979712515,Arrêt,5.3679286,-3.9279167,
0,node/6979712516,Arrêt,5.3470093,-3.9227716,
0,node/6979712517,Arrêt,5.3449917,-3.9223344,
0,node/6979712518,Arrêt,5.3428352,-3.9218402,
0,node/6979712519,Arrêt,5.3413324,-3.9221104,
0,node/6980029236,Arrêt,5.2452454,-3.9344399,
0,node/6980029237,Arrêt,5.2569228,-3.9723435,
0,node/6980029238,Bank Of Africa,5.2684644,-4.0062828,
0,node/6980029239,Arrêt,5.2646043,-4.0139727,
0,node/6980029241,[Arret sans nom],5.2587043,-4.0112543,
0,node/6980029242,[Arret sans nom],5.2648347,-4.0138916,
0,node/6980029243,[Arret sans nom],5.2686721,-4.006083,
0,node/6980258130,Terminus Port-Bouët Phare,5.2509145,-3.9560491,
0,node/6980521688,Arrêt,5.3433974,-4.0032211,
0,node/6980521689,Arrêt,5.3628414,-3.9976139,
0,node/6980521690,Arrêt,5.399921,-4.0057075,
0,node/6980521691,Arrêt,5.4015232,-4.0065511,
0,node/6980521692,Arrêt,5.4034191,-4.0065081,
0,node/6980521695,Abobo Gendarmerie,5.4241696,-4.0192406,
0,node/6980521696,Arrêt,5.4185708,-4.0134712,
0,node/6980521697,Arrêt,5.4155561,-4.0074744,
0,node/6980521698,Arrêt,5.4135434,-4.0062694,
0,node/6980521699,Arrêt,5.4035807,-4.0064277,
0,node/6980521700,Arrêt,5.3998663,-3.9990999,
0,node/6980521701,Arrêt,5.3987194,-3.992904,
0,node/6980521702,Arrêt,5.387006,-3.9927913,
0,node/6980521703,Arrêt,5.3819122,-3.9934525,
0,node/7025968250,Arrêt,5.2578469,-3.9718473,
0,node/7025975082,Arrêt,5.2642798,-3.9994057,
0,node/7025975083,Arrêt,5.2682835,-4.003783,
0,node/7025992286,Arrêt,5.3292373,-4.10439,
0,node/7026069662,[Arret sans nom],5.2771214,-4.0083388,
0,node/7026279881,Arrêt,5.341978,-4.0149826,
0,node/7026364429,Arrêt,5.2855772,-3.9547831,
0,node/7026390486,[Arret sans nom],5.2850417,-3.9641359,
0,node/7028872830,Océan Espadon,5.2566557,-3.9616643,
0,node/7028872831,Gare Nord,5.3588917,-4.0278525,
0,node/7043603291,Cité étudiante Riviera 2,5.3534289,-3.9736383,
0,node/7043642288,Carrefour Antenne Ananeraie,5.3550743,-4.0957761,
0,node/7044975088,Gare Lagunaire Yopougon STL,5.3109066,-4.0344058,
0,node/7044975089,Gare Lagunaire Plateau STL,5.3143858,-4.0170439,
0,node/7044975090,Gare Lagunaire Treichville STL,5.3135839,-4.0100701,
0,node/7046900012,Gare Lagunaire Koumassi STL,5.315627,-3.952125,
0,node/7046900013,Gare Lagunaire M'pouto STL,5.3240676,-3.9603245,
0,node/7046964142,Gare Lagunaire de Treichville Sotra,5.3108107,-4.015859,
0,node/7046964143,Gare Lagunaire d’Abobo-Doumé Sotra,5.3107009,-4.0347196,
0,node/7047063325,Gare Lagunaire du Plateau Sotra,5.3140753,-4.0176728,
0,node/7047101136,Gare lagunaire de Blockauss Sotra,5.3212342,-4.0021442,
0,node/7047930662,Arrêt,5.3562773,-4.0016118,
0,node/7047930663,Arrêt,5.4096636,-3.9856634,
0,node/7048020780,Syndicat,5.3665112,-3.9091802,
0,node/7048020781,Kessé,5.3739184,-3.9119428,
0,node/7048020782,Camp Millitaire d'Akouédo,5.3676562,-3.9446417,
0,node/7048020783,Église Apostolique de Côte d'Ivoire,5.3652501,-3.9495032,
0,node/7049258139,Yopougon Gesco - Terminus du bus 34,5.3672056,-4.1020069,
0,node/7049258140,Arrêt,5.365903,-4.0973914,
0,node/7049258141,Arrêt,5.3634963,-4.0976979,
0,node/7049258142,Arrêt,5.3608051,-4.1003995,
0,node/7049258143,Arrêt,5.3587021,-4.0998034,
0,node/7049258144,Mamie Adjoua,5.3582214,-4.0940326,
0,node/7049258145,Arrêt,5.3552799,-4.088628,
0,node/7049730219,Arrêt,5.3009034,-4.0120965,
0,node/7049730220,EPP Aéroport,5.2545644,-3.9392397,
0,node/7049730221,Sept Villas,5.2734289,-3.9712512,
0,node/7049730222,Arrêt,5.2844982,-3.9852691,
0,node/7051810979,Carrefour la Vie,5.3485715,-4.0031956,
0,node/7051810981,Terminus Liberté,5.3528057,-4.0128221,
0,node/7051810982,École de Police,5.3503194,-3.9885668,
0,node/7051810984,Riviera 2,5.3530834,-3.9797437,
0,node/7051811086,Station Total Riviera 2,5.3529853,-3.9788968,
0,node/7051811087,Vallon,5.35446,-3.9909077,
0,node/7051811088,Escalier,5.3546991,-4.0043946,
0,node/7051811090,Adjamé Liberté,5.3533605,-4.0146225,
0,node/7051905145,Gare Anono,5.3498521,-4.0228106,
0,node/7051905146,Station,5.3495777,-4.0223607,
0,node/7051905147,Banfora,5.347757,-4.0227932,
0,node/7051905148,Saint Michel,5.3464705,-4.0227107,
0,node/7051905149,Eglise Saint Michel,5.3451372,-4.0226899,
0,node/7051905150,Eglise,5.343631,-4.0234597,
0,node/7051905151,SODEFOR,5.3490415,-3.9993949,
0,node/7051905152,Carrefour CHU,5.3494341,-3.9919236,
0,node/7051905153,Arrêt,5.3505471,-3.9869374,
0,node/7051905154,Terminus Anono,5.3445751,-3.9724706,
0,node/7051905155,Marché,5.3452895,-3.9744008,
0,node/7051905157,Terminus Anono,5.34455,-3.9724521,
0,node/7051905159,Arrêt,5.3504075,-3.9769623,
0,node/7051905160,Au Lavage,5.3500924,-3.9778259,
0,node/7051905161,A la Mosquée,5.3510311,-3.9809205,
0,node/7051905162,Carrefour CHU,5.349577,-3.9905101,
0,node/7051905163,Gare Anono,5.3497766,-4.0228461,
0,node/7052162358,École de Police,5.3501191,-3.989405,
0,node/7052162359,Carrefour Saint Michel,5.3454176,-4.0226577,
0,node/7052162360,A La Caisse,5.3418391,-4.0216117,
0,node/7052162361,Akouédo,5.3673438,-3.9457347,
0,node/7052162362,Playce Palmeraie,5.3719142,-3.9324155,
0,node/7052162363,Nouveau Goudron,5.3728529,-3.9287925,
0,node/7052162364,Kessé,5.3743603,-3.9122875,
0,node/7052162365,CIE,5.3602229,-3.8981583,
0,node/7052162366,Station Texaco,5.3613609,-3.8947412,
0,node/7052162367,Collège Moderne,5.3575885,-3.8882764,
0,node/7052162369,Carrefour Bangui,5.3573081,-3.8845441,
0,node/7052162370,Terminus Carrefour Bangui,5.357718,-3.8843443,
0,node/7052162371,Carrefour Bangui,5.3571933,-3.8844985,
0,node/7052162372,Collège Moderne,5.3574283,-3.887693,
0,node/7052162373,Faya,5.3703106,-3.9374359,
0,node/7052162375,Gare en haut,5.350286,-4.0224532,
0,node/7052340401,Clinique Fraternité,5.3493033,-4.0218316,
0,node/7052340402,Escalier,5.3548993,-4.0042631,
0,node/7052340403,Vallon-1er Pont,5.3546376,-3.9904813,
0,node/7052340404,Gare en haut,5.3504162,-4.0227482,
0,node/7052340405,Terminus M'Pouto,5.3271876,-3.9542839,
0,node/7052340406,Terminus M'Pouto,5.3271989,-3.9543486,
0,node/7052340407,A l'Arrêt,5.3310206,-3.9579682,
0,node/7052340408,Banny,5.3347781,-3.9557567,
0,node/7052340409,Maison Blanche,5.337175,-3.9537035,
0,node/7052340410,Mel Théodore,5.3452694,-3.952691,
0,node/7052340411,Carrefour Lycée Français,5.3508856,-3.9545229,
0,node/7052340412,Cap Nord,5.3564619,-3.9676865,
0,node/7052340415,Gare en haut,5.3503214,-4.0226343,
