location_type,parent_station,stop_name,stop_lon,stop_lat,stop_id
0,,Yopougon Niangon-Terminus 27,-4.0893341,5.3164439,node/768587345
0,,Yopougon Sideci - Terminus 42,-4.0804016,5.3198783,node/768587373
0,,Gare lagunaire Aqualines du Plateau,-4.0148847,5.3158647,node/1227889258
0,,Agban,-4.0171229,5.3608351,node/2381298633
0,,Fraternité Matin,-4.018311,5.3438972,node/2444131222
0,,Saint André lavage,-4.0732432,5.3423485,node/2460519991
0,,Arrêt,-4.0238611,5.3413464,node/2493226931
0,,Gare Koumassi,-3.9551669,5.2942027,node/2493730483
0,,Terminus 05 Lycée Municipal de Koumassi,-3.945225,5.3121324,node/2760843854
0,,Terminus bus 47,-4.0832298,5.3396167,node/2948146673
0,,Arrêt du Maroc,-4.0912463,5.3396157,node/3067761599
0,,Mosquée du Maroc,-4.0973067,5.3400629,node/3067766555
0,,Saint André,-4.0738295,5.3423254,node/3075945505
0,,[Arret sans nom],-4.0668084,5.3427541,node/3137208051
0,,2 poteaux,-4.0709484,5.3436761,node/3137217828
0,,Newton,-4.0679411,5.3446768,node/3137243386
0,,Riviera 2,-3.979568,5.3531115,node/3145728412
0,,Eglise Evangélique Internationnal Foursquare,-3.9487208,5.3117096,node/3218806159
0,,Saint Jean,-4.0037743,5.3368705,node/3326195828
0,,Pharmacie Port-Bouët II,-4.0884501,5.3470567,node/3666057101
0,,Figayo,-4.0734547,5.3493507,node/3950172145
0,,ENA,-3.9973698,5.3616481,node/4029208102
0,,Pharmacie de Bietry,-3.9787018,5.2742845,node/4107240891
0,,Terminus 85,-4.061373,5.3296306,node/4411562346
0,,Terminus CHU Treichville,-4.004071,5.2948647,node/4999458824
0,,Ex-pharmacie Mockey,-4.011123,5.30185,node/5057165424
0,,Carrefour St Jean,-4.0039817,5.3369029,node/5057297311
0,,Terminus 704 abobo Belleville,-3.9933116,5.4158258,node/5068855021
0,,Terminus M'pouto - CIAD,-3.940785,5.328322,node/5143730222
0,,Terminus M'pouto - CIAD,-3.9410686,5.3284442,node/5143751833
0,,[Arret sans nom],-4.0711802,5.3437686,node/5281604034
0,,Gare lagunaire Aqualines Yopougon,-4.0374018,5.3078259,node/5390465849
0,,Stif,-4.0205264,5.3555889,node/5414376221
0,,Complexe sportif de Yopougon,-4.0623618,5.3415133,node/5739489700
0,,Figayo,-4.073208,5.3493427,node/5927302128
0,,Arrêt,-4.1003513,5.3419897,node/5934409413
0,,Yopougon Gesco - Terminus du bus 34,-4.1020437,5.3671401,node/5936892363
0,,Pharmacie Val de Grace,-3.967352,5.3802448,node/5953580661
0,,Carrefour Palmeraie,-3.9593077,5.3618751,node/5953580667
0,,Station Shell Riviera 3,-3.9643623,5.3582581,node/5953580668
0,,CIAD,-3.9498433,5.3286164,node/5954541435
0,,Boulevard de France,-3.9902179,5.3347766,node/5954541439
0,,Carrefour de la Vie,-4.0024723,5.3492831,node/5954541440
0,,Carrefour 22ème,-3.991548,5.3989296,node/5957239662
0,,Carrefour Opéra,-3.9931428,5.3855754,node/5957239663
0,,ENA,-3.9975968,5.3615936,node/5957239665
0,,Hôtel Ivoire,-4.0050058,5.328578,node/5957239666
0,,Pharmacie Les Laureades,-3.9860303,5.3975314,node/5958266385
0,,Petro Ivoire 7è Tranche,-3.9881294,5.3806539,node/5958266386
0,,Commisariat 30è Art.,-3.9845519,5.373758,node/5958266387
0,,Terminus 202 Attoban,-3.9813021,5.3701109,node/5958266388
0,,Parmacie St Bernard,-3.9797109,5.3673274,node/5958266389
0,,Pharmacie St Ange,-3.9782153,5.3573659,node/5958266390
0,,Collège André Malraux,-3.9779596,5.3558222,node/5958266391
0,,Riviera 2,-3.9773239,5.3541895,node/5958266392
0,,Saint Paul Plateau,-4.0207447,5.3247785,node/6098848385
0,,Hôtel de Ville,-4.0205509,5.3238162,node/6136850508
0,,Hôtel de Ville,-4.0205339,5.3234932,node/6136850509
0,,Terminus Hotel de Ville,-4.0205256,5.3226907,node/6136858285
0,,Cathédrale Saint paul,-4.021322,5.3317403,node/6195348341
0,,Terminus bus 51/52,-4.0333199,5.4148488,node/6281030720
0,,Gare Abobo Sogephia,-4.0144508,5.4351428,node/6474137921
0,,BICICI,-4.0125419,5.4364247,node/6474137923
0,,Cours Sociaux,-4.0147435,5.4382745,node/6474137925
0,,Avenue Kaza,-4.019424,5.4381179,node/6474137927
0,,Camp Commando,-4.0202491,5.4355472,node/6474137929
0,,Station Shell,-4.0200922,5.4306474,node/6474137931
0,,Abobo Gendarmerie,-4.0198488,5.4263959,node/6474137932
0,,Abobo Gendarmerie,-4.0187446,5.4234101,node/6474137934
0,,2ème Arrêt,-4.0166455,5.4171616,node/6474137936
0,,Banco,-4.015971,5.4131456,node/6474137938
0,,Anador,-4.0160152,5.4089746,node/6474137940
0,,Université Nangui Abrogoua,-4.0207427,5.392647,node/6474137942
0,,Macaci,-4.0255918,5.3774907,node/6474137944
0,,Gare Nord,-4.027655,5.3592442,node/6474137946
0,,Gare Nord,-4.0274455,5.3591608,node/6474137948
0,,Grande Mosquée Adjamé,-4.0257671,5.3533564,node/6474137950
0,,Foire de Chine,-4.0256668,5.347769,node/6474137952
0,,Mairie d'Adjamé,-4.0259753,5.3431984,node/6474137954
0,,Cité Administrative,-4.0238205,5.3312372,node/6474137956
0,,Immeuble Sogefiha,-4.0238801,5.3278045,node/6474137958
0,,Gare Sud,-4.0181049,5.3145043,node/6474137967
0,,Présidence,-4.019718,5.3179651,node/6474137979
0,,Galerie du Parc,-4.0197472,5.3225013,node/6474137980
0,,Camp Galliéni,-4.0247204,5.3339569,node/6474137981
0,,Institut National de la Santé Publique,-4.026107,5.3386571,node/6474137982
0,,Mairie d'Adjamé,-4.0260496,5.343713,node/6474137983
0,,Marché Forum,-4.0258452,5.3459921,node/6474137984
0,,Pharmacie du Banco,-4.0255664,5.3503682,node/6474138985
0,,Grande Mosquée Adjamé,-4.0259071,5.3534527,node/6474138986
0,,Gare Nord,-4.028099,5.3586829,node/6474138987
0,,Macaci,-4.0263861,5.3765774,node/6474138988
0,,Filtisac,-4.021035,5.3906844,node/6474138989
0,,Anador,-4.0162969,5.4085961,node/6474138990
0,,Banco,-4.0162419,5.4135848,node/6474138991
0,,Saint-Joseph 2ème Arrêt,-4.0173344,5.4183764,node/6474138992
0,,Abobo Gendarmerie,-4.0190818,5.4237125,node/6474138993
0,,Bar Ivoire Abobo,-4.020231,5.4315506,node/6474138994
0,,DGI Abobo,-4.0203886,5.4363436,node/6474138995
0,,Avenue Kaza,-4.0189201,5.4382274,node/6474138996
0,,Carrefour Akeïkoi,-4.0138587,5.4383936,node/6474138997
0,,Terminus Gare Sud,-4.0190673,5.3149589,node/6474138999
0,,Cité Universitaire Abobo,-4.0127537,5.4350792,node/6474139031
0,,Quai 15,-4.0154322,5.4354761,node/6474139033
0,,Station Shell Riviera 3,-3.9641507,5.3580852,node/6815808830
0,,Carrefour Palmeraie,-3.9591336,5.3620442,node/6815808831
0,,CNPS 9ème Tranche,-3.9744202,5.3865761,node/6815808833
0,,Marché COCOVICO,-3.9780418,5.4010646,node/6815808834
0,,Quick Market,-3.9618125,5.3738506,node/6815808839
0,,Quick Market,-3.9618581,5.3737728,node/6815808840
0,,Commissariat 35è Art.,-3.9635563,5.3776142,node/6815808842
0,,CNPS 9ème Tranche,-3.9745308,5.3866021,node/6815808843
0,,Marché COCOVICO,-3.9781939,5.4010482,node/6815808844
0,,Pharmacie du bonheur,-3.9587098,5.3698807,node/6815808845
0,,Groupe Scolaire St Marc,-3.9725319,5.383206,node/6815808846
0,,Camp Commando de Koumassi,-3.9692172,5.282599,node/6819328985
0,,Grand Carrefour de Koumassi,-3.9707407,5.2892136,node/6819329085
0,,Hôtel Ibis Marcory,-3.9741109,5.2921087,node/6819329086
0,,Hôtel Ibis Marcory,-3.973691,5.2916293,node/6819329185
0,,Chimtec Grand carrefour Marcory,-3.9897184,5.3008419,node/6819329285
0,,Ambassade des USA,-3.9767155,5.335819,node/6820855646
0,,Hotel du Golf,-3.9728877,5.3309825,node/6820855647
0,,Hotel du Golf,-3.9730064,5.3310297,node/6820855648
0,,Ex Terminus Sotra;Carrefour Sol Beni,-3.9579229,5.3312498,node/6820855649
0,,Cathédrale Saint paul,-4.021605,5.332764,node/6831076677
0,,Église Méthodiste Unie de Côte d'Ivoire,-4.0205671,5.3299678,node/6831076678
0,,Gare Sud,-4.0185085,5.3148704,node/6831076682
0,,Cap Sud,-3.9867521,5.2988832,node/6832290086
0,,Gare de Bassam,-4.0022393,5.2996481,node/6899034705
0,,Gendarmerie,-3.9997862,5.3004143,node/6899034706
0,,Notre-dame,-4.0037983,5.303315,node/6899034707
0,,Pharmacie Nanan Yamousso,-4.005186,5.3072484,node/6899034708
0,,Après le Pont,-4.0061407,5.3099574,node/6899034709
0,,Adjamé Liberté,-4.0160603,5.3534116,node/6899034710
0,,Adjamé Liberté,-4.014858,5.3534437,node/6899053345
0,,Gare de Bingerville,-4.0120307,5.3535364,node/6899053346
0,,Feux du plateau,-4.0152949,5.325075,node/6899053347
0,,Nanan Yamousso,-4.0061218,5.3101491,node/6899053348
0,,Gare de Bassam,-4.0024275,5.2996797,node/6899053349
0,,Abobo Gare Mairie,-4.0174383,5.4200067,node/6899241573
0,,Mobil,-4.0159818,5.4143755,node/6899241574
0,,Lavage,-4.0215029,5.3846161,node/6899241575
0,,Macaci,-4.0257575,5.37725,node/6899241576
0,,Adjamé Liberté,-4.0164004,5.3543459,node/6899241577
0,,Marché Gouro,-4.0212174,5.349107,node/6899264970
0,,Adjamé Liberté,-4.0163905,5.3547097,node/6899264971
0,,Station Total,-4.016791,5.358734,node/6899264972
0,,Abobo Gare Mairie,-4.0171184,5.4215493,node/6899264973
0,,Carrefour Marché,-4.0153363,5.4195759,node/6902638988
0,,Petro Ivoire,-4.0135168,5.4186048,node/6902638989
0,,Au Bar,-4.0101975,5.4168519,node/6902638990
0,,Petit Carrefour,-4.0080786,5.4157998,node/6902638991
0,,Samaké,-4.0067032,5.4152338,node/6902638992
0,,Azur,-4.0064894,5.3994804,node/6902638993
0,,Panneau ZOO,-4.0070352,5.3780522,node/6902638994
0,,Abobo Gare Mairie,-4.0157753,5.4197843,node/6902638995
0,,Ciné Cool,-4.0117095,5.4176548,node/6902638996
0,,Boulangerie Samake,-4.0062697,5.4144283,node/6902638997
0,,Menuiserie,-4.0062877,5.410863,node/6902638998
0,,Tchapatcha,-4.0063067,5.4101067,node/6902638999
0,,Chaîne Avion,-4.0063409,5.4092677,node/6902639000
0,,Pharmacie Dokui,-4.0063993,5.4051188,node/6902639001
0,,SODECI,-4.0064176,5.4036347,node/6902639002
0,,Étage Noir,-4.0064567,5.4020967,node/6902639003
0,,Mobil,-4.0064867,5.4001879,node/6902639004
0,,Arrêt Dokui,-4.006353,5.3968179,node/6902639005
0,,Ancien Feu,-4.005793,5.3929293,node/6902639006
0,,Bangui,-4.005732,5.3872276,node/6902639007
0,,Vidange,-4.0060126,5.3851864,node/6902639008
0,,HMA,-4.0063262,5.382931,node/6902639009
0,,Carrefour paillet,-4.0118134,5.3721147,node/6902639010
0,,Carrefour 2 Plateaux,-4.0157876,5.3653117,node/6902639011
0,,Gare des gbakas d’Abobo par le zoo,-4.0160705,5.3553627,node/6902639012
0,,Petro Ivoire,-4.0136214,5.4184847,node/6902868224
0,,Ciné Cool,-4.0120067,5.4176463,node/6902868225
0,,Au Bar,-4.0102981,5.4167077,node/6902868226
0,,Pharmacie Dokui,-4.0065403,5.4051935,node/6902868227
0,,SODECI,-4.0065873,5.4036701,node/6902868228
0,,Étage Noir,-4.0066315,5.40212,node/6902868229
0,,Mobil,-4.0066597,5.4002027,node/6902868230
0,,Azur,-4.0066034,5.3994577,node/6902868231
0,,Arrêt Dokui,-4.0064518,5.3965911,node/6902868232
0,,Ancien Feu,-4.0059301,5.3928327,node/6902868233
0,,Bangui,-4.005859,5.387253,node/6902868234
0,,Vidange,-4.0060952,5.3853034,node/6902868235
0,,HMA,-4.0064118,5.382907,node/6902868236
0,,Carrefour paillet,-4.0122239,5.3716859,node/6902868237
0,,Carrefour 2 Plateaux,-4.0159576,5.365405,node/6902868238
0,,Willy Agban,-4.0168128,5.3633371,node/6902868239
0,,Cimetière,-4.0152077,5.3668297,node/6902868240
0,,CIE,-4.0094557,5.3765337,node/6902868241
0,,ZOO,-4.0070149,5.3789939,node/6902868242
0,,Eglise,-4.0056173,5.3900553,node/6902868243
0,,Pharmacie Racines,-4.0099567,5.41329,node/6902868244
0,,Abobo Gare Mairie,-4.0160257,5.4197639,node/6902868245
0,,Christine Bar,-4.0135154,5.4500232,node/6902975747
0,,Terminus Akéikoi Village,-4.0109926,5.4607326,node/6902975748
0,,À l'École,-4.0107733,5.45899,node/6902975749
0,,Destin,-4.0112928,5.455207,node/6902975750
0,,Monnaie,-4.0119566,5.4542173,node/6902975751
0,,André Bar,-4.0128592,5.4528753,node/6902975752
0,,Carrefour Marché,-4.0133357,5.4510493,node/6902975753
0,,A l'étage,-4.0143571,5.446249,node/6902975754
0,,Boulangerie,-4.0141843,5.4394513,node/6902975755
0,,Carrefour Akéikoi,-4.0140378,5.4384053,node/6902975756
0,,Gare Gbaka Akeïkoi,-4.0161726,5.4225885,node/6902975757
0,,Carrefour Marché,-4.0134484,5.4510779,node/6903084141
0,,André Bar,-4.0129173,5.4530404,node/6903084142
0,,Monnaie,-4.0120751,5.4542793,node/6903084143
0,,Au goudron,-4.0142825,5.438503,node/6903097494
0,,Abobo Gare,-4.0160694,5.4227551,node/6903097495
0,,Au tournant,-4.013945,5.4230451,node/6903097496
0,,Lycée Moderne Abobo 1 & 2,-4.0146415,5.4278809,node/6903097497
0,,Célibataire,-4.0124107,5.433455,node/6903097498
0,,JAUG,-4.0124925,5.4352003,node/6903097499
0,,Cité,-4.0135883,5.4383233,node/6903097500
0,,Boulangerie,-4.0138345,5.449017,node/6903097501
0,,Christine Bar,-4.0136722,5.4500084,node/6903097502
0,,Destin,-4.01134,5.4552984,node/6903097503
0,,À l'École,-4.0109968,5.4594779,node/6903097504
0,,Terminus Akéikoi Village,-4.0111868,5.460775,node/6903097505
0,,Mosquée,-4.0144891,5.4429021,node/6903193216
0,,A l'étage,-4.0144891,5.4463091,node/6903193217
0,,Abobo Gare Mairie,-4.0165181,5.42194,node/6903268819
0,,Gare Abobo Kennedy-Marché/ Mosquée Ado,-4.0163197,5.4223082,node/6903268820
0,,Station,-4.0100057,5.4211585,node/6903268821
0,,Kennedy Marché,-4.0015221,5.4236887,node/6903268822
0,,Mosquée,-4.011662,5.4220774,node/6903296476
0,,Carrefour Kennedy,-4.0059623,5.4186997,node/6903296477
0,,Carrefour Kennedy,-4.0058919,5.418665,node/6903296478
0,,Makan Traoré,-4.0039433,5.4211643,node/6903296479
0,,Au marché,-4.0015453,5.4236156,node/6903296480
0,,A Gauche,-4.0021714,5.423623,node/6903296481
0,,Makan Traoré,-4.0037249,5.4214359,node/6903296482
0,,Cocody Riviera M'badon,-3.9324706,5.3286546,node/6903347574
0,,Nouveau marché,-3.9332267,5.3293417,node/6903347575
0,,Ancien marché,-3.9339946,5.329969,node/6903347576
0,,Centre de santé Municipal de M'Badon,-3.9350317,5.3307517,node/6903347577
0,,La ferme,-3.9352626,5.331008,node/6903347578
0,,Pharmacie,-3.9393933,5.3353839,node/6903347579
0,,2 poteaux,-3.9427407,5.3384154,node/6903347580
0,,Antenne,-3.945032,5.339948,node/6903347581
0,,Carrefour Akouédo,-3.9457017,5.345935,node/6903347582
0,,École,-3.9471733,5.3461517,node/6903347583
0,,2ème rond-point,-3.9505483,5.3458217,node/6903347584
0,,Gare en haut,-4.0227501,5.3503568,node/6903370485
0,,Station,-4.0100339,5.4210882,node/6903374200
0,,Immeuble Cercueil,-4.00729,5.4196516,node/6903374201
0,,Immeuble Cercueil,-4.0074087,5.4195942,node/6903374202
0,,Terminus mosquée Ado Kenedy,-3.9978515,5.4234508,node/6903397403
0,,À l'École,-3.9978489,5.4215774,node/6903397404
0,,[Arret sans nom],-3.9979409,5.4198617,node/6903397405
0,,Dahico,-3.9980283,5.4185867,node/6903397406
0,,Étage Noir,-3.9992242,5.4157689,node/6903397407
0,,Samaké,-4.0059533,5.415578,node/6903406997
0,,Eglise,-4.0037563,5.4156012,node/6903406998
0,,Eglise,-4.0037625,5.4155167,node/6903504058
0,,Monastère,-4.0007112,5.4155583,node/6903504059
0,,Monastère,-4.0008035,5.4154526,node/6903504060
0,,Étage Noir,-3.999403,5.4157731,node/6903504061
0,,Dahico,-3.9981732,5.4185995,node/6903504062
0,,Hôtel du centre,-4.0272132,5.4339087,node/6903525051
0,,A la Pompe,-4.0337387,5.437375,node/6903525052
0,,Dépôt,-4.0360617,5.4377181,node/6903525053
0,,Anokoi,-4.0444772,5.4390697,node/6903525054
0,,Anokoi,-4.0444823,5.439303,node/6903525055
0,,Marahoué,-4.0479148,5.4422211,node/6903525056
0,,Agripac,-4.0487972,5.4439581,node/6903525057
0,,Terminus,-4.0509604,5.447775,node/6903525058
0,,Terminus,-4.0508555,5.4479797,node/6903525059
0,,Agripac,-4.0489498,5.4446545,node/6903525060
0,,Marahoué,-4.0477433,5.4425017,node/6903525061
0,,Dépôt,-4.0360937,5.4379717,node/6903525062
0,,A la Pompe,-4.033852,5.4376377,node/6903525063
0,,Marché de Nuit,-4.030245,5.4367133,node/6903525064
0,,Hôtel du centre,-4.026894,5.4340417,node/6903525065
0,,Abobo Gare,-4.018191,5.4217034,node/6903525066
0,,Complexe,-4.0206447,5.3489387,node/6903535584
0,,Gare en haut,-4.0224464,5.350348,node/6903544086
0,,Maternité,-4.0180948,5.3481387,node/6903544087
0,,Adjamé Liberté,-4.014163,5.3521055,node/6903544088
0,,2ème pont,-4.0029137,5.3547793,node/6903544089
0,,Marché,-3.9339759,5.3301187,node/6903544090
0,,Abobo Gendarmerie,-4.0203577,5.4263231,node/6903602207
0,,Mosquée Blanche,-4.0233336,5.4298704,node/6903602208
0,,Solibra,-4.0262471,5.4332219,node/6903602209
0,,Château,-4.0288774,5.4359152,node/6903602210
0,,A l'escalier,-4.0383071,5.4383388,node/6903602211
0,,PK 18 ancien marché,-4.0521369,5.4497913,node/6903602212
0,,Abobo Gare,-4.0184916,5.4220421,node/6903602213
0,,Abobo Gendarmerie,-4.0204342,5.4260466,node/6903602214
0,,Gendarmerie Avant le Feu,-4.0208376,5.426524,node/6903602215
0,,Mosquée Blanche,-4.0236152,5.4297276,node/6903602216
0,,Solibra,-4.0264367,5.4330817,node/6903602217
0,,Château,-4.0290698,5.4357519,node/6903602218
0,,Marché de Nuit,-4.0306363,5.4365893,node/6903602219
0,,A l'escalier,-4.0384581,5.4380495,node/6903602220
0,,Nouvelle Gare,-4.0411411,5.4382834,node/6903602221
0,,Agripac Avant le Feu,-4.0493193,5.4448006,node/6903602222
0,,Station Total,-4.0520966,5.4493883,node/6903602223
0,,PK 18 ancien marché,-4.052542,5.4499639,node/6903602224
0,,Attoban camp,-3.9761316,5.370557,node/6903639366
0,,Escalier,-3.9776678,5.3694267,node/6903639367
0,,Pharmacie Saint Bernard,-3.9794185,5.3673899,node/6903639368
0,,Carrefour Garage,-3.9793174,5.3658448,node/6903639369
0,,Polyclinique Sacré-Coeur,-3.9792552,5.365069,node/6903639370
0,,Jules ferry,-3.9790994,5.3642087,node/6903639371
0,,Hôtel Manhatan,-3.9788028,5.362115,node/6903639372
0,,Doraville,-3.978316,5.3589924,node/6903639373
0,,Pharmacie Saint ange,-3.9780678,5.3571667,node/6903639374
0,,André Malraux,-3.9777617,5.356275,node/6903639375
0,,Gare en haut,-4.0228251,5.3505392,node/6903639376
0,,Pharmacie Saint Bernard,-3.9796695,5.3672689,node/6903968407
0,,Carrefour Garage,-3.9794498,5.3655779,node/6903968408
0,,Attécoubé Terminus 04,-4.0345833,5.343795,node/6904171063
0,,[Arret sans nom],-4.0345467,5.346448,node/6904171064
0,,Marché,-4.033957,5.3490624,node/6904171065
0,,Station Afriquia,-4.032333,5.3501257,node/6904171066
0,,Carrefour Attecoubé,-4.0328135,5.3524283,node/6904171067
0,,[Arret sans nom],-4.0309717,5.3574167,node/6904171068
0,,Pharmacie du Banco,-4.0254169,5.3513557,node/6904171070
0,,Adjamé Santé,-4.0261722,5.3412757,node/6904171071
0,,Institut National de la Santé Publique,-4.025807,5.3381159,node/6904171072
0,,Cité Administrative,-4.0230192,5.3318344,node/6904171073
0,,Cité financière Plateau,-4.0206008,5.3266073,node/6904171074
0,,SIB Alpha 2000,-4.0196512,5.3237991,node/6904171075
0,,Primature,-4.0196681,5.3206169,node/6904171076
0,,Résidence Cheick Yacouba Sylla,-4.0157481,5.3089287,node/6904171077
0,,Marché Treichville,-4.0142576,5.3094876,node/6904171078
0,,[Arret sans nom],-4.0099697,5.3109791,node/6904171079
0,,Biafra,-4.006092,5.3126563,node/6904171080
0,,Banque Atlantique,-3.9933399,5.3076251,node/6904171081
0,,Hôtel Hamanieh,-3.9888629,5.3052787,node/6904171082
0,,Sainte Thérèse,-3.9869873,5.3043423,node/6904171083
0,,Commissariat du 9 ème,-3.9858381,5.3064581,node/6904171084
0,,Gare Marcory,-3.9839517,5.3088083,node/6904188585
0,,Gare Nord,-4.0281877,5.3589119,node/6905326498
0,,Château,-4.0307925,5.4366266,node/6905326503
0,,Préfecture de Police,-4.0219308,5.3843543,node/6905344262
0,,Arrêt Centre Bus,-4.0351608,5.4375564,node/6905344263
0,,Terminus 45 À l'escalier,-4.0390169,5.4384645,node/6905344264
0,,Arrêt Centre Bus,-4.0351391,5.4378844,node/6905344265
0,,Château,-4.0299554,5.4365245,node/6905344266
0,,Arrêt,-4.0259685,5.4328931,node/6905344267
0,,Abobo Gendarmerie,-4.0222108,5.4284112,node/6905344268
0,,Préfecture de Police,-4.0219627,5.3836534,node/6905344273
0,,Abobo Gendarmerie,-4.0225102,5.4284566,node/6905553518
0,,[Arret sans nom],-4.0261674,5.4327155,node/6905553519
0,,Foire de Chine,-4.0256884,5.3485701,node/6905719605
0,,Église Méthodiste Unie de Côte d'Ivoire,-4.0206943,5.3299376,node/6905719606
0,,60 logements Plateau,-4.0201163,5.3251345,node/6905719607
0,,Hôpital du port,-4.0177138,5.3087867,node/6905719608
0,,Maison du Congres,-4.0148424,5.3097288,node/6905719609
0,,Pharmacie du Rond-point,-4.0116929,5.3073425,node/6905719610
0,,[Arret sans nom],-4.0069793,5.3090218,node/6905719611
0,,Nanan Yamousso,-4.005442,5.3080275,node/6905719612
0,,Paroisse Notre-Dame de Treichville,-4.0043543,5.3048828,node/6905719613
0,,Pharmacie de l'Entente,-4.0015648,5.3045623,node/6905719614
0,,Marché de Belleville,-3.998829,5.3055251,node/6905719615
0,,Banque Atlantique,-3.9931172,5.3075214,node/6905719616
0,,Hôtel Hamanieh,-3.9887868,5.3049722,node/6905719617
0,,Commissariat du 9éme,-3.986118,5.3055778,node/6905719618
0,,Station Shell,-3.9847286,5.308097,node/6905719619
0,,[Arret sans nom],-4.0284151,5.3584965,node/6905719620
0,,[Arret sans nom],-4.0304951,5.357702,node/6905719621
0,,Carrefour Attecoubé,-4.0321715,5.3515438,node/6905719622
0,,Banque Atlantique,-4.03386,5.3489601,node/6905719623
0,,Commissariat du 10ᵉ arrondissement,-4.0344246,5.3471108,node/6905719624
0,,Attécoubé Terminus 04,-4.0344802,5.3437946,node/6905719625
0,,Saint Paul,-4.0219475,5.3251603,node/6905772459
0,,Immeuble Sogephia Hévéa,-4.0239746,5.3282245,node/6905772460
0,,Musée du Plateau,-4.0245113,5.3337809,node/6905772461
0,,Cours Sociaux,-4.0160546,5.4383593,node/6905772466
0,,Gare Nord,-4.0275686,5.3590397,node/6905842305
0,,Long Champs,-4.0224693,5.3252327,node/6905842307
0,,Gare Koumassi,-3.9560075,5.293902,node/6906463287
0,,Pharmacie Ehilie,-3.9602508,5.2928524,node/6906463288
0,,Mosquée,-3.966735,5.2913568,node/6906463289
0,,Échangeur de Marcory,-3.980944,5.2956714,node/6906463290
0,,Grand carrefour Marcory,-3.98845,5.2998527,node/6906463291
0,,Collège Moderne Autoroute,-3.9976917,5.2998184,node/6906463292
0,,Gare de Bassam,-4.0026734,5.2999823,node/6906463293
0,,Ecobank,-4.003273,5.3018099,node/6906463294
0,,Adjamé Liberté,-4.0155251,5.3534012,node/6906463296
0,,BICICI,-4.0124238,5.4365892,node/6906507833
0,,Adjamé Liberté,-4.0164467,5.3546594,node/6906575629
0,,Williams-Ville,-4.0169033,5.3631417,node/6906575630
0,,Carrefour 2 Plateaux,-4.0157829,5.3658197,node/6906575631
0,,[Arret sans nom],-4.0156117,5.3662557,node/6906575632
0,,Paillet,-4.0122293,5.3716139,node/6906575633
0,,[Arret sans nom],-4.0112578,5.374069,node/6906575634
0,,[Arret sans nom],-4.005605,5.3898833,node/6906575635
0,,[Arret sans nom],-4.0065311,5.4045622,node/6906575636
0,,[Arret sans nom],-4.0064187,5.4113412,node/6906575637
0,,ANADER,-4.0064133,5.4126483,node/6906575638
0,,Samaké,-4.0064263,5.4148754,node/6906590689
0,,Samaké,-4.0068417,5.41527,node/6906590691
0,,Chaîne Avion,-4.0063152,5.4101483,node/6906590692
0,,1ere Boutique,-4.0063867,5.4073533,node/6906590693
0,,Carrefour 2 Plateaux,-4.0155634,5.3659384,node/6906590694
0,,Adajmé Liberté,-4.0162927,5.3546002,node/6906590695
0,,Adjamé Liberté,-4.015528,5.35345,node/6906596960
0,,Nanan Yamousso,-4.0060884,5.3100359,node/6906596961
0,,Karwil,-4.0044435,5.3054677,node/6906596962
0,,Notre-dame,-4.0036369,5.3031308,node/6906596963
0,,Gare de Bassam,-4.0026404,5.3003893,node/6906596964
0,,Collège Moderne Autoroute,-3.9983918,5.2998444,node/6906596965
0,,Cap Sud,-3.9859637,5.2987234,node/6906596966
0,,Échangeur Marcory,-3.981013,5.2959351,node/6906596967
0,,Auto-école,-3.9675638,5.2912433,node/6906596968
0,,Arrêt,-3.964494,5.2919737,node/6906596969
0,,Boulangerie,-3.9610541,5.292783,node/6906596970
0,,ZOO,-4.0069936,5.3790616,node/6906699462
0,,1ere Boutique,-4.0065336,5.4074152,node/6906699463
0,,Paillet,-4.0116794,5.3723989,node/6906699464
0,,[Arret sans nom],-4.0054621,5.3898979,node/6906699465
0,,Arrêt Dokui,-4.0065122,5.3967647,node/6906699466
0,,Arrêt Dokui,-4.0063445,5.3968689,node/6906699467
0,,ANADER,-4.0062842,5.4121402,node/6906699468
0,,[Arret sans nom],-4.0106347,5.4169293,node/6906699469
0,,[Arret sans nom],-4.0106159,5.4170815,node/6906699470
0,,Abobo Mairie,-4.0159368,5.4197017,node/6906699471
0,,Abobo Mairie,-4.0156192,5.4197512,node/6906699472
0,,Gare Williamsville,-4.0235294,5.3675641,node/6907121506
0,,Mosquée,-4.0207037,5.3658243,node/6907121507
0,,Croix Bleue,-4.0189161,5.3643529,node/6907121508
0,,Agban avant le pont,-4.0160715,5.3576606,node/6907121509
0,,Pharmacie le Belier,-4.0169929,5.3501391,node/6907121510
0,,Indenié,-4.0230855,5.3417336,node/6907121511
0,,Mairie du Plateau,-4.018503,5.3220152,node/6907121512
0,,Institut Français,-4.0170059,5.3219502,node/6907121513
0,,CNPS,-4.0144649,5.3195012,node/6907121514
0,,Gare Marcory,-3.984068,5.3088742,node/6907121515
0,,RTI,-4.0033579,5.342209,node/6907141795
0,,Archibat,-4.0029046,5.3459837,node/6907141796
0,,Marché de Cocody,-4.0007897,5.3356901,node/6907141797
0,,Gare Blockauss,-4.0021679,5.3232894,node/6907141798
0,,Banque Mondiale,-4.0013589,5.3278237,node/6907141799
0,,Marché de Cocody,-4.0007635,5.3355267,node/6907141800
0,,CIE,-4.0038072,5.3384172,node/6907141801
0,,Palm Club,-4.0021657,5.351632,node/6907141802
0,,Gare Nord,-4.0274511,5.3587491,node/6907141803
0,,Texaco,-4.0180323,5.3543654,node/6907147644
0,,Pont lycée technique,-4.0101289,5.3478735,node/6907147645
0,,SODEMI,-4.0038018,5.3442806,node/6907147646
0,,SGBCI,-4.0033259,5.3404792,node/6907147647
0,,Marché de Cocody,-3.9999757,5.336444,node/6907147648
0,,PMI,-4.0003179,5.3334363,node/6907147649
0,,Banque Mondiale,-4.00118,5.3280617,node/6907147650
0,,Gare Blockauss,-4.0020444,5.323287,node/6907147651
0,,Boulangerie Top baquette,-4.0168481,5.3528511,node/6907154300
0,,220 logements,-4.017115,5.3472669,node/6907154301
0,,Gare Nord,-4.0273707,5.3589598,node/6907157792
0,,Renault,-4.0213836,5.3559786,node/6907157793
0,,Adjamé Liberté,-4.0158064,5.3534802,node/6907157794
0,,CERAP - INADES,-4.000587,5.339615,node/6907157795
0,,Gare Campus Cocody,-3.9946557,5.3464621,node/6908599212
0,,ISTC,-4.0013186,5.343718,node/6908599213
0,,Quai 49,-4.0153091,5.4354972,node/6908599215
0,,INSAAC,-3.9968976,5.3456864,node/6908618074
0,,EPV Konaté,-4.016795,5.427395,node/6908618077
0,,Lycée Moderne d'Abobo,-4.0146633,5.4286537,node/6908618078
0,,[Arret sans nom],-4.012329,5.4339703,node/6908728765
0,,[Arret sans nom],-4.013431,5.432656,node/6908728766
0,,[Arret sans nom],-4.0162121,5.4273213,node/6908728767
0,,ISTC,-4.0008199,5.343821,node/6908728771
0,,Gare Campus Cocody,-3.9937238,5.3462119,node/6908728772
0,,[Arret sans nom],-4.0147361,5.43182,node/6908782549
0,,[Arret sans nom],-4.014638,5.429723,node/6908782550
0,,Cité des Arts,-3.9978676,5.3450487,node/6908782552
0,,université méthodiste de Côte D'Ivoire,-3.993895,5.3466283,node/6908782553
0,,[Arret sans nom],-4.0160582,5.357415,node/6908914485
0,,Cours socio éducatif,-4.0171632,5.3491257,node/6908914486
0,,Piscine d’État de Treichville,-3.9996571,5.3082112,node/6908914487
0,,Gare Marcory,-3.9839441,5.3090397,node/6908914488
0,,Boulangerie Top Qualité,-4.0161239,5.3555536,node/6908914489
0,,Liberté,-4.0170747,5.3513262,node/6908914490
0,,Pharmacie le Belier,-4.0170975,5.3503722,node/6908914491
0,,Indenié,-4.0230188,5.3418097,node/6908914492
0,,Banque SIB,-4.025647,5.3421743,node/6908914493
0,,Bicici plateau,-4.0183783,5.321186,node/6908914494
0,,Pyramide,-4.0167837,5.321624,node/6908914495
0,,Siège Moov,-4.0145266,5.3184312,node/6908914496
0,,Croix Bleue,-4.0188664,5.3641726,node/6908914498
0,,Infirmerie Sinikeya,-4.0202826,5.3653249,node/6908914499
0,,Gare Williamsville,-4.0235066,5.3670874,node/6908914500
0,,Petro Ivoire,-4.0318263,5.3589877,node/6909039462
0,,Pharmacie Sainte Marie,-4.0257324,5.3468603,node/6909039464
0,,Cité Policière,-4.0159526,5.3080247,node/6909039468
0,,CHU,-4.0046789,5.2958623,node/6909039469
0,,PTT Km4,-3.9984496,5.2927793,node/6909039470
0,,Pharmacie Santé Publique,-3.9957435,5.2914467,node/6909039471
0,,Terminus Cité Fairmont,-4.0375583,5.3585383,node/6909108442
0,,arrêt,-4.0149536,5.305135,node/6909108450
0,,Services Techniques du District,-3.9902017,5.29123,node/6909108451
0,,Gare Marcory,-3.9840127,5.3088407,node/6909121487
0,,Parc des Sports,-4.0074831,5.2971256,node/6909208699
0,,"SIYOA, Boulevard de Marseille",-3.990781,5.2895393,node/6909208700
0,,[Arret sans nom],-4.0724972,5.36188,node/6909225529
0,,[Arret sans nom],-4.0745652,5.3647534,node/6909225530
0,,[Arret sans nom],-4.0961792,5.3727101,node/6909225533
0,,[Arret sans nom],-4.0895635,5.3742257,node/6909225534
0,,Nestlé,-4.0867558,5.372722,node/6909225535
0,,Arrêt,-4.0781781,5.3745633,node/6909225536
0,,[Arret sans nom],-4.0796923,5.3703887,node/6909225537
0,,[Arret sans nom],-4.0786743,5.3683786,node/6909225538
0,,Direction de la Sotra,-4.0761986,5.3670367,node/6909225539
0,,[Arret sans nom],-4.0736157,5.3628133,node/6909225540
0,,[Arret sans nom],-4.0702482,5.3612471,node/6909225541
0,,Lycée Moderne Yopougon Andokoi,-4.0678704,5.3623019,node/6909225542
0,,Centre Ivoire Couture,-4.0667894,5.3615148,node/6909225543
0,,Gare Nord,-4.0278578,5.3585831,node/6909225544
0,,Gare Sud,-4.0183049,5.3146893,node/6909225545
0,,CHU Treichville,-4.0033954,5.2948194,node/6909237619
0,,Délices de France,-3.9881326,5.301827,node/6909237622
0,,Services Techniques du District,-3.9900511,5.2913004,node/6909237623
0,,PTT Km4,-3.9994307,5.2931333,node/6909237624
0,,Quincaillerie Générale,-4.0141223,5.3023437,node/6909237625
0,,Arrêt,-4.0150089,5.3049356,node/6909237626
0,,Cité Policière,-4.0161832,5.308109,node/6909237627
0,,Gare Nord,-4.0279602,5.3591167,node/6909237631
0,,Station Petro Ivoire,-4.0319963,5.358876,node/6909237632
0,,Terminus 02 Cité Fairmont,-4.0364602,5.3582206,node/6909237633
0,,[Arret sans nom],-4.094158,5.3765208,node/6909430718
0,,Gare CTE,-4.0668847,5.3618706,node/6909430720
0,,Lycée Moderne Yopougon Andokoi,-4.0678369,5.3621938,node/6909430721
0,,Station Total,-4.0710622,5.3607938,node/6909430722
0,,[Arret sans nom],-4.0736572,5.362382,node/6909430723
0,,[Arret sans nom],-4.0742996,5.365409,node/6909430724
0,,Direction de la Sotra,-4.0764347,5.36707,node/6909430725
0,,[Arret sans nom],-4.0788862,5.3683719,node/6909430726
0,,Station,-4.080222,5.3690582,node/6909430727
0,,[Arret sans nom],-4.0819788,5.3699698,node/6909430728
0,,JOMACO,-4.0896792,5.3741086,node/6909430729
0,,Dépôt Yopougon zone Industrielle,-4.0958456,5.3741528,node/6909430730
0,,Hôpital Municipal,-3.9848298,5.2645534,node/6909521603
0,,Groupe Scolaire N'Sikan,-3.9834323,5.2632614,node/6909521604
0,,CIE,-3.9849267,5.257665,node/6909521605
0,,arrêt,-3.9956283,5.2558751,node/6909521606
0,,Gestoci,-3.9989162,5.26373,node/6909521607
0,,Pont de Vridi,-4.0062621,5.2704314,node/6909521608
0,,"Etablissements Rey, Port",-4.0143099,5.2978357,node/6909521609
0,,Sicodis,-4.0175241,5.3005436,node/6909521610
0,,Terminus 32,-4.0231458,5.305037,node/6909521611
0,,Grand Moulin Abidjan,-4.0211629,5.3069377,node/6909521612
0,,Hôpital du Pont,-4.0179278,5.3088247,node/6909521613
0,,"Avenue 11, Rue 12, Treichville",-4.0117363,5.305655,node/6909521614
0,,"Avenue 15, Rue 12, Treichville",-4.0111588,5.3039938,node/6909521615
0,,Paroisse Notre Dame,-4.0034158,5.3040254,node/6909521616
0,,Marché Belleville,-3.9987874,5.3056574,node/6909521617
0,,Gare Marcory,-3.9838718,5.3087649,node/6909521620
0,,Vridi Cité - Terminus 53,-3.9871428,5.266603,node/6909546905
0,,Pharmacie Vridi Port,-3.9818252,5.259526,node/6909546906
0,,Stade de la SIR,-3.9892306,5.2571616,node/6909546907
0,,Vridi-Iran,-3.9978983,5.2588247,node/6909546908
0,,"CPMA, Vridi",-4.0031425,5.2676512,node/6909546909
0,,PALM-CI,-4.0085496,5.277976,node/6909546910
0,,Bolloré,-4.0084685,5.2821643,node/6909546911
0,,Siège SOTRA,-4.008455,5.2864977,node/6909546912
0,,Arrêt,-4.008424,5.292271,node/6909546913
0,,Ciment Bélier,-4.0131528,5.296841,node/6909546914
0,,Port Autonome Abidjan,-4.0212547,5.3029759,node/6909546915
0,,Maison du Congres,-4.0149741,5.309804,node/6909546916
0,,Collège Bosco,-4.0050815,5.3059215,node/6909546917
0,,Niangon Sud à droite,-4.1045,5.3226268,node/6909707221
0,,Carrefour Académie,-4.1057378,5.3233679,node/6909707223
0,,Caféier,-4.1059349,5.325714,node/6909707224
0,,Lubafrique,-4.1037691,5.3310513,node/6909707225
0,,2ème arrêt ANADOR,-4.1029765,5.3338915,node/6909707226
0,,Carrefour Anador,-4.1014047,5.3358784,node/6909707227
0,,Pharmacie Cité Maroc,-4.1004632,5.3404237,node/6909707228
0,,CIE,-4.0892462,5.3407014,node/6909707229
0,,[Arret sans nom],-4.0892456,5.3450164,node/6909707230
0,,Grand Centre,-4.0875008,5.3481316,node/6909707231
0,,Port-Bouët II,-4.0874934,5.3540742,node/6909707232
0,,[Arret sans nom],-4.0851103,5.3561104,node/6909707233
0,,BAE,-4.0850901,5.3604209,node/6909707234
0,,Gare Nord,-4.0277736,5.358951,node/6909707236
0,,Gare Sud,-4.0183735,5.3147518,node/6909707238
0,,Feu du Collège Bosco,-4.0049374,5.3058324,node/6909737821
0,,"Avenue 10, Rue 12, Treichville",-4.0120606,5.3062141,node/6909737822
0,,Grand Moulin Abidjan,-4.0211598,5.3067759,node/6909737824
0,,Siège Port Autonome Abidjan,-4.0217286,5.3033621,node/6909737825
0,,Port Autonome Abidjan,-4.0095509,5.2945614,node/6909737826
0,,Siège SOTRA,-4.0082981,5.2878677,node/6909737827
0,,Bolloré,-4.0083516,5.2820277,node/6909737828
0,,Movis,-4.00841,5.2787,node/6909737829
0,,Pont de Vridi,-4.0061063,5.2705271,node/6909737830
0,,Cité Administrative,-4.0239378,5.3309411,node/6909812227
0,,CHU de Yopougon,-4.0849641,5.3572641,node/6909812228
0,,[Arret sans nom],-4.0867444,5.3552565,node/6909812229
0,,Pharmacie Port-Bouët II,-4.0880983,5.3469666,node/6909812230
0,,[Arret sans nom],-4.0891591,5.3453455,node/6909812231
0,,Mosquée du Maroc,-4.0974297,5.3400138,node/6909812232
0,,Pharmacie Cité Maroc,-4.1003975,5.3401847,node/6909812233
0,,Carrefour Anador,-4.1013081,5.335861,node/6909812234
0,,Lubafrique,-4.1037999,5.3305692,node/6909812235
0,,[Arret sans nom],-4.1051263,5.3273952,node/6909812236
0,,Caféier,-4.1058531,5.32569,node/6909812237
0,,Niangon Sud à droite,-4.1045248,5.3226401,node/6909812238
0,,Siporex-Sicomex,-4.0739979,5.3568101,node/6909923471
0,,Siporex avant le feu,-4.0740046,5.3538004,node/6909923472
0,,William-Ponty,-4.0732898,5.3448074,node/6909923473
0,,Yopougon 16ème Advans,-4.0732871,5.3388868,node/6909923474
0,,Saguidiba,-4.0733247,5.3326109,node/6909923475
0,,Gare Yopougon Kouté,-4.0735526,5.3297734,node/6909923477
0,,Gare Campus Cocody,-3.9936456,5.3463096,node/6910224899
0,,Gare Yopougon Kouté,-4.0738578,5.3297134,node/6910224902
0,,Saguidiba,-4.0735191,5.3315587,node/6910224905
0,,Côte d'Ivoire-Telecom,-4.0734252,5.3344863,node/6910224906
0,,Yopougon 16ème Advans,-4.0734096,5.338834,node/6910224907
0,,Saint André lavage,-4.0734078,5.3418778,node/6910224908
0,,William-Ponty,-4.0734038,5.345666,node/6910224909
0,,Siporex après le feu,-4.0741883,5.3540928,node/6910224910
0,,Siporex-Sicomex,-4.0741772,5.3566819,node/6910224911
0,,CPMA-Vridi,-4.0031259,5.2678334,node/6910272309
0,,Vridi-Iran,-3.9977641,5.2588726,node/6910272310
0,,"SIR, Vridi",-3.9932473,5.2565075,node/6910272311
0,,CIE,-3.9854582,5.2577882,node/6910272312
0,,"Cité CIE, Vridi",-3.9824273,5.2582659,node/6910272313
0,,Temple des Vainqueurs,-3.9820028,5.2600531,node/6910272314
0,,Hôpital Municipal,-3.9850263,5.2644761,node/6910272315
0,,Terminus Cité Vridi,-3.9874196,5.2666602,node/6910272316
0,,Cité Administrative,-4.0228166,5.3313223,node/6910518025
0,,Abobo Gendarmerie,-4.0201529,5.4267852,node/6910584802
0,,Institut des aveugles,-4.0632851,5.350955,node/6910703473
0,,Bel Air,-4.0632758,5.3476916,node/6910703474
0,,Complexe sportif de Yopougon,-4.0622364,5.3418057,node/6910703475
0,,Nouveau quartier,-4.0622136,5.3380456,node/6910703476
0,,Clinique les Oliviers,-4.0621975,5.3333961,node/6910703477
0,,Terminus 85,-4.061462,5.3294751,node/6910743309
0,,Clinique les Oliviers,-4.0623826,5.333826,node/6910743310
0,,Nouveau quartier,-4.0623477,5.3375141,node/6910743311
0,,Bel Air,-4.0634635,5.3460439,node/6910743312
0,,Sable,-4.0660062,5.3556644,node/6910743313
0,,Institut des aveugles,-4.0634474,5.3513983,node/6910743314
0,,Ben,-4.0804794,5.3237979,node/6910755171
0,,Marejea,-4.0764964,5.3255979,node/6910755172
0,,Iris3,-4.0718266,5.3255738,node/6910755173
0,,Yopougon Sideci - Terminus 42,-4.0802502,5.3198733,node/6910755174
0,,Marché Kouté,-4.0667291,5.3242746,node/6910755176
0,,L'usine du camp,-4.0615042,5.3236042,node/6910755177
0,,Stenb,-4.0577316,5.3236336,node/6910755178
0,,Le petit soleil,-4.0535085,5.3222355,node/6910755179
0,,Yopougon Kowëit,-4.0507693,5.3222275,node/6910755180
0,,La faveur,-4.0464583,5.3222395,node/6910755181
0,,Pharmacie Chenain,-4.0439746,5.3198693,node/6910755182
0,,Iris 3,-4.0439826,5.3171339,node/6910755183
0,,Bon choix,-4.0440027,5.3137348,node/6910755184
0,,Santé Village,-4.0439558,5.3095505,node/6910794085
0,,Gare Abobo-Doumé,-4.0353389,5.3101983,node/6910794088
0,,Arrêt,-4.01971,5.4258812,node/6910797790
0,,Arrêt,-4.0128435,5.4182684,node/6910797791
0,,Arrêt,-4.0054353,5.4156089,node/6910797792
0,,Arrêt,-3.999584,5.4155902,node/6910797793
0,,Termunis 81/82,-3.9856156,5.4038607,node/6910797794
0,,BICICI,-3.9792073,5.4031254,node/6910797795
0,,Arrêt,-3.9780821,5.4011881,node/6910797796
0,,Arrêt,-3.9776878,5.3988302,node/6910797797
0,,Arrêt,-3.977036,5.3963428,node/6910797798
0,,Arrêt,-3.9761992,5.3932466,node/6910797799
0,,Arrêt,-3.971504,5.3946558,node/6910797800
0,,Cité Diaspora,-3.9649835,5.4000986,node/6910797801
0,,SOCIAM,-3.9621642,5.4025338,node/6910797802
0,,SOCIAM,-3.9620463,5.4022965,node/6910797803
0,,CHU Angré,-3.9570893,5.399963,node/6910797804
0,,Arrêt,-4.0022783,5.4154527,node/6910797805
0,,CHU Angré,-3.9570173,5.3997812,node/6910797806
0,,Arrêt,-3.9592423,5.4003923,node/6910797807
0,,Arrêt,-3.960527,5.4011774,node/6910797808
0,,Arrêt,-3.9657399,5.3991713,node/6910797809
0,,Arrêt,-3.9689626,5.3964463,node/6910797810
0,,Arrêt,-3.9736088,5.3933681,node/6910797811
0,,Arrêt,-3.9754415,5.3929368,node/6910797812
0,,Arrêt,-3.9769683,5.3954823,node/6910797813
0,,Arrêt,-3.9772754,5.3963101,node/6910797814
0,,Arrêt,-3.9781552,5.4003569,node/6910797815
0,,Arrêt,-3.978471,5.4022415,node/6910797816
0,,BICICI,-3.9794534,5.4029505,node/6910797817
0,,Arrêt,-3.9898295,5.4042516,node/6910797818
0,,Saint Ambroise,-3.9911934,5.4070126,node/6910797819
0,,Arrêt,-3.9941237,5.4103992,node/6910797820
0,,Arrêt,-3.9953287,5.4136035,node/6910797821
0,,Lycée Classique d'Abidjan,-4.0043772,5.3317315,node/6912410269
0,,Hôtel Ivoire,-4.0047695,5.3286968,node/6912410270
0,,Hôtel Ivoire,-4.0029871,5.3278806,node/6912410271
0,,Hôtel Ivoire,-4.0032565,5.3277329,node/6912410272
0,,Lycée Classique d'Abidjan,-4.0045047,5.3327049,node/6912410273
0,,SODEMI,-4.0037108,5.3439798,node/6912410274
0,,Pont lycée technique,-4.0095505,5.3477876,node/6912410275
0,,Carrefour Express,-4.0751626,5.3290976,node/6912654329
0,,BMW,-4.0012691,5.3581253,node/6912729876
0,,SOCITECH,-3.998725,5.3601195,node/6912729877
0,,Macaci,-3.9976354,5.3648148,node/6912729878
0,,Mobil 2 Plateaux,-3.9983993,5.367356,node/6912729879
0,,Sococé 2 Plateaux,-3.9984268,5.3718047,node/6912729880
0,,BOA,-3.9985198,5.3745478,node/6912729881
0,,Snedai,-3.9985338,5.3755833,node/6912729882
0,,Carrefour Duncan,-3.9976312,5.3776569,node/6912729883
0,,Las Palmas,-3.9943103,5.3809527,node/6912729884
0,,Pharmacie du Marché,-4.0792393,5.3388207,node/6912805206
0,,[Arret sans nom],-4.0765581,5.3373258,node/6912805207
0,,Patisserie,-4.0752894,5.3384061,node/6912805208
0,,Ex Chaine Avion Rue Princesse,-4.0652525,5.3467623,node/6912805209
0,,Camp FRCI,-4.0599974,5.3408189,node/6912805210
0,,Carrefour Marché,-4.0572368,5.3398655,node/6912805211
0,,Carrefour Lama Fofana,-4.0549944,5.3373205,node/6912805212
0,,Banque Atlantique,-4.0550186,5.3337105,node/6912805213
0,,Offoumou Yapo,-4.0520655,5.3316575,node/6912805214
0,,Tizra,-4.0497521,5.3293394,node/6912805215
0,,[Arret sans nom],-4.0494691,5.3264792,node/6912805216
0,,Arrêt,-4.0494999,5.3247299,node/6912805217
0,,Gare Abobo-Doumé,-4.0354465,5.3104606,node/6912805219
0,,Carrefour Opéra,-3.9932407,5.3847656,node/6912820385
0,,Mahikari,-3.9927523,5.3888111,node/6912820386
0,,Ambassade de Chine,-3.992269,5.3926338,node/6912820387
0,,Les Oscars,-3.9921141,5.3942154,node/6912820388
0,,BHCI,-3.9918337,5.3963811,node/6912820389
0,,Shawarma House,-3.9913523,5.4005116,node/6912820390
0,,Petro Ivoire Angré,-3.9909124,5.4038172,node/6912820391
0,,Notre Dame,-3.9882535,5.4042033,node/6912820392
0,,FIRDA,-3.9819806,5.4034748,node/6912820393
0,,"Ancien Terminus 90, Les Arcades",-3.9765606,5.4033098,node/6912820394
0,,Soleil 2,-3.9728354,5.4006902,node/6912820395
0,,Clinique Médicale Sainte Justine,-3.9694727,5.3971939,node/6912820396
0,,Cité Diaspora,-3.9648829,5.3998522,node/6912820397
0,,Clinique Médicale Sainte Justine,-3.9697282,5.3972237,node/6912820398
0,,"Ancien Terminus 90, Les Arcades",-3.9764213,5.4031598,node/6912820399
0,,FIRDA,-3.9820585,5.4033208,node/6912820400
0,,Termunis 81/82,-3.9856793,5.4037772,node/6912820401
0,,Notre Dame,-3.9887434,5.4041375,node/6912820402
0,,Petro Ivoire Angré,-3.9906882,5.4037567,node/6912820403
0,,Carrefour 22è,-3.9911377,5.4002961,node/6912820404
0,,BHCI,-3.9915941,5.3965825,node/6912820405
0,,Ambassade de Chine,-3.9920829,5.3926201,node/6912820406
0,,Mahikari,-3.9924668,5.3895654,node/6912820407
0,,Opéra,-3.9930996,5.3845481,node/6912820408
0,,Las Palmas,-3.9940546,5.3809502,node/6912820409
0,,Carrefour Duncan,-3.9970644,5.3779505,node/6912820410
0,,Le Roi du Pain,-3.9983567,5.3753472,node/6912820411
0,,Sococé 2 Plateaux,-3.9983278,5.3725038,node/6912820412
0,,Mobil 2 Plateaux,-3.9981432,5.3677225,node/6912820413
0,,Macaci,-3.9973648,5.3654376,node/6912820414
0,,Saint Jacques,-4.0012391,5.3574699,node/6912820415
0,,Palm Club,-4.0018639,5.3525544,node/6912820416
0,,Carrefour la Vie,-4.0022742,5.3493692,node/6912820417
0,,Arrêt,-4.0028093,5.344562,node/6912820418
0,,Sitarail,-4.0255438,5.3266074,node/6913011676
0,,Gare Yopougon Kouté,-4.073499,5.3293875,node/6913011677
0,,Bon choix,-4.0441328,5.3134744,node/6913190443
0,,Santé Village,-4.043768,5.3087112,node/6913190444
0,,Iris 3,-4.0440879,5.3166799,node/6913190445
0,,Arrêt,-4.0441167,5.3208014,node/6913190446
0,,La faveur,-4.0468311,5.3221154,node/6913190447
0,,Arrêt,-4.0496448,5.323918,node/6913190448
0,,Commissariat de Police du 19ᵉ Arrondissement,-4.0503167,5.3270841,node/6913190449
0,,Tizra,-4.0501732,5.3295798,node/6913190450
0,,Offoumou Yapo,-4.0519957,5.3313998,node/6913190451
0,,La Poste,-4.0550937,5.3337753,node/6913190452
0,,Pharmacie Sacré-cœur,-4.055093,5.3369773,node/6913190453
0,,Pharmacie Béatitude,-4.058547,5.3401473,node/6913190454
0,,Nouveau quartier,-4.0608235,5.3407362,node/6913190455
0,,Ex Chaine Avion Rue Princesse,-4.0650474,5.3466167,node/6913190456
0,,Newton,-4.0678006,5.3447353,node/6913190457
0,,Marche Sicogi,-4.0745628,5.3395304,node/6913190458
0,,Patisserie,-4.0751928,5.3379928,node/6913190459
0,,Pharmacie du Marché,-4.0770331,5.3372574,node/6913190460
0,,Terrain Sogefiha,-4.0806585,5.3372711,node/6913190461
0,,Antenne,-4.0733126,5.3335416,node/6913201897
0,,Cabine Bleue,-4.0757574,5.3290163,node/6913201898
0,,Akadjoba,-4.0799806,5.3243327,node/6913201899
0,,Saint Pierre,-4.0871836,5.3239194,node/6913201900
0,,EPP Niangon,-4.0925668,5.3233739,node/6913201901
0,,Arrêt,-4.0944323,5.3197171,node/6913201902
0,,Arrêt,-4.0947904,5.3163701,node/6913201903
0,,Arrêt Yop 38,-4.0928994,5.3152357,node/6913201904
0,,Terminus 27,-4.0900334,5.315995,node/6913201907
0,,Arrêt,-4.0934497,5.3150643,node/6913201908
0,,EPP SICOGI Niangon Sud,-4.0948509,5.3172602,node/6913201909
0,,Carrefour Marché,-4.0943199,5.3202551,node/6913201910
0,,EPP Niangon,-4.0926667,5.3233885,node/6913201911
0,,Saint Pierre,-4.0869619,5.3240967,node/6913201912
0,,Akadjoba,-4.0797426,5.3246783,node/6913201913
0,,Arrêt de bus,-4.0762905,5.3287702,node/6913201914
0,,Gare Sud,-4.0184952,5.3146172,node/6913201915
0,,Gare Sud,-4.0183564,5.3144986,node/6913291219
0,,CNTG-BNETD,-3.9977011,5.329485,node/6913703797
0,,UCAO,-3.9970399,5.3310059,node/6913703798
0,,Maison du PDCI-RDA,-3.9973538,5.3350719,node/6913703799
0,,Piscine d’État de Treichville,-3.9997195,5.3084936,node/6913703800
0,,NSIA,-3.990551,5.3074734,node/6913703801
0,,Gare Marcory,-3.9837714,5.3086966,node/6913703802
0,,Maison du Parti,-3.9975172,5.3353656,node/6913703803
0,,UCAO,-3.9969162,5.3310313,node/6913703804
0,,CNTG-BNETD,-3.9976804,5.3293836,node/6913703805
0,,Sable,-4.0658826,5.3557108,node/6913857608
0,,Complexe Sportif de Yopougon,-4.0646331,5.3407344,node/6913857611
0,,Mairie de Yopougon,-4.0665987,5.3424009,node/6913857612
0,,La Marine,-4.0375561,5.3443401,node/6913929664
0,,Sitarail,-4.0262003,5.3278599,node/6913929665
0,,Gare Sud,-4.0182404,5.3146272,node/6913929666
0,,La Marine,-4.0376761,5.3441859,node/6913929668
0,,Gare Yopougon Kouté,-4.0737128,5.3295615,node/6913929669
0,,Gendarmerie,-4.0216157,5.3367091,node/6913931703
0,,Gendarmerie,-4.0217222,5.3369705,node/6913974340
0,,Soleil 2,-3.9728972,5.400545,node/6915341517
0,,Arrêt,-3.9837323,5.4035247,node/6915341518
0,,Arrêt,-3.9906836,5.4062326,node/6915341519
0,,Arrêt,-3.9894234,5.4297269,node/6915341520
0,,Arrêt,-3.9891222,5.4313416,node/6915341521
0,,Abobo Biabou,-3.9725804,5.4564179,node/6915341523
0,,Abobo Biabou,-3.9726482,5.4564283,node/6915341525
0,,Arrêt,-3.978184,5.4454571,node/6915341526
0,,Arrêt,-3.9810371,5.4430187,node/6915341527
0,,Arrêt,-3.9831075,5.441543,node/6915341528
0,,Arrêt,-3.9847859,5.4403681,node/6915341529
0,,Arrêt,-3.9859783,5.4391313,node/6915341530
0,,Arrêt,-3.9875153,5.4368688,node/6915341531
0,,Arrêt,-3.987991,5.4356843,node/6915341532
0,,Arrêt,-3.9883619,5.434457,node/6915341533
0,,Arrêt,-3.9887503,5.4327625,node/6915341534
0,,Arrêt,-3.9889419,5.4312302,node/6915341535
0,,Arrêt,-3.9892581,5.4293215,node/6915341536
0,,Arrêt,-3.9896961,5.4264243,node/6915341537
0,,Arrêt,-3.9902515,5.4229496,node/6915341538
0,,Arrêt,-3.9905681,5.4208149,node/6915341539
0,,Arrêt,-3.9907254,5.4195345,node/6915341540
0,,Arrêt,-3.9909298,5.4182159,node/6915341541
0,,Arrêt,-3.9922122,5.4158878,node/6915341542
0,,Arrêt,-3.9928597,5.4154923,node/6915341543
0,,Arrêt,-3.9947036,5.4148205,node/6915341544
0,,Arrêt,-3.9952879,5.4141247,node/6915341545
0,,Arrêt,-3.9932262,5.409531,node/6915341546
0,,Petro Ivoire Angré,-3.990564,5.4050885,node/6915341547
0,,Arrêt,-3.9829561,5.403643,node/6915341548
0,,Arrêt,-3.9807645,5.4033522,node/6915341549
0,,9 Kilo,-3.96346,5.3585446,node/6915487638
0,,Rond-Point de la Palmeraie,-3.9586683,5.360974,node/6915487639
0,,Carrefour de la Gendarmerie,-3.9598948,5.3606149,node/6915487640
0,,Cap Nord,-3.9665508,5.3568703,node/6915487641
0,,Riviera 2,-3.9779824,5.3532599,node/6915487642
0,,École de Police,-3.9881887,5.3502292,node/6915487643
0,,École de la Gendarmerie,-3.9943092,5.3492233,node/6915487644
0,,Carrefour de la Vie,-4.0018322,5.3485522,node/6915487645
0,,Mairie d'ABOBO,-4.0185375,5.4217637,node/6915647682
0,,Arrêt,-4.0212736,5.4270593,node/6915647683
0,,Arrêt,-4.0241622,5.4303911,node/6915647684
0,,9 Kilo,-3.9635319,5.3587403,node/6915696792
0,,Chic Shop,-3.9620358,5.3596047,node/6915696795
0,,Cap Nord,-3.9657802,5.3574857,node/6915696796
0,,École de Police,-3.9881605,5.3504609,node/6915696797
0,,Carrefour CHU,-3.9916044,5.3494956,node/6915696798
0,,École de la Gendarmerie,-3.994457,5.3493834,node/6915696799
0,,Carrefour de la Vie,-4.0029649,5.3485982,node/6915696800
0,,Arrêt,-4.0266778,5.4333404,node/6915722685
0,,Anokoi,-4.0446977,5.4390733,node/6915722686
0,,PK 18 Agripac,-4.0485036,5.4434752,node/6915722687
0,,Arrêt,-4.0512502,5.4482915,node/6915722688
0,,Arrêt,-4.0529903,5.4503535,node/6915722689
0,,Arrêt,-4.0545715,5.4565524,node/6915722690
0,,Arrêt,-4.054497,5.4574448,node/6915722691
0,,Arrêt,-4.0544278,5.465098,node/6915722692
0,,Arrêt,-4.0540279,5.4662168,node/6915722693
0,,Arrêt,-4.0530974,5.4680953,node/6915722694
0,,Arrêt,-4.0538658,5.4794949,node/6915722695
0,,Arrêt,-4.0513358,5.4828953,node/6915722696
0,,Arrêt,-4.0513476,5.4837187,node/6915722697
0,,Arrêt,-4.05146,5.4866626,node/6915722698
0,,Arrêt,-4.0515593,5.4890597,node/6915722699
0,,Arrêt,-4.0516047,5.4904279,node/6915722700
0,,Arrêt,-4.0516233,5.490915,node/6915722701
0,,Arrêt,-4.051639,5.4914503,node/6915722702
0,,Arrêt,-4.0516636,5.4928779,node/6915722703
0,,Arrêt,-4.0517658,5.4940805,node/6915722704
0,,Arrêt,-4.0517794,5.495095,node/6915722705
0,,Arrêt,-4.0516644,5.4960474,node/6915722706
0,,Arrêt,-4.0515036,5.4970767,node/6915722707
0,,Arrêt,-4.051438,5.497669,node/6915722708
0,,Arrêt,-4.0513918,5.4979794,node/6915722709
0,,Arrêt,-4.0516497,5.4995751,node/6915722710
0,,Arrêt,-4.0519247,5.500507,node/6915722711
0,,Arrêt,-4.0520934,5.5011338,node/6915722712
0,,Arrêt,-4.0522125,5.5015989,node/6915722713
0,,Arrêt,-4.0525268,5.5026911,node/6915722714
0,,Arrêt,-4.0530594,5.5045432,node/6915722715
0,,Arrêt,-4.0532829,5.5053444,node/6915722716
0,,Mairie d'Anyama,-4.0531365,5.5064599,node/6915722717
0,,Mairie d'Anyama,-4.0530408,5.5064064,node/6915722719
0,,Arrêt,-4.0513828,5.4976427,node/6915722720
0,,Arrêt,-4.0523687,5.5027177,node/6915722721
0,,Arrêt,-4.0514357,5.4994894,node/6915722722
0,,Arrêt,-4.0516383,5.4949787,node/6915722723
0,,Arrêt,-4.051407,5.4888603,node/6915722724
0,,Arrêt,-4.0513417,5.4863031,node/6915722725
0,,Arrêt,-4.0512201,5.4825896,node/6915722726
0,,Arrêt,-4.0531887,5.479955,node/6915722727
0,,Arrêt A l'Ecole,-4.0552147,5.4757466,node/6915722728
0,,Arrêt Contrôle,-4.0531044,5.470731,node/6915722729
0,,Arrêt,-4.0534141,5.4669354,node/6915722730
0,,Arrêt Ancienne Gendarmerie,-4.053759,5.4611068,node/6915722731
0,,Arrêt,-4.0544875,5.4526174,node/6915722732
0,,Arrêt Ancien Marché,-4.0526523,5.4503748,node/6915722733
0,,Arrêt Terminus,-4.0510764,5.4483606,node/6915722734
0,,Arrêt Agripac,-4.0491425,5.4449974,node/6915722735
0,,Arrêt,-4.0484067,5.4436482,node/6915722736
0,,Terminus dépôt SOTRA,-4.0057551,5.28758,node/6916152424
0,,Pharmacie du Port,-4.0084018,5.2890666,node/6916152425
0,,Arrêt du CHU,-4.0033572,5.2961604,node/6916152426
0,,Gare de Bassam,-4.0024808,5.2991407,node/6916152427
0,,Arrêt,-4.0026565,5.3478959,node/6916181080
0,,Grande Pharmacie /Terminus 300FCFA,-3.9983308,5.3700062,node/6916181081
0,,Arrêt,-3.9930971,5.4157357,node/6916280433
0,,Terminus Abobo Baoulé,-3.9940211,5.4149934,node/6916280434
0,,Pharmacie Actuelle,-3.9948875,5.4129627,node/6916280435
0,,Arrêt,-3.9939447,5.4103431,node/6916280436
0,,Arrêt,-3.9923863,5.4085794,node/6916280437
0,,Saint Ambroise,-3.9910921,5.4071215,node/6916280438
0,,Arrêt,-3.990494,5.4055233,node/6916280439
0,,Arrêt,-3.9910264,5.4011787,node/6916280440
0,,Carrefour 22ème,-3.9912618,5.3991513,node/6916280441
0,,SODECI,-3.991524,5.3973362,node/6916280442
0,,Paris Baguette,-3.9918311,5.3945043,node/6916280443
0,,Arrêt,-3.9927256,5.3875127,node/6916280444
0,,Arrêt,-3.9952144,5.3797969,node/6916280445
0,,NSIA,-3.9983542,5.3737207,node/6916280446
0,,SGBGI,-3.9981216,5.3700155,node/6916280447
0,,Cité BAD,-4.002571,5.3465781,node/6916280448
0,,CIE,-4.0035403,5.3386878,node/6916280449
0,,Commissariat du 9 ème,-3.9865047,5.3065218,node/6917146061
0,,Commissariat du 9 ème,-3.9857063,5.3061086,node/6917146062
0,,King Cash,-3.9807831,5.3034179,node/6917146063
0,,Cabinet Médical du 3ème pont,-3.9776047,5.3015677,node/6917146064
0,,Marché de Marcory,-3.9757915,5.3005869,node/6917146065
0,,Paroisse Sainte Bernadette,-3.9722389,5.2986259,node/6917146066
0,,Pharmacie Bagoué,-3.9714765,5.2982013,node/6917146067
0,,Bank of Africa,-3.9688084,5.2968312,node/6917146068
0,,Arrêt,-3.9650103,5.2965895,node/6917146069
0,,Arrêt,-3.9608221,5.2975636,node/6917146070
0,,Place Inchallah,-3.9572333,5.2983628,node/6917146071
0,,Koumassi Prodomo,-3.9531506,5.299281,node/6917146072
0,,Gare Mesano,-3.9494388,5.3001329,node/6917146073
0,,Koumassi Mesano,-3.9476752,5.3008577,node/6917146074
0,,Koumassi Mesano,-3.9483867,5.3002935,node/6917146075
0,,Station Petro Ivoire,-3.9505841,5.2998074,node/6917146076
0,,Place Inchallah,-3.9543702,5.2989496,node/6917146077
0,,Arrêt,-3.9585451,5.2980163,node/6917146078
0,,Arrêt,-3.9619419,5.2972737,node/6917146079
0,,Arrêt,-3.9660523,5.2962808,node/6917146080
0,,Bank of Africa,-3.9687629,5.296728,node/6917146081
0,,Pharmacie Bagoué,-3.9712863,5.2980069,node/6917146082
0,,Marché de Marcory,-3.9759814,5.3006211,node/6917146083
0,,Cabinet Médical du 3ème pont,-3.9778785,5.3016585,node/6917146084
0,,Arrêt,-3.9828404,5.3044464,node/6917151685
0,,Commissariat du 9 ème,-3.9860886,5.3062161,node/6917151686
0,,Arrêt,-3.988849,5.3077309,node/6917151687
0,,Yan Auto Ecole,-3.9904413,5.3084636,node/6917151688
0,,Gare Abobo-Doumé,-4.0352896,5.3106101,node/6919194336
0,,Cité Bracodi Rte Cité verte,-4.0923844,5.3270854,node/6919312942
0,,Cité Verte,-4.1119954,5.332209,node/6919312943
0,,Collège Sebaco,-4.109973,5.3316148,node/6919312945
0,,Cité Bracodi Rte Cité verte,-4.1058974,5.3306787,node/6919312946
0,,Banque BNI,-4.1035223,5.3296893,node/6919312947
0,,Le repère,-4.100539,5.3284241,node/6919312948
0,,Carrefour de Niangon,-4.0976201,5.3278005,node/6919312949
0,,Akadjoba,-4.0812954,5.3241547,node/6919312950
0,,Gare Abobo-Doumé,-4.0351267,5.3103655,node/6919312951
0,,Le petit soleil,-4.053652,5.322126,node/6919327587
0,,Blé Doré,-4.0573213,5.3235388,node/6919327588
0,,Marché Kouté,-4.0669544,5.3241224,node/6919327589
0,,Carrefour Kouté,-4.0710314,5.3251706,node/6919327590
0,,Marejea,-4.0761933,5.325455,node/6919327591
0,,Akadjoba,-4.0818366,5.3238646,node/6919327593
0,,Arrêt,-4.0914322,5.3264405,node/6919327594
0,,Carrefour de Niangon,-4.0976496,5.327729,node/6919327595
0,,Le repère,-4.1005786,5.3283566,node/6919327596
0,,Top Qualitée,-4.1035169,5.3295851,node/6919327597
0,,Cité Bracodi Rte Cité verte,-4.1063239,5.3307695,node/6919327598
0,,Arrêt,-3.9831407,5.2982594,node/6919758025
0,,Arrêt,-3.9792079,5.2961308,node/6919758026
0,,Arrêt,-3.9763809,5.2945624,node/6919758027
0,,Arrêt,-3.9743974,5.293456,node/6919758028
0,,Arrêt,-3.9712223,5.2927669,node/6919758029
0,,Arrêt,-3.9690283,5.2932236,node/6919758030
0,,Arrêt,-3.965347,5.2940469,node/6919758031
0,,Arrêt,-3.9603108,5.2951953,node/6919758032
0,,Arrêt,-3.9565101,5.2961324,node/6919758033
0,,Sogefia,-3.9526269,5.297599,node/6919758034
0,,Arrêt,-3.9478318,5.2987064,node/6919758035
0,,Station Petro Ivoire,-3.9469644,5.3015424,node/6919758036
0,,Arrêt,-3.9453759,5.3043266,node/6919758037
0,,Bon Samaritain,-3.946713,5.3080062,node/6919758038
0,,Pharmacie Fanny,-3.9473403,5.3099762,node/6919758039
0,,Patisserie MC,-3.9466942,5.3109106,node/6919758040
0,,Terminus 05 Lycée Municipal de Koumassi,-3.9450346,5.311165,node/6919758041
0,,"Avenue 19, Rue 12, Treichville",-4.0106387,5.3023303,node/6924851825
0,,FIESTA,-4.0115547,5.3047639,node/6924851826
0,,Treichville Entente,-4.0006757,5.3028704,node/6924851828
0,,Nostalgie,-4.0016802,5.3015791,node/6924851829
0,,Banque Bicici,-4.003555,5.300882,node/6924851830
0,,[Arret sans nom],-4.0062869,5.2999593,node/6924851831
0,,Gare Nord,-4.0277536,5.3586294,node/6924851833
0,,"Avenue 19, Rue 12, Treichville",-4.0106307,5.3025272,node/6924979791
0,,Pharmacie de l'Avenue 27,-4.0062426,5.3029946,node/6924979792
0,,Treichville Entente,-4.0008245,5.3032777,node/6924979794
0,,[Arret sans nom],-4.0208888,5.3296238,node/6926746685
0,,Cité Administrative,-4.0236032,5.3309876,node/6926746686
0,,Terminus Gare Sud,-4.018979,5.3149603,node/6926746688
0,,Station Total,-4.0096436,5.3018048,node/6926746689
0,,Arrêt,-3.9737989,5.4538834,node/6926746749
0,,Arrêt,-3.9864522,5.4385456,node/6926746750
0,,Arrêt,-3.9903197,5.4222388,node/6926746751
0,,Arrêt,-3.9996626,5.4154549,node/6926746752
0,,Arrêt,-4.0016378,5.4154484,node/6926746753
0,,Arrêt,-4.0054049,5.4155231,node/6926746754
0,,Samaké,-4.0071858,5.4152696,node/6926746755
0,,Gare Nord,-4.0280449,5.3590439,node/6926746757
0,,Arrêt,-4.0019605,5.4155963,node/6926746758
0,,Arrêt,-3.9928882,5.4156232,node/6926746759
0,,Sotra,-3.9908193,5.4196603,node/6926746760
0,,Arrêt,-3.9904401,5.422222,node/6926746761
0,,Arrêt,-3.9898619,5.4265157,node/6926746762
0,,Arrêt,-3.9886816,5.43368,node/6926746763
0,,Arrêt,-3.9873449,5.4374054,node/6926746764
0,,Arrêt,-3.9850082,5.4402786,node/6926746765
0,,Arrêt,-3.9807703,5.443381,node/6926746766
0,,Arrêt,-3.9785569,5.4451883,node/6926746767
0,,Bon Samaritain,-3.946597,5.3079127,node/6926943107
0,,Pharmacie Campement,-3.9451392,5.3050831,node/6926943108
0,,Hôpital Général de Marcory,-3.9835873,5.3011838,node/6926943109
0,,Pharmacie Notre-Dame,-4.0046641,5.3034579,node/6926943110
0,,Gare Sud,-4.0185633,5.3146776,node/6926943111
0,,Cité Administrative,-4.0236086,5.3311928,node/6926943112
0,,[Arret sans nom],-3.9840318,5.3051694,node/6927022357
0,,Arrêt,-3.9930649,5.4159386,node/6927037611
0,,Arrêt,-4.0063405,5.408251,node/6927037612
0,,Arrêt,-4.0063848,5.4057129,node/6927037613
0,,Arrêt,-4.0064518,5.4013897,node/6927037614
0,,Arrêt,-4.0057893,5.3930717,node/6927037615
0,,Arrêt,-4.0056726,5.3875774,node/6927037616
0,,Arrêt,-4.0066168,5.3801858,node/6927037617
0,,Arrêt,-4.0168427,5.3625903,node/6927037618
0,,Pharmacie le Belier,-4.0169801,5.3503578,node/6927037619
0,,Fraternité Matin,-4.0178358,5.3456673,node/6927037620
0,,Arrêt,-4.0237561,5.3411247,node/6927037621
0,,Arrêt,-4.0237963,5.3372751,node/6927037622
0,,Arrêt,-4.0238252,5.3339228,node/6927037623
0,,Cité Administrative,-4.0238251,5.3310139,node/6927037625
0,,Arrêt,-4.0238861,5.3339515,node/6927037626
0,,Ministère de la défense,-4.0238741,5.3377117,node/6927037627
0,,Arrêt,-4.0161668,5.3557539,node/6927037628
0,,Arrêt,-4.0068716,5.379605,node/6927037629
0,,Arrêt,-4.0059958,5.386285,node/6927037630
0,,Arrêt,-4.0065437,5.4018603,node/6927037631
0,,Abobo Belleville,-3.9933257,5.4158855,node/6927037633
0,,Arrêt,-4.0125125,5.3434193,node/6927327302
0,,Arrêt,-4.0103402,5.346265,node/6927327303
0,,Arrêt,-4.0088409,5.3494085,node/6927327304
0,,Arrêt,-4.0044479,5.3529759,node/6927327305
0,,Arrêt,-3.989773,5.4043844,node/6927327306
0,,Arrêt,-3.9851483,5.4048944,node/6927327307
0,,Arrêt,-3.9867901,5.4082838,node/6927327308
0,,Arrêt,-3.9890592,5.407261,node/6927327309
0,,Arrêt,-4.0043218,5.3528041,node/6927327310
0,,Arrêt,-4.0085859,5.3493597,node/6927327311
0,,Arrêt,-4.0102683,5.3461658,node/6927327312
0,,Polyclinique,-4.0124663,5.3433536,node/6927327313
0,,Gare Sud,-4.0186967,5.3147983,node/6927327314
0,,Campement,-3.9464354,5.3022414,node/6927330411
0,,Terminus 05 Lycée Municipal de Koumassi,-3.9450815,5.3120389,node/6927330412
0,,Pharmacie Fanny,-3.9472561,5.3099838,node/6927330413
0,,Arrêt,-4.0047298,5.3362229,node/6927330414
0,,Gare Campus Cocody,-3.9938503,5.3462362,node/6927330416
0,,INSAAC,-3.9972169,5.3463523,node/6927544633
0,,Saint Jean,-4.0030417,5.3359628,node/6927544634
0,,Saint Jean,-4.0029552,5.3358129,node/6927544636
0,,Gendarmerie,-3.9970998,5.3482687,node/6927544637
0,,Arrêt,-4.0175371,5.3536864,node/6927600976
0,,Mirador,-4.0250561,5.3567305,node/6927600977
0,,Arrêt SICOGI,-4.0241115,5.3566458,node/6927631763
0,,Gare Nord,-4.0275494,5.3592856,node/6927694921
0,,Arrêt,-3.9971908,5.3470894,node/6927701716
0,,Terminus Riviera 2,-3.9700449,5.3534453,node/6928179123
0,,Cité étudiante Riviera 2,-3.9736351,5.3533983,node/6928179124
0,,Riviera 2,-3.9780678,5.3525929,node/6928179125
0,,Petite Mosquée Riviéra Jardin,-3.9805625,5.3512739,node/6928179126
0,,Petite Mosquée Riviéra Jardin,-3.9803499,5.3516026,node/6928250859
0,,Riviera 2,-3.9781867,5.3526374,node/6928250860
0,,Arrêt,-3.9761267,5.3530707,node/6928250861
0,,Terminus Riviera 2,-3.9702004,5.3534857,node/6928250862
0,,Terminus Vridi-Iran,-3.9975737,5.2563753,node/6928681599
0,,Arrêt Cuirasse Ciment,-4.0101948,5.2947326,node/6928681601
0,,Gare Nord,-4.0279685,5.3588804,node/6928681602
0,,Terminus 32,-4.0228924,5.3050571,node/6928704112
0,,[Arret sans nom],-4.0170398,5.3002851,node/6928704113
0,,"Etablissements Rey, Port",-4.0140854,5.29778,node/6928704114
0,,Arrêt Bolloré logistique,-3.9995223,5.264595,node/6928704115
0,,Terminus Vridi-Iran,-3.9975522,5.2562337,node/6928704117
0,,Gare Sud,-4.0182207,5.3143818,node/6929796960
0,,Terminus Gare Sud,-4.0189046,5.314962,node/6929849943
0,,Arrêt,-3.9888954,5.3078566,node/6930487819
0,,Station Corlay Bingerville,-3.8943455,5.3612016,node/6930917942
0,,Après barrage,-3.9581935,5.3618466,node/6930917943
0,,Dalia,-3.9537437,5.364055,node/6930917944
0,,Église Apostolique de Côte d'Ivoire,-3.9497378,5.3653603,node/6930917945
0,,Camp Militaire d'Akouédo,-3.94563,5.3673945,node/6930917946
0,,Carrefour Faya,-3.9389929,5.370105,node/6930917947
0,,Résidence Genie 2000,-3.9347483,5.3712573,node/6930917948
0,,Optic 2000,-3.9301188,5.3725084,node/6930917949
0,,Jules Verne,-3.9237472,5.3741413,node/6930917950
0,,Pharmacie Saint Sylvestre,-3.9108525,5.3718715,node/6930917951
0,,Cité Hévéas,-3.9083956,5.3645064,node/6930917952
0,,Université de Cocody Pole Scientifique,-3.9031767,5.3606115,node/6930917953
0,,CIE,-3.8979524,5.360275,node/6930917954
0,,[Arret sans nom],-3.8963887,5.360916,node/6930917955
0,,Lycée Garçon de Bingerville,-3.8909747,5.3577634,node/6930917956
0,,Carrefour Marché,-3.8866322,5.3574363,node/6930917957
0,,Espace Orange,-3.8843503,5.3583363,node/6930917958
0,,Hôpital Mère-Enfant de Bingerville,-3.8841063,5.360674,node/6930917959
0,,Carrefour Marché,-3.886655,5.3573589,node/6930917961
0,,Lycée Garçon de Bingerville,-3.8908299,5.3576746,node/6930917962
0,,CIE,-3.8980114,5.3601255,node/6930917963
0,,Université de Cocody Pole Scientifique,-3.9020951,5.360215,node/6930917964
0,,Cité Hévéas,-3.9084667,5.3643261,node/6930917965
0,,Cité Marina,-3.9097783,5.368265,node/6930917966
0,,Arrêt,-3.9108391,5.3714883,node/6930917967
0,,Jules Verne,-3.9233838,5.3740098,node/6930917968
0,,Coris Bank,-3.9324215,5.3716378,node/6930917969
0,,Arrêt,-3.9379911,5.3701704,node/6930917970
0,,Camp Militaire d'Akouédo,-3.9456984,5.3671088,node/6930917971
0,,[Arret sans nom],-3.9527636,5.3637324,node/6930917972
0,,Après barrage,-3.9579964,5.3617224,node/6930917973
0,,Arrêt,-3.94723,5.2993777,node/6931151021
0,,Sogefia,-3.9523798,5.2975523,node/6931151022
0,,Arrêt,-3.9571428,5.2958991,node/6931151023
0,,Pharmacie Saint François,-3.9596352,5.2952895,node/6931151024
0,,Grande Pharmacie Iroko,-3.9646348,5.2941237,node/6931151025
0,,Arrêt,-3.9695299,5.2929966,node/6931151026
0,,Pharmacie Du Boulevard Du Gabon,-3.971683,5.2924858,node/6931151027
0,,Polyclinique La Madone,-3.9757097,5.2940696,node/6931151028
0,,Arrêt,-3.9801776,5.2965781,node/6931151029
0,,Arrêt,-3.9828604,5.298031,node/6931151030
0,,Gare Nord,-4.027668,5.3590066,node/6931151031
0,,Koumassi Sicogi - Dépôt SOTRA,-3.9540428,5.2873212,node/6931273195
0,,[Arret sans nom],-3.964256,5.2849829,node/6931273196
0,,[Arret sans nom],-3.9651793,5.2875055,node/6931273197
0,,Arrêt,-3.9684516,5.2873493,node/6931273198
0,,[Arret sans nom],-3.9694119,5.2883388,node/6931273199
0,,Sicomex,-3.9762314,5.293018,node/6931273200
0,,Gare Sud,-4.0184375,5.3148159,node/6931273203
0,,Pharmacie du Rond-point,-4.0117713,5.3074119,node/6931792543
0,,[Arret sans nom],-4.0071049,5.3090558,node/6931792544
0,,Centre Commercial Koumassi,-3.9672808,5.2889971,node/6931792545
0,,Arrêt,-3.9622262,5.2839293,node/6931792546
0,,Pharmacie Bethanie,-3.9586401,5.2847439,node/6931792547
0,,Arrêt,-3.9543311,5.2857761,node/6931792548
0,,Koumassi Sicogi - Dépôt SOTRA,-3.9538698,5.2884523,node/6931792550
0,,Grand Carrefour de Koumassi,-3.970533,5.2870688,node/6931985671
0,,Ivosep Treichville,-4.001299,5.2985627,node/6931985672
0,,Arrêt,-4.060057,5.3266769,node/6932152400
0,,Ghandi,-4.0598402,5.3250076,node/6932152402
0,,Ghandi,-4.0599193,5.3253408,node/6932152404
0,,Arrêt,-4.0669167,5.3600658,node/6932152405
0,,Gare Sud,-4.0182858,5.314853,node/6932152407
0,,CIAD,-3.9502595,5.3286224,node/6932239010
0,,Arrêt,-3.951901,5.3291271,node/6932239011
0,,Arrêt,-3.9522216,5.338314,node/6932239012
0,,Carrefour Mel Theodore,-3.9526011,5.3443655,node/6932239013
0,,Pharmacie Riviera III,-3.9535043,5.348653,node/6932239014
0,,Collège l'Ardoise,-3.9545015,5.3509724,node/6932239015
0,,Arrêt,-3.9606719,5.3550168,node/6932239016
0,,Arrêt,-3.9637336,5.3569209,node/6932239017
0,,Gare Sud,-4.0185761,5.3149333,node/6932239019
0,,Angré Château,-3.9808642,5.4127978,node/6932253478
0,,Arrêt,-3.984559,5.4102497,node/6932253479
0,,Arrêt,-3.9930569,5.3866094,node/6932253480
0,,Arrêt,-3.9885655,5.4076842,node/6932253481
0,,Angré Château,-3.9809279,5.4128518,node/6932253483
0,,Arrêt,-3.9635029,5.3569409,node/6932323632
0,,Collège Ardoise,-3.9543647,5.3517214,node/6932323633
0,,Pharmacie Riviera III,-3.9531872,5.3485048,node/6932323634
0,,Carrefour Mel Theodore,-3.9524998,5.3446873,node/6932323635
0,,École libanaise Al Ghadir,-3.9448656,5.3284521,node/6932323636
0,,Terminus Yopougon Camp Militaire,-4.0617429,5.3228845,node/6933043352
0,,Ghandi,-4.0599163,5.3245991,node/6933043354
0,,Arrêt,-4.0607049,5.3278586,node/6933043355
0,,Arrêt,-4.0581514,5.3300685,node/6933043356
0,,[Arret sans nom],-4.0559573,5.3314439,node/6933043357
0,,Gare Sud,-4.018425,5.3145591,node/6933043359
0,,Arrêt,-3.9428298,5.3283246,node/6933080250
0,,École libanaise Al Ghadir,-3.9447637,5.3282992,node/6933080251
0,,Arrêt,-3.9460498,5.3283286,node/6933080252
0,,Pharmacie M'pouto,-3.9479502,5.328364,node/6933080253
0,,Beverly,-3.9527768,5.3380122,node/6933080254
0,,Carrefour Sol Béni,-3.9578046,5.3311481,node/6933080255
0,,Arrêt,-3.980421,5.329493,node/6933080256
0,,SIB,-3.9996752,5.3353723,node/6933080257
0,,Mosquée Cité Eden,-3.9401878,5.3284154,node/6933080258
0,,Mosquée Cité Eden,-3.9401855,5.3283646,node/6933080260
0,,Arrêt,-4.0026096,5.3461454,node/6933080262
0,,Mosquée Golf,-3.9789297,5.3391939,node/6933080263
0,,Arrêt,-3.9812806,5.3325809,node/6933080264
0,,Arrêt,-3.9790913,5.3297881,node/6933080265
0,,Beverly,-3.9529652,5.3380134,node/6933080266
0,,[Arret sans nom],-4.0560298,5.3312516,node/6933128807
0,,Arrêt,-4.0580978,5.3299817,node/6933128808
0,,Terminus Yopougon Camp Militaire,-4.0623571,5.3222556,node/6933128810
0,,Station Total,-4.0094478,5.3017767,node/6933231056
0,,Pharmacie de l'Avenue 27,-4.0061849,5.3029158,node/6933231057
0,,Gare Nord,-4.0272913,5.3589712,node/6933291484
0,,Gare Nord,-4.0277539,5.3591995,node/6933302185
0,,Arrêt,-4.0210558,5.4266332,node/6934648710
0,,Arrêt,-4.0538116,5.4438112,node/6934648711
0,,Arrêt,-4.0603428,5.4435976,node/6934648712
0,,Arrêt,-4.0647738,5.4434975,node/6934648713
0,,Arrêt,-4.0679455,5.4433733,node/6934648714
0,,Arrêt,-4.0693985,5.442806,node/6934648715
0,,Arrêt,-4.0686147,5.4392747,node/6934648716
0,,Arrêt,-4.068663,5.4321434,node/6934648717
0,,Arrêt,-4.0699659,5.428223,node/6934648718
0,,Arrêt,-4.0783779,5.413004,node/6934648719
0,,Arrêt,-4.0834808,5.4036687,node/6934648720
0,,Arrêt,-4.0842761,5.4009224,node/6934648721
0,,Arrêt,-4.0810159,5.3935763,node/6934648722
0,,Arrêt,-4.078453,5.3892384,node/6934648723
0,,Arrêt,-4.0757427,5.3836466,node/6934648724
0,,Arrêt,-4.0773951,5.3747704,node/6934648725
0,,Arrêt,-4.0820444,5.3762544,node/6934648726
0,,Arrêt,-4.0759718,5.3838941,node/6934648728
0,,Arrêt,-4.0784458,5.389032,node/6934648729
0,,Arrêt,-4.0806236,5.3928929,node/6934648730
0,,Arrêt,-4.0842976,5.4014804,node/6934648731
0,,Arrêt,-4.0784144,5.4130749,node/6934648732
0,,Arrêt,-4.070195,5.4279813,node/6934648733
0,,Arrêt,-4.0686617,5.4326393,node/6934648734
0,,Arrêt,-4.069498,5.4427909,node/6934648735
0,,Arrêt,-4.0650186,5.4435987,node/6934648736
0,,Arrêt,-4.0602688,5.4437261,node/6934648737
0,,Arrêt,-4.0536714,5.4438909,node/6934648738
0,,Arrêt,-4.0481434,5.4432611,node/6934648739
0,,Arrêt,-4.0438735,5.4392603,node/6934648740
0,,220 logements,-4.0169741,5.3480962,node/6934657650
0,,Carrefour Akwaba,-3.9618933,5.2690497,node/6934657651
0,,Hôpital de Port-Bouët,-3.9633662,5.2629137,node/6934657652
0,,Nouveau Marché Port-Bouët,-3.9637684,5.2574343,node/6934657653
0,,Océan Espadon,-3.961553,5.2567198,node/6934657654
0,,Église Méthodiste Unie Port-Bouët,-3.9621216,5.2542438,node/6934657655
0,,Wharf Port-Bouët,-3.9607128,5.2530566,node/6934657656
0,,Terminus Port-Bouët Phare,-3.9560196,5.2510654,node/6934657657
0,,Arrêt,-4.0201934,5.400118,node/6934749721
0,,Centre Commercial du Dokui,-4.0027148,5.3970398,node/6934798183
0,,Sainte Monique,-4.0014133,5.3997114,node/6934798184
0,,Superette Akwaba,-3.9960703,5.3994163,node/6934815685
0,,22ème,-3.9916306,5.3979557,node/6934815686
0,,Superette Akwaba,-3.9959845,5.3992227,node/6934815687
0,,Pharmacie Sainte Monique,-3.9972693,5.3994417,node/6934815688
0,,Station Petro Ivoire,-4.0008152,5.3997942,node/6934815689
0,,Sainte Monique,-4.0013301,5.3994657,node/6934815690
0,,Centre Commercial du Dokui,-4.0026122,5.3970104,node/6934815692
0,,Yopougon Kowëit,-4.0506908,5.3221354,node/6934872150
0,,Sideci Matignon,-4.0802555,5.3218817,node/6934872151
0,,Abobo Akeikoi Village,-4.0109827,5.4604925,node/6934922723
0,,Destin,-4.0111108,5.4554315,node/6934922724
0,,André Bar,-4.0126598,5.4531085,node/6934922725
0,,Arrêt,-4.0136415,5.4493063,node/6934922726
0,,Arrêt,-4.0143429,5.4446991,node/6934922727
0,,Arrêt,-4.0141618,5.4400103,node/6934922728
0,,Arrêt,-4.0137548,5.4327535,node/6934922731
0,,Arrêt,-4.0124023,5.4336247,node/6934922732
0,,Arrêt,-4.0143033,5.4393221,node/6934922733
0,,Arrêt,-4.0145279,5.4445716,node/6934922734
0,,Arrêt,-4.0137662,5.4493357,node/6934922735
0,,André Bar,-4.0127617,5.4531566,node/6934922736
0,,Destin,-4.0112489,5.4554448,node/6934922737
0,,Abobo Akeikoi Village,-4.0110518,5.4604068,node/6934922738
0,,Gare Abobo-Doumé,-4.0352396,5.3102833,node/6934970640
0,,Arrêt,-4.0240914,5.4306528,node/6935113685
0,,Cité Administrative,-4.0236072,5.3314011,node/6935113687
0,,Gare Nord,-4.0273828,5.3591731,node/6935117220
0,,Woodin,-3.9897309,5.3610508,node/6935117222
0,,[Arret sans nom],-3.9897537,5.3653222,node/6935117223
0,,NSIA Banque,-3.9898489,5.3685842,node/6935117224
0,,Leader Price,-3.9904759,5.372732,node/6935117225
0,,Carrefour Sainte Cécile - Terminus 35,-3.9926612,5.3770534,node/6935117227
0,,Carrefour Sainte Cécile - Terminus 35,-3.9926425,5.3771843,node/6935251104
0,,Sococé Vallon,-3.9904471,5.3742722,node/6935251105
0,,NSIA Banque,-3.9897873,5.3686002,node/6935251106
0,,[Arret sans nom],-3.9897014,5.364963,node/6935251107
0,,Woodin,-3.9896753,5.3606736,node/6935251108
0,,Versus Bank,-3.9907542,5.3576192,node/6935251109
0,,École de Police,-3.9912866,5.3522302,node/6935251110
0,,Mermoz,-3.99993,5.3387479,node/6935251111
0,,Gare Nord,-4.0278565,5.3591581,node/6935251112
0,,Groupe Scolaire Kouamé Konan,-3.9831166,5.2627714,node/6935274791
0,,Groupe Scolaire Petit Bassam,-3.9774759,5.2569108,node/6935274792
0,,Arrêt,-3.9696513,5.2576259,node/6935274793
0,,Marché,-3.965703,5.2585828,node/6935274794
0,,Pharmacie Océan,-3.9608596,5.2568159,node/6935274796
0,,Lycée Moderne de Port-Bouët,-3.9581761,5.256199,node/6935274797
0,,Carrefour Akwaba,-3.9610527,5.2658583,node/6935274798
0,,Digue de Koumassi,-3.9661886,5.2758153,node/6935274799
0,,CIE Bia Sud,-3.9692871,5.2813533,node/6935274800
0,,Arrêt,-3.962945,5.2900094,node/6935274801
0,,Arrêt,-3.9596587,5.2907532,node/6935274802
0,,Gare Koumassi,-3.9555147,5.294113,node/6935274803
0,,Pharmacie Regina,-3.9498116,5.298266,node/6935274804
0,,Pharmacie Regina,-3.9495504,5.2982253,node/6935274805
0,,Ajavon,-3.9582726,5.2909815,node/6935274806
0,,Foyer des Jeunes,-3.9612938,5.2902818,node/6935274807
0,,Centre Commercial Koumassi,-3.9668678,5.2889304,node/6935274808
0,,Carrefour Ancien Koumassi,-3.9667035,5.2768282,node/6935274809
0,,43ème Bima,-3.9577992,5.2576733,node/6935274810
0,,Lycée Moderne de Port-Bouët,-3.9579253,5.2560567,node/6935274811
0,,Nouveau Marché Port-Bouët,-3.9642432,5.2574824,node/6935274812
0,,District de Port-Bouet,-3.965754,5.2584759,node/6935274813
0,,Arrêt,-3.9693877,5.2576319,node/6935274814
0,,Arrêt,-3.9790309,5.2572754,node/6935274815
0,,Stade de la SIR,-3.9893487,5.2569161,node/6935274816
0,,Arrêt,-4.006142,5.3852315,node/6935401276
0,,Arrêt,-4.0060079,5.3852595,node/6935401277
0,,Arrêt,-4.0064532,5.3984537,node/6935401278
0,,Arrêt,-4.0064304,5.4022949,node/6935401279
0,,Arrêt,-4.0063405,5.4087036,node/6935401280
0,,Arrêt,-4.0062828,5.4109493,node/6935401281
0,,Arrêt,-4.0062493,5.4143906,node/6935401282
0,,Arrêt,-4.0170009,5.420498,node/6935401283
0,,Arrêt,-4.0141176,5.4189547,node/6935401284
0,,Arrêt,-4.0123071,5.4179854,node/6935407385
0,,Arrêt,-4.0094626,5.4164927,node/6935407386
0,,"Parc des Sports, Boulevard Valéry Giscard d'Estaing",-4.0041834,5.2983706,node/6935488165
0,,Carrefour Aéroport,-3.9445075,5.2470403,node/6935488166
0,,Arrêt,-3.9295542,5.2446806,node/6935488167
0,,Arrêt,-3.925598,5.2440381,node/6935488168
0,,Arrêt,-3.922044,5.2434545,node/6935488169
0,,Arrêt,-3.9170243,5.2426599,node/6935488170
0,,Arrêt,-3.9115848,5.2417851,node/6935488171
0,,Mosquée,-3.9051327,5.2407648,node/6935488172
0,,Arrêt,-3.9593026,5.260825,node/6935494486
0,,Avenue de la Côte d'Ivoire / Boulevard V.G.E.,-3.984569,5.2976825,node/6935494487
0,,Terminus Gonzagueville,-3.9005903,5.2402774,node/6935494488
0,,Mosquée,-3.9050053,5.2405691,node/6935494499
0,,Arrêt,-3.9104489,5.2414058,node/6935494500
0,,Arrêt,-3.9156765,5.2422365,node/6935494501
0,,Arrêt,-3.9216458,5.243186,node/6935494502
0,,Arrêt,-3.9251152,5.2437256,node/6935494503
0,,Arrêt,-3.9298091,5.2444775,node/6935494504
0,,Arrêt,-3.9372025,5.2456701,node/6935494505
0,,Arrêt,-3.94366,5.2467051,node/6935494506
0,,Arrêt,-3.9541537,5.2492829,node/6935494507
0,,43ème Bima,-3.9579213,5.2573475,node/6935494508
0,,Palais des Sports,-4.0065188,5.299118,node/6935494509
0,,Avenue Christiani,-4.0149692,5.3101948,node/6935494511
0,,Arrêt,-4.0082087,5.3002327,node/6937770645
0,,Arrêt,-3.9594314,5.2618319,node/6937770646
0,,Arrêt,-3.9424717,5.2467278,node/6937770647
0,,Terminus Gonzagueville,-3.9007735,5.2400864,node/6937770648
0,,Arrêt,-3.8973275,5.2395482,node/6937770649
0,,Arrêt,-3.893671,5.2389973,node/6937770650
0,,Pharmacie Bénediction,-3.8845293,5.2375957,node/6937770652
0,,Anani,-3.8802069,5.2369286,node/6937770653
0,,Anani,-3.8798529,5.2368898,node/6937770654
0,,Anani - Rond-point,-3.8749894,5.2369172,node/6937770655
0,,Arrêt,-3.8833565,5.2372444,node/6937770656
0,,Collège privé les Cartésiens d'Abidjan,-3.888965,5.2380744,node/6937770657
0,,Arrêt,-3.8928086,5.2386868,node/6937770658
0,,Corridor,-3.8962466,5.2391862,node/6937770659
0,,Terminus Gonzagueville,-3.9013763,5.2399789,node/6937770660
0,,Arrêt,-3.9649889,5.256211,node/6937789671
0,,Gare Abobo Sogephia,-4.01522,5.4354794,node/6938095648
0,,Arrêt,-4.0222809,5.4251869,node/6938222040
0,,Arrêt,-4.0239143,5.4191963,node/6938222041
0,,Arrêt,-4.0240283,5.4148659,node/6938222042
0,,Arrêt,-4.0292727,5.4147991,node/6938222043
0,,Ebimpé Village,-4.0807772,5.5005578,node/6938324861
0,,Arrêt,-4.0807946,5.5031942,node/6938324862
0,,Arrêt,-4.0801696,5.5033771,node/6938324863
0,,Arrêt,-4.0769751,5.5031182,node/6938324864
0,,Arrêt,-4.0770207,5.5007033,node/6938324865
0,,Arrêt,-4.0762322,5.5002134,node/6938324866
0,,Arrêt,-4.07344,5.5002334,node/6938324867
0,,Arrêt,-4.0699397,5.5000185,node/6938324868
0,,Arrêt,-4.066591,5.4982283,node/6938324869
0,,Arrêt,-4.0678543,5.4912933,node/6938324870
0,,Arrêt,-4.0690076,5.4869787,node/6938324871
0,,Arrêt,-4.0697157,5.4842033,node/6938324872
0,,Arrêt,-4.0709844,5.4791892,node/6938324873
0,,Arrêt,-4.0715718,5.4769371,node/6938324874
0,,Arrêt,-4.072693,5.4724328,node/6938324875
0,,Arrêt,-4.0737471,5.4679499,node/6938324876
0,,Arrêt,-4.0739322,5.4644949,node/6938324877
0,,Arrêt,-4.0733501,5.4606874,node/6938324878
0,,Arrêt,-4.0724757,5.4565342,node/6938324879
0,,Arrêt,-4.0713693,5.4517454,node/6938324880
0,,Arrêt,-4.0706693,5.4485133,node/6938324881
0,,Arrêt,-4.0696567,5.4441757,node/6938324882
0,,Arrêt,-4.0681963,5.4435135,node/6938324883
0,,Arrêt,-4.056062,5.443862,node/6938324884
0,,Arrêt,-4.0494295,5.4440736,node/6938343085
0,,Hotel Communal Port-Bouët,-3.9639542,5.2608437,node/6938407500
0,,Hôpital Géneral de Port-Bouët,-3.9635653,5.2629757,node/6938407501
0,,Arrêt,-3.9564407,5.293872,node/6938407503
0,,Collège privé les Cartésiens d'Abidjan,-3.8886204,5.2382227,node/6938407504
0,,Farandole,-3.9975952,5.3640511,node/6938756997
0,,Arrêt,-3.9845087,5.4036801,node/6938792077
0,,Arrêt,-3.993252,5.3829263,node/6938792078
0,,Gare Sud,-4.0186301,5.3147389,node/6938792079
0,,Arrêt,-3.9887345,5.3010837,node/6939014886
0,,Pharmacie Sainte Aghate,-3.9663789,5.3023803,node/6939014887
0,,Terminus Remblais 03,-3.9640502,5.3029659,node/6939014888
0,,Terminus Remblais 03,-3.9638825,5.302855,node/6939014890
0,,Arrêt,-3.9684999,5.3018088,node/6939014891
0,,Arrêt,-3.9714879,5.2984764,node/6939014892
0,,Arrêt,-3.9848064,5.3022895,node/6939014894
0,,Gare Nord,-4.0274686,5.359076,node/6939014895
0,,Terminus dépôt SOTRA,-4.0059154,5.2875728,node/6939076692
0,,Sideci Pharmacie Lem,-4.0768933,5.3314425,node/6944816371
0,,Sideci Lem,-4.0798317,5.3305385,node/6944816372
0,,[Arret sans nom],-4.0813807,5.3270574,node/6944816373
0,,Akadjoba,-4.0806283,5.3246445,node/6944816374
0,,Cité Administrative,-4.0237293,5.3310827,node/6944887181
0,,Arrêt,-4.0220542,5.4253525,node/6944887182
0,,Arrêt,-4.0240122,5.4193151,node/6944887183
0,,Arrêt,-4.0241008,5.4150828,node/6944887184
0,,Arrêt,-4.0292533,5.4148679,node/6944920985
0,,Terminus bus 51/52,-4.0334697,5.4148038,node/6944920986
0,,Arrêt,-4.0817052,5.3274379,node/6944934858
0,,Sideci Lem - Carrefour Sgbci,-4.080812,5.330154,node/6944934859
0,,Sideci Pharmacie Lem,-4.0773064,5.3314305,node/6944934860
0,,École de Police,-3.99141,5.3521541,node/6945017053
0,,Arrêt,-3.9914516,5.3569943,node/6945017054
0,,Siège SOTRA,-4.0082677,5.2865574,node/6945458783
0,,Station Oilibya,-3.9722067,5.2569502,node/6945659474
0,,Arrêt,-3.9647529,5.2566851,node/6945659475
0,,Pharmacie Atlantique,-3.9643009,5.2546846,node/6945659476
0,,Port-Bouët Phare,-3.9565238,5.2511255,node/6945659477
0,,Vridi canal - Terminus 23,-4.0047848,5.2531341,node/6945864857
0,,Vridi canal - Terminus 23,-4.0046923,5.2531701,node/6945864858
0,,[Arret sans nom],-4.0087358,5.2657115,node/6945864859
0,,Arrêt du CHU,-4.0033337,5.2957541,node/6945864860
0,,Ciprel,-4.0134249,5.260642,node/6945966271
0,,[Arret sans nom],-4.0138507,5.2649101,node/6945966272
0,,[Arret sans nom],-4.011446,5.265254,node/6945966273
0,,[Arret sans nom],-4.0086137,5.2660346,node/6945966274
0,,[Arret sans nom],-4.0060763,5.2688363,node/6945966275
0,,Arrêt,-3.9581171,5.3539352,node/6948222228
0,,Arrêt,-3.9522725,5.3417576,node/6948222230
0,,Arrêt,-3.9521505,5.3392567,node/6948222231
0,,Arrêt,-3.952243,5.3384929,node/6948222232
0,,Carrefour Ambassade de Chine,-3.943904,5.334941,node/6948222233
0,,Antenne,-3.9452136,5.3392333,node/6948222234
0,,Akwaba,-3.9428439,5.3385917,node/6948222235
0,,Pharmacie,-3.9393644,5.3355172,node/6948222236
0,,Arrêt,-3.9368539,5.3328633,node/6948222237
0,,Centre de santé Municipal de M'Badon,-3.9348771,5.3307248,node/6948222238
0,,Teminus M'Badon,-3.9323347,5.3286344,node/6948222239
0,,Teminus M'Badon,-3.9322612,5.3285142,node/6948270620
0,,Centre de santé Municipal de M'Badon,-3.9347577,5.3305385,node/6948270621
0,,Pharmacie,-3.9397017,5.3357956,node/6948270622
0,,Arrêt,-3.9451191,5.339027,node/6948270623
0,,Ambassade de Chine,-3.9418454,5.3329114,node/6948270624
0,,Arrêt,-3.9568537,5.3538285,node/6948270625
0,,Arrêt,-3.9368337,5.3327177,node/6948290580
0,,Bureau Bad,-3.9429814,5.3385823,node/6948290581
0,,[Arret sans nom],-3.9438068,5.3350024,node/6948290582
0,,Arrêt,-3.9767852,5.353946,node/6948466331
0,,Arrêt,-3.9695473,5.3560356,node/6948466332
0,,Arrêt,-3.9273548,5.3732347,node/6948466333
0,,Arrêt,-3.9221262,5.3744488,node/6948466334
0,,Kessé,-3.9116914,5.3738883,node/6948466335
0,,Syndicat,-3.9090387,5.3664705,node/6948466336
0,,Station TEXACO,-3.8946091,5.3613312,node/6948466337
0,,La Poste,-3.8895766,5.357652,node/6948466338
0,,Pharmacie du Marché,-3.8879555,5.357433,node/6948466339
0,,Sous-Prefecture de Bingerville,-3.8903531,5.3576379,node/6948466341
0,,Nouveau Goudron,-3.9285967,5.372677,node/6948466343
0,,Pharmacie les 7 Colonnes,-4.0026914,5.3455151,node/6948466345
0,,Arrêt,-3.9906777,5.3346312,node/6948695731
0,,Arrêt,-3.9758237,5.3396564,node/6948695732
0,,Arrêt,-3.9761442,5.3414919,node/6948695733
0,,Arrêt,-3.9751571,5.3438403,node/6948695734
0,,Arrêt,-3.975412,5.3470921,node/6948695735
0,,Arrêt,-3.9767209,5.3520693,node/6948695736
0,,Arrêt,-3.9760919,5.3530066,node/6948695738
0,,Arrêt,-3.9766203,5.35209,node/6948695739
0,,Arrêt,-3.9752188,5.3468223,node/6948695740
0,,Arrêt,-3.9750874,5.343802,node/6948695741
0,,Arrêt,-3.9760651,5.3416148,node/6948695742
0,,Arrêt,-3.9757586,5.3397193,node/6948695743
0,,Arrêt,-3.9754911,5.3385022,node/6948695744
0,,Arrêt,-3.9902714,5.3344937,node/6948695745
0,,Arrêt,-3.9957176,5.3349056,node/6948695746
0,,Warafa Assurance,-4.0157926,5.321664,node/6948706680
0,,Arrêt Résidence Nabil,-4.0152582,5.3184017,node/6948706681
0,,[Arret sans nom],-4.0092923,5.3044274,node/6948706682
0,,Terminus CHU Treichville,-4.0042001,5.2949249,node/6948791226
0,,Arrêt,-3.9679608,5.3565604,node/6948855820
0,,Arrêt,-3.9614752,5.3599399,node/6948855821
0,,Cité Millenium,-3.9289306,5.3717967,node/6948855822
0,,Arrêt,-3.9253854,5.3584311,node/6948855823
0,,Arrêt,-3.9247158,5.3556661,node/6948855824
0,,Arrêt,-3.924163,5.3532496,node/6948855825
0,,Collège Jeune Filles,-3.9233825,5.3498507,node/6948855826
0,,Oribat Cité Don Mello,-3.9225573,5.3397928,node/6948855827
0,,Arrêt,-3.9226348,5.3329467,node/6948855828
0,,Arrêt,-3.9191627,5.3282217,node/6948855829
0,,Paroisse,-3.9169304,5.3283086,node/6948855830
0,,EPP Abatta,-3.9161199,5.3267112,node/6948855831
0,,Arrêt,-3.923136,5.3342136,node/6948920956
0,,Arrêt,-3.9158679,5.3262131,node/6948920957
0,,EPP Abatta,-3.9161935,5.3267028,node/6948920958
0,,Paroisse,-3.9169358,5.3282218,node/6948920959
0,,Arrêt,-3.9227374,5.3329487,node/6948920960
0,,Arrêt,-3.9220896,5.3417243,node/6948920961
0,,Arrêt,-3.9222706,5.3443775,node/6948920962
0,,Arrêt,-3.9228521,5.3471041,node/6948920963
0,,Arrêt,-3.9242797,5.3532917,node/6948920964
0,,Arrêt,-3.9254397,5.3583733,node/6948920965
0,,Sodeci Abatta,-3.9258534,5.359984,node/6948920966
0,,Nouveau Goudron,-3.9301027,5.3722754,node/6948920967
0,,Arrêt,-3.968976,5.2579604,node/6951127812
0,,Mairie Port-Bouët,-3.9654422,5.2597086,node/6951127813
0,,[Arret sans nom],-3.9687383,5.2595919,node/6951127815
0,,Gare Sud,-4.0181731,5.3145654,node/6951127816
0,,Arrêt,-3.9533649,5.3373639,node/6951182059
0,,Arrêt,-3.9559445,5.3344449,node/6951182060
0,,Arrêt,-3.9570247,5.3308416,node/6951182061
0,,Arrêt,-3.9531144,5.3295658,node/6951182062
0,,Arrêt,-3.9535137,5.3296352,node/6951182064
0,,Arrêt,-3.9572031,5.330835,node/6951182065
0,,Arrêt,-3.952412,5.3414479,node/6951182066
0,,Arrêt,-3.9630926,5.2921887,node/6951224049
0,,Commissariat de Police du 6ᵉ,-3.9693582,5.2898905,node/6951224050
0,,Gare Nord,-4.0276527,5.3586694,node/6951224051
0,,Gare Koumassi,-3.9554248,5.2941431,node/6951939383
0,,Gare Nord,-4.0273499,5.3587923,node/6951939384
0,,Terminus 31 Remblais,-3.9635003,5.3024324,node/6952071069
0,,Trois Ampoules,-3.9623322,5.2975569,node/6952071070
0,,"BIAO, Treichville",-4.0109539,5.2988296,node/6952132224
0,,"Pizza, Marcory",-3.9883861,5.2884669,node/6952132225
0,,"Bernabé Parc à Fer, Boulevard de Marseille",-3.9855024,5.2853422,node/6952132226
0,,[Arret sans nom],-3.9824903,5.2786718,node/6952132227
0,,Église Notre-Dame d'Afrique,-3.9767262,5.2734369,node/6952132228
0,,Sept Villas,-3.9714865,5.2734089,node/6952132229
0,,Arrêt,-3.9672503,5.276028,node/6952132230
0,,Arrêt,-3.9434065,5.2486135,node/6952132232
0,,EPP Aéroport,-3.9386439,5.2544081,node/6952132233
0,,Aéroport,-3.934246,5.2536201,node/6952132234
0,,Carrefour Aéroport,-3.9450909,5.2469401,node/6952132235
0,,Cité ASECNA,-3.9409603,5.2544028,node/6952132240
0,,Arrêt,-3.9424355,5.2508117,node/6952132241
0,,Arrêt,-3.9435728,5.2480679,node/6952132242
0,,Maquis 5 sur 5,-3.947171,5.247278,node/6952132243
0,,Pharmacie Océan,-3.9610943,5.2567618,node/6952132244
0,,Abattoir Port-Bouët,-3.9627318,5.266498,node/6952132245
0,,Arrêt,-3.9751598,5.2726637,node/6952132246
0,,Arrêt,-3.9878453,5.28785,node/6952132247
0,,Arrêt,-3.9917104,5.2895893,node/6952132248
0,,Arrêt,-3.9954532,5.2912033,node/6952132250
0,,"BIAO, Treichville",-4.0104501,5.2984459,node/6952132251
0,,Gare Sud,-4.0182926,5.3144382,node/6952132252
0,,Arrêt,-3.9495367,5.3091986,node/6952200468
0,,Centre Médico-social,-3.9481486,5.3097742,node/6952200469
0,,Hôpital Général de Marcory,-3.9837456,5.3012025,node/6952200470
0,,Arrêt,-3.986865,5.3034286,node/6952200471
0,,Arrêt,-4.0094613,5.3042605,node/6952200472
0,,Arrêt,-4.007007,5.3052353,node/6952200475
0,,Arrêt,-3.9855715,5.3027926,node/6952200476
0,,Akromiambla-Terminus 32 Koumassi,-3.952005,5.3118954,node/6952200477
0,,Arrêt,-4.0471624,5.441531,node/6952244517
0,,Arrêt,-4.0559909,5.4436978,node/6952566208
0,,Arrêt,-4.0699545,5.4448793,node/6952566209
0,,Arrêt,-4.0708852,5.4490874,node/6952566210
0,,Arrêt,-4.0716147,5.4522514,node/6952566211
0,,Arrêt,-4.0718146,5.4532246,node/6952566212
0,,Arrêt,-4.0726206,5.4567491,node/6952566213
0,,Arrêt,-4.0734789,5.4606701,node/6952566214
0,,Arrêt,-4.0739724,5.4636378,node/6952566215
0,,Arrêt,-4.074022,5.4644695,node/6952566216
0,,Arrêt,-4.0738437,5.4679793,node/6952566217
0,,Arrêt,-4.0727828,5.4724295,node/6952566218
0,,Arrêt,-4.0716872,5.4769985,node/6952566219
0,,Arrêt,-4.0710461,5.4793881,node/6952566220
0,,Arrêt,-4.0703045,5.4821955,node/6952566221
0,,Arrêt,-4.0699115,5.4839777,node/6952566222
0,,Arrêt,-4.0692893,5.486354,node/6952566223
0,,Arrêt,-4.0680795,5.4911611,node/6952566224
0,,Arrêt,-4.0667948,5.4982644,node/6952566225
0,,Arrêt,-4.0740864,5.5001119,node/6952566226
0,,Arrêt,-4.0767123,5.5000518,node/6952566227
0,,Petit Café,-3.9734097,5.2862329,node/6954138437
0,,Arrêt,-3.9775054,5.2807083,node/6954138438
0,,Arrêt,-3.9804116,5.2823321,node/6954138439
0,,Arrêt,-4.0126625,5.300639,node/6954138440
0,,Agence Nationale de la Formation Professionnelle (AGEFOP),-3.9828832,5.28394,node/6954138442
0,,Arrêt,-3.9776556,5.2809293,node/6954138443
0,,UTTb Université Loko,-3.973057,5.2870755,node/6954138444
0,,Marché DjeKonan,-3.9693475,5.2892455,node/6954138445
0,,Arrêt,-3.9518099,5.3133129,node/6954138446
0,,CIE Koumassi,-3.9679319,5.2834138,node/6954511639
0,,Hôpital de Koumassi,-3.9686649,5.286559,node/6954511640
0,,[Arret sans nom],-4.0989914,5.3583583,node/6954926526
0,,[Arret sans nom],-4.1000086,5.3615502,node/6954926527
0,,[Arret sans nom],-4.0967993,5.3641759,node/6954926528
0,,Koumassi Soweto - Dépôt 5,-3.9531577,5.2859504,node/6955038705
0,,Pharmacie Bethanie,-3.9582532,5.2847586,node/6955038706
0,,Sation Lavage,-3.9611265,5.2840528,node/6955038707
0,,CIE Koumassi,-3.9680882,5.2836422,node/6955038708
0,,Hôpital de Koumassi,-3.9688808,5.2870421,node/6955038709
0,,Pharmacie Massarana,-3.984628,5.2996014,node/6955038710
0,,Gare Nord,-4.0275521,5.3587075,node/6955038711
0,,Cité Administrative,-4.0217512,5.3331711,node/6955514933
0,,Arrêt Pharmacie Palmeraie,-3.9598243,5.3635731,node/6955514934
0,,Arrêt,-3.9580205,5.3710263,node/6955514935
0,,Arrêt,-3.9587393,5.3720811,node/6955514936
0,,Cocody SCI Les Rosiers,-3.964382,5.3808935,node/6955514937
0,,Arrêt,-3.9598592,5.3727874,node/6955514938
0,,Arrêt,-3.9592516,5.3685488,node/6955514939
0,,Gare Sud,-4.0184346,5.3149553,node/6955514940
0,,Aéroport,-3.9341971,5.253474,node/6958966895
0,,Arrêt,-3.981805,5.2774525,node/6961370878
0,,Pharmacie de Bietry,-3.9788787,5.2744205,node/6961370879
0,,Arrêt Dr08,-3.9421921,5.2516684,node/6961370880
0,,Cité ASECNA,-3.9410589,5.2543801,node/6961370881
0,,[Arret sans nom],-4.0725361,5.3618139,node/6961643500
0,,[Arret sans nom],-4.0923724,5.373881,node/6961643501
0,,[Arret sans nom],-4.0945986,5.3718154,node/6961643502
0,,Amondji,-4.0858988,5.3396466,node/6963093974
0,,Arrêt,-4.0810166,5.3395998,node/6963093975
0,,Pont Vagabond,-4.0792436,5.3382505,node/6963093976
0,,Arrêt,-4.0747274,5.3403236,node/6963093977
0,,Gare Sud,-4.0181436,5.3147296,node/6963093979
0,,Saint André lavage,-4.0732643,5.3415106,node/6963093981
0,,Amondji,-4.0859069,5.3395197,node/6963093982
0,,Aghien 2 plateaux,-3.9928235,5.3883091,node/6964184463
0,,[Arret sans nom],-4.0044791,5.3359625,node/6964184464
0,,Aghien 2 plateaux,-3.9923066,5.3885302,node/6964184466
0,,Carrefour la Vie,-4.0021368,5.3502206,node/6964184467
0,,Arrêt Pharmacie Palmeraie,-3.9596674,5.3635871,node/6964502135
0,,BAE,-4.0846449,5.3609547,node/6966758103
0,,Arrêt,-4.0882243,5.3551851,node/6966758104
0,,Carrefour Antenne Ananeraie,-4.0957546,5.3549701,node/6966758105
0,,Oasis,-4.0988526,5.354878,node/6966758106
0,,Sorbonne,-4.0993729,5.3502259,node/6966758107
0,,Arrêt,-4.0997625,5.3462622,node/6966758108
0,,Arrêt,-4.1031267,5.333344,node/6966758109
0,,Arrêt,-4.1044571,5.3292232,node/6966758111
0,,Arrêt,-4.1004723,5.3441658,node/6966758112
0,,Arrêt,-4.0999784,5.3460138,node/6966758113
0,,Sorbonne,-4.0994869,5.3500978,node/6966758114
0,,Arrêt,-4.0994742,5.3529605,node/6966758115
0,,Oasis,-4.0992308,5.3549421,node/6966758116
0,,Arrêt,-4.0918869,5.3551971,node/6966758117
0,,Arrêt,-4.016671,5.3233545,node/6966849451
0,,Arrêt,-4.0138976,5.4486134,node/6966849452
0,,Hotel Communal Port-Bouët,-3.9637296,5.2613392,node/6966927285
0,,Wharf Port-Bouët,-3.9605525,5.2528723,node/6966927286
0,,Arrêt,-4.0132633,5.3027916,node/6966927287
0,,Arrêt,-4.0140968,5.4469386,node/6966942817
0,,Arrêt,-4.0166429,5.4381706,node/6966942818
0,,Arrêt,-4.0159589,5.4141149,node/6966942819
0,,Arrêt,-4.0164229,5.4069719,node/6966942820
0,,Arrêt,-4.0007964,5.2655592,node/6967070473
0,,Arrêt,-4.0085238,5.2772629,node/6967070474
0,,Arrêt,-4.0085185,5.279469,node/6967070475
0,,Arrêt,-4.0210712,5.3959876,node/6967070476
0,,Arrêt,-4.016604,5.4118438,node/6967070477
0,,Arrêt,-4.0178807,5.4197437,node/6967070478
0,,Arrêt,-4.0187565,5.4227157,node/6967070479
0,,Arrêt,-4.0289891,5.4356834,node/6967070480
0,,Arrêt,-4.0302558,5.4364023,node/6967070481
0,,Arrêt,-4.0319341,5.4370672,node/6967070482
0,,Arrêt,-4.0332256,5.4373075,node/6967070483
0,,Arrêt,-4.0362847,5.4377581,node/6967070484
0,,Arrêt,-4.0391982,5.4381539,node/6967074785
0,,PK 18 Agripac,-4.0485819,5.4435976,node/6967074787
0,,Arrêt,-4.0197301,5.4255661,node/6967158577
0,,Arrêt,-4.017465,5.4195782,node/6967158578
0,,Arrêt,-4.0226068,5.3053862,node/6967158579
0,,Pharmacie du Port,-4.0082905,5.2891307,node/6967158580
0,,Abobo Gendarmerie,-4.0212006,5.4269192,node/6968911549
0,,Arrêt,-4.0229219,5.4289586,node/6968911550
0,,Arrêt,-4.0812264,5.4078444,node/6968911551
0,,CHU de Yopougon,-4.0851445,5.3570551,node/6968911556
0,,Arrêt,-4.080236,5.3698106,node/6968911557
0,,Arrêt,-4.0777087,5.3746728,node/6968911558
0,,Arrêt,-4.0687166,5.4392253,node/6968911559
0,,Arrêt,-4.0793476,5.3423532,node/6969221528
0,,Gare Sud,-4.0177429,5.3141434,node/6969221530
0,,Feh Kessé,-3.9117702,5.3743039,node/6969371620
0,,Clinique Providence,-4.0097992,5.3472803,node/6969583471
0,,Supermarché Casino,-4.0106696,5.3451973,node/6969583472
0,,Gare Sud,-4.0185824,5.3147951,node/6969583474
0,,Gare Sud,-4.01752,5.3154387,node/6969583476
0,,Novotel,-4.0166201,5.3161731,node/6969583477
0,,[Arret sans nom],-4.0151837,5.3172748,node/6969583478
0,,Arrêt,-4.015578,5.3202726,node/6969583479
0,,Arrêt,-4.0192916,5.3209056,node/6969583480
0,,Arrêt,-4.0207359,5.3217388,node/6969583481
0,,Hôtel de Ville,-4.0207185,5.3233639,node/6969583482
0,,Arrêt,-4.0207171,5.3257514,node/6969583483
0,,Arrêt,-4.0207332,5.3278011,node/6969583484
0,,Cité Administrative,-4.0217525,5.3335937,node/6969620785
0,,Termunis 81/82,-3.985249,5.4031227,node/6970095632
0,,Arrêt,-3.9859892,5.3971746,node/6970095633
0,,Pharmacie Les 7 Lys,-3.9875704,5.3841166,node/6970095634
0,,Arrêt,-3.979157,5.3643008,node/6970095635
0,,Riviera 2,-3.977256,5.3542958,node/6970095637
0,,Arrêt,-3.978931,5.3623286,node/6970095638
0,,DGI,-3.9866585,5.3924174,node/6970095639
0,,Termunis 81/82,-3.9853522,5.4031427,node/6970095641
0,,Arrêt,-3.9506122,5.3554107,node/6970366278
0,,Arrêt,-3.950804,5.3552038,node/6970366281
0,,Arrêt,-3.9482653,5.3652007,node/6970366282
0,,Arrêt,-3.9522095,5.3643008,node/6970366283
0,,Arrêt,-4.0181825,5.403546,node/6979256984
0,,Arrêt,-3.9848581,5.4038146,node/6979431044
0,,Arrêt,-3.977142,5.39671,node/6979431045
0,,Arrêt,-3.9754421,5.3902524,node/6979431046
0,,Arrêt,-3.9747639,5.387788,node/6979431047
0,,Arrêt,-3.9737651,5.3839137,node/6979431048
0,,Arrêt,-3.9734902,5.3828575,node/6979431049
0,,Arrêt,-3.9627425,5.3749859,node/6979431051
0,,Arrêt,-3.984727,5.4036825,node/6979431052
0,,Arrêt,-3.9195342,5.3281463,node/6979712503
0,,Arrêt,-3.9224169,5.3318471,node/6979712504
0,,Arrêt,-3.9227159,5.3394623,node/6979712505
0,,Arrêt,-3.923066,5.3479974,node/6979712506
0,,Arrêt,-3.9234415,5.3497346,node/6979712507
0,,Arrêt,-3.924564,5.3546363,node/6979712508
0,,Arrêt,-3.9253713,5.3579717,node/6979712509
0,,Arrêt;Sodeci,-3.9221386,5.3601,node/6979712510
0,,Arrêt,-3.9265072,5.3622665,node/6979712511
0,,Arrêt,-3.9268023,5.3635464,node/6979712512
0,,Arrêt,-3.928193,5.3687351,node/6979712513
0,,Arrêt,-3.9379911,5.3703787,node/6979712514
0,,Arrêt,-3.9279167,5.3679286,node/6979712515
0,,Arrêt,-3.9227716,5.3470093,node/6979712516
0,,Arrêt,-3.9223344,5.3449917,node/6979712517
0,,Arrêt,-3.9218402,5.3428352,node/6979712518
0,,Arrêt,-3.9221104,5.3413324,node/6979712519
0,,Arrêt,-3.9344399,5.2452454,node/6980029236
0,,Arrêt,-3.9723435,5.2569228,node/6980029237
0,,Bank Of Africa,-4.0062828,5.2684644,node/6980029238
0,,Arrêt,-4.0139727,5.2646043,node/6980029239
0,,[Arret sans nom],-4.0112543,5.2587043,node/6980029241
0,,[Arret sans nom],-4.0138916,5.2648347,node/6980029242
0,,[Arret sans nom],-4.006083,5.2686721,node/6980029243
0,,Terminus Port-Bouët Phare,-3.9560491,5.2509145,node/6980258130
0,,Arrêt,-4.0032211,5.3433974,node/6980521688
0,,Arrêt,-3.9976139,5.3628414,node/6980521689
0,,Arrêt,-4.0057075,5.399921,node/6980521690
0,,Arrêt,-4.0065511,5.4015232,node/6980521691
0,,Arrêt,-4.0065081,5.4034191,node/6980521692
0,,Abobo Gendarmerie,-4.0192406,5.4241696,node/6980521695
0,,Arrêt,-4.0134712,5.4185708,node/6980521696
0,,Arrêt,-4.0074744,5.4155561,node/6980521697
0,,Arrêt,-4.0062694,5.4135434,node/6980521698
0,,Arrêt,-4.0064277,5.4035807,node/6980521699
0,,Arrêt,-3.9990999,5.3998663,node/6980521700
0,,Arrêt,-3.992904,5.3987194,node/6980521701
0,,Arrêt,-3.9927913,5.387006,node/6980521702
0,,Arrêt,-3.9934525,5.3819122,node/6980521703
0,,Arrêt,-3.9718473,5.2578469,node/7025968250
0,,Arrêt,-3.9994057,5.2642798,node/7025975082
0,,Arrêt,-4.003783,5.2682835,node/7025975083
0,,Arrêt,-4.10439,5.3292373,node/7025992286
0,,[Arret sans nom],-4.0083388,5.2771214,node/7026069662
0,,Arrêt,-4.0149826,5.341978,node/7026279881
0,,Arrêt,-3.9547831,5.2855772,node/7026364429
0,,[Arret sans nom],-3.9641359,5.2850417,node/7026390486
0,,Océan Espadon,-3.9616643,5.2566557,node/7028872830
0,,Gare Nord,-4.0278525,5.3588917,node/7028872831
0,,Cité étudiante Riviera 2,-3.9736383,5.3534289,node/7043603291
0,,Carrefour Antenne Ananeraie,-4.0957761,5.3550743,node/7043642288
0,,Gare Lagunaire Yopougon STL,-4.0344058,5.3109066,node/7044975088
0,,Gare Lagunaire Plateau STL,-4.0170439,5.3143858,node/7044975089
0,,Gare Lagunaire Treichville STL,-4.0100701,5.3135839,node/7044975090
0,,Gare Lagunaire Koumassi STL,-3.952125,5.315627,node/7046900012
0,,Gare Lagunaire M'pouto STL,-3.9603245,5.3240676,node/7046900013
0,,Gare Lagunaire de Treichville Sotra,-4.015859,5.3108107,node/7046964142
0,,Gare Lagunaire d’Abobo-Doumé Sotra,-4.0347196,5.3107009,node/7046964143
0,,Gare Lagunaire du Plateau Sotra,-4.0176728,5.3140753,node/7047063325
0,,Gare lagunaire de Blockauss Sotra,-4.0021442,5.3212342,node/7047101136
0,,Arrêt,-4.0016118,5.3562773,node/7047930662
0,,Arrêt,-3.9856634,5.4096636,node/7047930663
0,,Syndicat,-3.9091802,5.3665112,node/7048020780
0,,Kessé,-3.9119428,5.3739184,node/7048020781
0,,Camp Millitaire d'Akouédo,-3.9446417,5.3676562,node/7048020782
0,,Église Apostolique de Côte d'Ivoire,-3.9495032,5.3652501,node/7048020783
0,,Yopougon Gesco - Terminus du bus 34,-4.1020069,5.3672056,node/7049258139
0,,Arrêt,-4.0973914,5.365903,node/7049258140
0,,Arrêt,-4.0976979,5.3634963,node/7049258141
0,,Arrêt,-4.1003995,5.3608051,node/7049258142
0,,Arrêt,-4.0998034,5.3587021,node/7049258143
0,,Mamie Adjoua,-4.0940326,5.3582214,node/7049258144
0,,Arrêt,-4.088628,5.3552799,node/7049258145
0,,Arrêt,-4.0120965,5.3009034,node/7049730219
0,,EPP Aéroport,-3.9392397,5.2545644,node/7049730220
0,,Sept Villas,-3.9712512,5.2734289,node/7049730221
0,,Arrêt,-3.9852691,5.2844982,node/7049730222
0,,Carrefour la Vie,-4.0031956,5.3485715,node/7051810979
0,,Terminus Liberté,-4.0128221,5.3528057,node/7051810981
0,,École de Police,-3.9885668,5.3503194,node/7051810982
0,,Riviera 2,-3.9797437,5.3530834,node/7051810984
0,,Station Total Riviera 2,-3.9788968,5.3529853,node/7051811086
0,,Vallon,-3.9909077,5.35446,node/7051811087
0,,Escalier,-4.0043946,5.3546991,node/7051811088
0,,Adjamé Liberté,-4.0146225,5.3533605,node/7051811090
0,,Gare Anono,-4.0228106,5.3498521,node/7051905145
0,,Station,-4.0223607,5.3495777,node/7051905146
0,,Banfora,-4.0227932,5.347757,node/7051905147
0,,Saint Michel,-4.0227107,5.3464705,node/7051905148
0,,Eglise Saint Michel,-4.0226899,5.3451372,node/7051905149
0,,Eglise,-4.0234597,5.343631,node/7051905150
0,,SODEFOR,-3.9993949,5.3490415,node/7051905151
0,,Carrefour CHU,-3.9919236,5.3494341,node/7051905152
0,,Arrêt,-3.9869374,5.3505471,node/7051905153
0,,Terminus Anono,-3.9724706,5.3445751,node/7051905154
0,,Marché,-3.9744008,5.3452895,node/7051905155
0,,Terminus Anono,-3.9724521,5.34455,node/7051905157
0,,Arrêt,-3.9769623,5.3504075,node/7051905159
0,,Au Lavage,-3.9778259,5.3500924,node/7051905160
0,,A la Mosquée,-3.9809205,5.3510311,node/7051905161
0,,Carrefour CHU,-3.9905101,5.349577,node/7051905162
0,,Gare Anono,-4.0228461,5.3497766,node/7051905163
0,,École de Police,-3.989405,5.3501191,node/7052162358
0,,Carrefour Saint Michel,-4.0226577,5.3454176,node/7052162359
0,,A La Caisse,-4.0216117,5.3418391,node/7052162360
0,,Akouédo,-3.9457347,5.3673438,node/7052162361
0,,Playce Palmeraie,-3.9324155,5.3719142,node/7052162362
0,,Nouveau Goudron,-3.9287925,5.3728529,node/7052162363
0,,Kessé,-3.9122875,5.3743603,node/7052162364
0,,CIE,-3.8981583,5.3602229,node/7052162365
0,,Station Texaco,-3.8947412,5.3613609,node/7052162366
0,,Collège Moderne,-3.8882764,5.3575885,node/7052162367
0,,Carrefour Bangui,-3.8845441,5.3573081,node/7052162369
0,,Terminus Carrefour Bangui,-3.8843443,5.357718,node/7052162370
0,,Carrefour Bangui,-3.8844985,5.3571933,node/7052162371
0,,Collège Moderne,-3.887693,5.3574283,node/7052162372
0,,Faya,-3.9374359,5.3703106,node/7052162373
0,,Gare en haut,-4.0224532,5.350286,node/7052162375
0,,Clinique Fraternité,-4.0218316,5.3493033,node/7052340401
0,,Escalier,-4.0042631,5.3548993,node/7052340402
0,,Vallon-1er Pont,-3.9904813,5.3546376,node/7052340403
0,,Gare en haut,-4.0227482,5.3504162,node/7052340404
0,,Terminus M'Pouto,-3.9542839,5.3271876,node/7052340405
0,,Terminus M'Pouto,-3.9543486,5.3271989,node/7052340406
0,,A l'Arrêt,-3.9579682,5.3310206,node/7052340407
0,,Banny,-3.9557567,5.3347781,node/7052340408
0,,Maison Blanche,-3.9537035,5.337175,node/7052340409
0,,Mel Théodore,-3.952691,5.3452694,node/7052340410
0,,Carrefour Lycée Français,-3.9545229,5.3508856,node/7052340411
0,,Cap Nord,-3.9676865,5.3564619,node/7052340412
0,,Gare en haut,-4.0226343,5.3503214,node/7052340415
