stop_lon,parent_station,stop_name,location_type,stop_id,stop_lat
-4.0893341,,Yopougon Niangon-Terminus 27,0,node/768587345,5.3164439
-4.0804016,,Yopougon Sideci - Terminus 42,0,node/768587373,5.3198783
-4.0148847,,Gare lagunaire Aqualines du Plateau,0,node/1227889258,5.3158647
-4.0171229,,Agban,0,node/2381298633,5.3608351
-4.018311,,Fraternité Matin,0,node/2444131222,5.3438972
-4.0732432,,Saint André lavage,0,node/2460519991,5.3423485
-4.0238611,,Arrêt,0,node/2493226931,5.3413464
-3.9551669,,Gare Koumassi,0,node/2493730483,5.2942027
-3.945225,,Terminus 05 Lycée Municipal de Koumassi,0,node/2760843854,5.3121324
-4.0832298,,Terminus bus 47,0,node/2948146673,5.3396167
-4.0912463,,Arrêt du Maroc,0,node/3067761599,5.3396157
-4.0973067,,Mosquée du Maroc,0,node/3067766555,5.3400629
-4.0738295,,Saint André,0,node/3075945505,5.3423254
-4.0668084,,[Arret sans nom],0,node/3137208051,5.3427541
-4.0709484,,2 poteaux,0,node/3137217828,5.3436761
-4.0679411,,Newton,0,node/3137243386,5.3446768
-3.979568,,Riviéra 2,0,node/3145728412,5.3531115
-3.9487208,,Eglise Evangélique Internationnal Foursquare,0,node/3218806159,5.3117096
-4.0037743,,Saint Jean,0,node/3326195828,5.3368705
-4.0884501,,Pharmacie Port-Bouët II,0,node/3666057101,5.3470567
-4.0734547,,Figayo,0,node/3950172145,5.3493507
-3.9973698,,"ENA Cocody, Boulevard Latrille",0,node/4029208102,5.3616481
-3.9787018,,Pharmacie de Bietry,0,node/4107240891,5.2742845
-4.061373,,Terminus 85,0,node/4411562346,5.3296306
-4.004071,,Terminus CHU Treichville,0,node/4999458824,5.2948647
-4.011123,,Ex-pharmacie Mockey,0,node/5057165424,5.30185
-4.0039817,,Carrefour St Jean,0,node/5057297311,5.3369029
-3.9933116,,Terminus 704 abobo Belleville,0,node/5068855021,5.4158258
-3.940785,,Terminus M'pouto - CIAD,0,node/5143730222,5.328322
-3.9410686,,Terminus M'pouto - CIAD,0,node/5143751833,5.3284442
-4.0711802,,[Arret sans nom],0,node/5281604034,5.3437686
-4.0374018,,Gare lagunaire Aqualines Yopougon,0,node/5390465849,5.3078259
-4.0205264,,Stif,0,node/5414376221,5.3555889
-4.0623618,,Complexe sportif de Yopougon,0,node/5739489700,5.3415133
-4.073208,,Figayo,0,node/5927302128,5.3493427
-4.1003513,,Arrêt,0,node/5934409413,5.3419897
-4.1020437,,Yopougon Gesco - Terminus du bus 34,0,node/5936892363,5.3671401
-3.967352,,Pharmacie Val de Grace,0,node/5953580661,5.3802448
-3.9593077,,Carrefour Palmeraie,0,node/5953580667,5.3618751
-3.9643623,,Station Shell Riviera 3,0,node/5953580668,5.3582581
-3.9498433,,CIAD,0,node/5954541435,5.3286164
-3.9902179,,Boulevard de France,0,node/5954541439,5.3347766
-4.0024723,,Carrefour de la Vie,0,node/5954541440,5.3492831
-3.991548,,Carrefour 22ème,0,node/5957239662,5.3989296
-3.9931428,,Carrefour Opéra,0,node/5957239663,5.3855754
-3.9975968,,ENA,0,node/5957239665,5.3615936
-4.0050058,,Hotel Ivoire,0,node/5957239666,5.328578
-3.9860303,,Pharmacie Les Laureades,0,node/5958266385,5.3975314
-3.9881294,,Petro Ivoire 7è Tranche,0,node/5958266386,5.3806539
-3.9845519,,Commisariat 30è Art.,0,node/5958266387,5.373758
-3.9813021,,Terminus 202 Attoban,0,node/5958266388,5.3701109
-3.9797109,,Parmacie St Bernard,0,node/5958266389,5.3673274
-3.9782153,,Pharmacie St Ange,0,node/5958266390,5.3573659
-3.9779596,,Collège André Malraux,0,node/5958266391,5.3558222
-3.9773239,,Riviera 2,0,node/5958266392,5.3541895
-4.0207447,,Saint Paul Plateau,0,node/6098848385,5.3247785
-4.0205509,,Hôtel de Ville,0,node/6136850508,5.3238162
-4.0205339,,Hotel de Ville,0,node/6136850509,5.3234932
-4.0205256,,Terminus Hotel de Ville,0,node/6136858285,5.3226907
-4.021322,,Cathédrale Saint paul,0,node/6195348341,5.3317403
-4.0333199,,Terminus bus 51/52,0,node/6281030720,5.4148488
-4.0144508,,Gare Abobo Sogephia,0,node/6474137921,5.4351428
-4.0125419,,BICICI,0,node/6474137923,5.4364247
-4.0147435,,Cours Sociaux,0,node/6474137925,5.4382745
-4.019424,,Avenue Kaza,0,node/6474137927,5.4381179
-4.0202491,,Camp Commando,0,node/6474137929,5.4355472
-4.0200922,,Station Shell,0,node/6474137931,5.4306474
-4.0198488,,Gendarmerie Abobo,0,node/6474137932,5.4263959
-4.0187446,,Terminus Gendarmerie Abobo,0,node/6474137934,5.4234101
-4.0166455,,2ème Arrêt,0,node/6474137936,5.4171616
-4.015971,,Banco,0,node/6474137938,5.4131456
-4.0160152,,Anador,0,node/6474137940,5.4089746
-4.0207427,,Université Nangui Abrogoua,0,node/6474137942,5.392647
-4.0255918,,Macaci,0,node/6474137944,5.3774907
-4.027655,,Gare Nord,0,node/6474137946,5.3592442
-4.0274455,,Gare Nord,0,node/6474137948,5.3591608
-4.0257671,,Grande Mosquée Adjamé,0,node/6474137950,5.3533564
-4.0256668,,Foire de Chine,0,node/6474137952,5.347769
-4.0259753,,Mairie d'Adjamé,0,node/6474137954,5.3431984
-4.0238205,,Terminus tours Administratives,0,node/6474137956,5.3312372
-4.0238801,,Immeuble Sogefiha,0,node/6474137958,5.3278045
-4.0181049,,Gare Sud,0,node/6474137967,5.3145043
-4.019718,,Présidence,0,node/6474137979,5.3179651
-4.0197472,,Galerie du Parc,0,node/6474137980,5.3225013
-4.0247204,,Camp Galliéni,0,node/6474137981,5.3339569
-4.026107,,Institut National de la Santé Publique,0,node/6474137982,5.3386571
-4.0260496,,Mairie d'Adjamé,0,node/6474137983,5.343713
-4.0258452,,Marché Forum,0,node/6474137984,5.3459921
-4.0255664,,Pharmacie du Banco,0,node/6474138985,5.3503682
-4.0259071,,Grande Mosquée Adjamé,0,node/6474138986,5.3534527
-4.028099,,Gare Nord,0,node/6474138987,5.3586829
-4.0263861,,Macaci,0,node/6474138988,5.3765774
-4.021035,,Filtisac,0,node/6474138989,5.3906844
-4.0162969,,Anador,0,node/6474138990,5.4085961
-4.0162419,,Banco,0,node/6474138991,5.4135848
-4.0173344,,Saint-Joseph 2ème Arrêt,0,node/6474138992,5.4183764
-4.0190818,,Terminus Gendarmerie Abobo,0,node/6474138993,5.4237125
-4.020231,,Bar Ivoire Abobo,0,node/6474138994,5.4315506
-4.0203886,,DGI Abobo,0,node/6474138995,5.4363436
-4.0189201,,Avenue Kaza,0,node/6474138996,5.4382274
-4.0138587,,Carrefour Akeïkoi,0,node/6474138997,5.4383936
-4.0190673,,Terminus Gare Sud,0,node/6474138999,5.3149589
-4.0127537,,Cité Universitaire Abobo,0,node/6474139031,5.4350792
-4.0154322,,Quai 15,0,node/6474139033,5.4354761
-3.9641507,,Station Shell Riviera 3,0,node/6815808830,5.3580852
-3.9591336,,Carrefour Palmeraie,0,node/6815808831,5.3620442
-3.9744202,,CNPS 9ème Tranche,0,node/6815808833,5.3865761
-3.9780418,,Marché COCOVICO,0,node/6815808834,5.4010646
-3.9618125,,Quick Market,0,node/6815808839,5.3738506
-3.9618581,,Quick Market,0,node/6815808840,5.3737728
-3.9635563,,Commissariat 35è Art.,0,node/6815808842,5.3776142
-3.9745308,,CNPS 9ème Tranche,0,node/6815808843,5.3866021
-3.9781939,,Marché COCOVICO,0,node/6815808844,5.4010482
-3.9587098,,Pharmacie du bonheur,0,node/6815808845,5.3698807
-3.9725319,,Groupe Scolaire St Marc,0,node/6815808846,5.383206
-3.9692172,,Camp Commando de Koumassi,0,node/6819328985,5.282599
-3.9707407,,Grand carrefour de Koumassi,0,node/6819329085,5.2892136
-3.9741109,,Hôtel Ibis Marcory,0,node/6819329086,5.2921087
-3.973691,,Hôtel Ibis Marcory,0,node/6819329185,5.2916293
-3.9897184,,Chimtec Grand carrefour Marcory,0,node/6819329285,5.3008419
-3.9767155,,Ambassade des USA,0,node/6820855646,5.335819
-3.9728877,,Hotel du Golf,0,node/6820855647,5.3309825
-3.9730064,,Hotel du Golf,0,node/6820855648,5.3310297
-3.9579229,,Ex Terminus Sotra;Carrefour Sol Beni,0,node/6820855649,5.3312498
-4.021605,,Cathédrale Saint paul,0,node/6831076677,5.332764
-4.0205671,,Église Méthodiste Unie de Côte d'Ivoire,0,node/6831076678,5.3299678
-4.0185085,,Gare Sud,0,node/6831076682,5.3148704
-3.9867521,,Cap Sud,0,node/6832290086,5.2988832
-4.0022393,,Gare de bassam,0,node/6899034705,5.2996481
-3.9997862,,Gendarmerie,0,node/6899034706,5.3004143
-4.0037983,,Notre-dame,0,node/6899034707,5.303315
-4.005186,,Pharmacie Nanan Yamousso,0,node/6899034708,5.3072484
-4.0061407,,Après le pont,0,node/6899034709,5.3099574
-4.0160603,,Adjamé liberté,0,node/6899034710,5.3534116
-4.014858,,Adjamé liberté,0,node/6899053345,5.3534437
-4.0120307,,Gare de Bingerville,0,node/6899053346,5.3535364
-4.0152949,,Feux du plateau,0,node/6899053347,5.325075
-4.0061218,,Nanan Yamousso,0,node/6899053348,5.3101491
-4.0024275,,Gare de bassam,0,node/6899053349,5.2996797
-4.0174383,,Abobo Gare Mairie,0,node/6899241573,5.4200067
-4.0159818,,Mobil,0,node/6899241574,5.4143755
-4.0215029,,Lavage,0,node/6899241575,5.3846161
-4.0257575,,Macaci,0,node/6899241576,5.37725
-4.0164004,,Adjamé Liberté,0,node/6899241577,5.3543459
-4.0212174,,Marché Gouro,0,node/6899264970,5.349107
-4.0163905,,Adjamé Liberté,0,node/6899264971,5.3547097
-4.016791,,Station Total,0,node/6899264972,5.358734
-4.0171184,,Abobo Gare Mairie,0,node/6899264973,5.4215493
-4.0153363,,Carrefour Marché,0,node/6902638988,5.4195759
-4.0135168,,Petro Ivoire,0,node/6902638989,5.4186048
-4.0101975,,Au Bar,0,node/6902638990,5.4168519
-4.0080786,,Petit Carrefour,0,node/6902638991,5.4157998
-4.0066972,,Samaké,0,node/6902638992,5.4152517
-4.0064894,,Azur,0,node/6902638993,5.3994804
-4.0070352,,Panneau ZOO,0,node/6902638994,5.3780522
-4.0157753,,Abobo Gare Mairie,0,node/6902638995,5.4197843
-4.0117095,,Ciné Cool,0,node/6902638996,5.4176548
-4.0062697,,Boulangerie Samake,0,node/6902638997,5.4144283
-4.0062877,,Menuiserie,0,node/6902638998,5.410863
-4.0063067,,Tchapatcha,0,node/6902638999,5.4101067
-4.0063409,,Chaine Avion,0,node/6902639000,5.4092677
-4.0063993,,Pharmacie Dokui,0,node/6902639001,5.4051188
-4.0064176,,SODECI,0,node/6902639002,5.4036347
-4.0064567,,Étage Noir,0,node/6902639003,5.4020967
-4.0064867,,Mobil,0,node/6902639004,5.4001879
-4.006353,,Arrêt Dokui,0,node/6902639005,5.3968179
-4.005793,,Ancien Feu,0,node/6902639006,5.3929293
-4.005732,,Bangui,0,node/6902639007,5.3872276
-4.0060126,,Vidange,0,node/6902639008,5.3851864
-4.0063262,,HMA,0,node/6902639009,5.382931
-4.0118134,,Carrefour paillet,0,node/6902639010,5.3721147
-4.0157876,,Carrefour 2 Plateaux,0,node/6902639011,5.3653117
-4.0160705,,Gare des gbakas d’Abobo par le zoo,0,node/6902639012,5.3553627
-4.0136214,,Petro Ivoire,0,node/6902868224,5.4184847
-4.0120067,,Ciné Cool,0,node/6902868225,5.4176463
-4.0102981,,Au Bar,0,node/6902868226,5.4167077
-4.0065403,,Pharmacie Dokui,0,node/6902868227,5.4051935
-4.0065873,,SODECI,0,node/6902868228,5.4036701
-4.0066315,,Étage Noir,0,node/6902868229,5.40212
-4.0066597,,Mobil,0,node/6902868230,5.4002027
-4.0066034,,Azur,0,node/6902868231,5.3994577
-4.0064518,,Arrêt Dokui,0,node/6902868232,5.3965911
-4.0059301,,Ancien Feu,0,node/6902868233,5.3928327
-4.005859,,Bangui,0,node/6902868234,5.387253
-4.0061326,,Vidange,0,node/6902868235,5.3852715
-4.0064505,,HMA,0,node/6902868236,5.3829176
-4.0122239,,Carrefour paillet,0,node/6902868237,5.3716859
-4.0159576,,Carrefour 2 Plateaux,0,node/6902868238,5.365405
-4.0168128,,Willy Agban,0,node/6902868239,5.3633371
-4.0152077,,Cimetière,0,node/6902868240,5.3668297
-4.0094557,,CIE,0,node/6902868241,5.3765337
-4.0070149,,ZOO,0,node/6902868242,5.3789939
-4.0056173,,Eglise,0,node/6902868243,5.3900553
-4.0099567,,Pharmacie Racines,0,node/6902868244,5.41329
-4.0160257,,Abobo Gare Mairie,0,node/6902868245,5.4197639
-4.0135154,,Christine Bar,0,node/6902975747,5.4500232
-4.0109926,,Terminus Akéikoi village,0,node/6902975748,5.4607326
-4.0107733,,A l'école,0,node/6902975749,5.45899
-4.0112928,,Destin,0,node/6902975750,5.455207
-4.0119566,,Monnaie,0,node/6902975751,5.4542173
-4.0128592,,André Bar,0,node/6902975752,5.4528753
-4.0133357,,Carrefour marché,0,node/6902975753,5.4510493
-4.0143571,,A l'étage,0,node/6902975754,5.446249
-4.0141843,,Boulangerie,0,node/6902975755,5.4394513
-4.0140378,,Carrefour Akéikoi,0,node/6902975756,5.4384053
-4.0161726,,Gare Gbaka Akeïkoi,0,node/6902975757,5.4225885
-4.0134484,,Carrefour marché,0,node/6903084141,5.4510779
-4.0129173,,André Bar,0,node/6903084142,5.4530404
-4.0120751,,Monnaie,0,node/6903084143,5.4542793
-4.0142825,,Au goudron,0,node/6903097494,5.438503
-4.0160694,,Gare Abobo,0,node/6903097495,5.4227551
-4.013945,,Au tournant,0,node/6903097496,5.4230451
-4.0146817,,Au Feu,0,node/6903097497,5.4278782
-4.0124107,,Célibataire,0,node/6903097498,5.433455
-4.0124925,,JAUG,0,node/6903097499,5.4352003
-4.0135883,,Cité,0,node/6903097500,5.4383233
-4.0138345,,Boulangerie,0,node/6903097501,5.449017
-4.0136722,,Christine Bar,0,node/6903097502,5.4500084
-4.01134,,Destin,0,node/6903097503,5.4552984
-4.0109968,,A l'ecole,0,node/6903097504,5.4594779
-4.0111868,,Terminus Akéikoi Village,0,node/6903097505,5.460775
-4.0144891,,Mosquée,0,node/6903193216,5.4429021
-4.0144891,,A l'étage,0,node/6903193217,5.4463091
-4.0165181,,Abobo Gare Mairie,0,node/6903268819,5.42194
-4.0163197,,Gare Abobo Kennedy-Marché/ Mosquée Ado,0,node/6903268820,5.4223082
-4.0100057,,Station,0,node/6903268821,5.4211585
-4.0015221,,Kennedy Marché,0,node/6903268822,5.4236887
-4.011717,,Mosquée,0,node/6903296476,5.4221255
-4.0060106,,Carrefour Kennedy,0,node/6903296477,5.4186623
-4.0059221,,Carrefour Kennedy,0,node/6903296478,5.4186129
-4.0039185,,Makan Traoré,0,node/6903296479,5.4213432
-4.0015453,,Au marché,0,node/6903296480,5.4236156
-4.0021714,,A Gauche,0,node/6903296481,5.423623
-4.0037249,,Makan Traoré,0,node/6903296482,5.4214359
-3.9324706,,Cocody Riviera M'badon,0,node/6903347574,5.3286546
-3.9332267,,Nouveau marché,0,node/6903347575,5.3293417
-3.9339946,,Ancien marché,0,node/6903347576,5.329969
-3.9350317,,Centre de santé Municipal de M'Badon,0,node/6903347577,5.3307517
-3.9352626,,La ferme,0,node/6903347578,5.331008
-3.9393933,,Pharmacie,0,node/6903347579,5.3353839
-3.9427407,,2 poteaux,0,node/6903347580,5.3384154
-3.945032,,Antenne,0,node/6903347581,5.339948
-3.9457017,,Carrefour Akouédo,0,node/6903347582,5.345935
-3.9471733,,École,0,node/6903347583,5.3461517
-3.9505483,,2ème rond-point,0,node/6903347584,5.3458217
-4.0227501,,Gare en haut,0,node/6903370485,5.3503568
-4.0100339,,Station,0,node/6903374200,5.4210882
-4.00729,,Immeuble Cercueil,0,node/6903374201,5.4196516
-4.0074563,,Immeuble Cercueil,0,node/6903374202,5.4195595
-3.9978515,,Terminus mosquée Ado Kenedy,0,node/6903397403,5.4234508
-3.9978489,,A l'école,0,node/6903397404,5.4215774
-3.9979409,,[Arret sans nom],0,node/6903397405,5.4198617
-3.9980283,,Dahico,0,node/6903397406,5.4185867
-3.9992242,,Étage Noir,0,node/6903397407,5.4157689
-4.0059533,,Samake,0,node/6903406997,5.415578
-4.0037419,,Eglise,0,node/6903406998,5.4156671
-4.0037763,,Eglise,0,node/6903504058,5.415458
-4.0007226,,Monastère,0,node/6903504059,5.4155835
-4.0008192,,Monastère,0,node/6903504060,5.415434
-3.999403,,Étage Noir,0,node/6903504061,5.4157731
-3.9981732,,Dahico,0,node/6903504062,5.4185995
-4.0272132,,Hôtel du centre,0,node/6903525051,5.4339087
-4.0337387,,A la Pompe,0,node/6903525052,5.437375
-4.0360617,,Dépôt,0,node/6903525053,5.4377181
-4.0444772,,Anokoi,0,node/6903525054,5.4390697
-4.0444823,,Anokoi,0,node/6903525055,5.439303
-4.0479148,,Marahoué,0,node/6903525056,5.4422211
-4.0487972,,Agripac,0,node/6903525057,5.4439581
-4.0509604,,Terminus,0,node/6903525058,5.447775
-4.0508555,,Terminus,0,node/6903525059,5.4479797
-4.0489498,,Agripac,0,node/6903525060,5.4446545
-4.0477433,,Marahoué,0,node/6903525061,5.4425017
-4.0360937,,Dépôt,0,node/6903525062,5.4379717
-4.033852,,A la Pompe,0,node/6903525063,5.4376377
-4.030245,,Marché de Nuit,0,node/6903525064,5.4367133
-4.026894,,Hôtel du centre,0,node/6903525065,5.4340417
-4.018191,,Abobo Gare,0,node/6903525066,5.4217034
-4.0206447,,Complexe,0,node/6903535584,5.3489387
-4.0224464,,Gare en haut,0,node/6903544086,5.350348
-4.0180948,,Maternité,0,node/6903544087,5.3481387
-4.014163,,Adjamé Liberté,0,node/6903544088,5.3521055
-4.0029137,,2ème pont,0,node/6903544089,5.3547793
-3.9339759,,Marché,0,node/6903544090,5.3301187
-4.0203577,,Gendarmerie,0,node/6903602207,5.4263231
-4.0233336,,Mosquée Blanche,0,node/6903602208,5.4298704
-4.0262471,,Solibra,0,node/6903602209,5.4332219
-4.0288774,,Château,0,node/6903602210,5.4359152
-4.0383071,,A l'escalier,0,node/6903602211,5.4383388
-4.0521369,,PK 18 ancien marché,0,node/6903602212,5.4497913
-4.0184916,,Gare abobo,0,node/6903602213,5.4220421
-4.0204342,,Gendarmerie,0,node/6903602214,5.4260466
-4.0208376,,Gendarmerie Avant le Feu,0,node/6903602215,5.426524
-4.0236152,,Mosquée Blanche,0,node/6903602216,5.4297276
-4.0264367,,Solibra,0,node/6903602217,5.4330817
-4.0290698,,Château,0,node/6903602218,5.4357519
-4.0306363,,Marché de Nuit,0,node/6903602219,5.4365893
-4.0384581,,A l'escalier,0,node/6903602220,5.4380495
-4.0411411,,Nouvelle Gare,0,node/6903602221,5.4382834
-4.0493193,,Agripac Avant le Feu,0,node/6903602222,5.4448006
-4.0520966,,Station Total,0,node/6903602223,5.4493883
-4.052542,,PK 18 ancien marché,0,node/6903602224,5.4499639
-3.9761316,,Attoban camp,0,node/6903639366,5.370557
-3.9776678,,Escalier,0,node/6903639367,5.3694267
-3.9794185,,Pharmacie Saint Bernard,0,node/6903639368,5.3673899
-3.9793174,,Carrefour Garage,0,node/6903639369,5.3658448
-3.9792552,,Polyclinique Sacré-Coeur,0,node/6903639370,5.365069
-3.9790994,,Jules ferry,0,node/6903639371,5.3642087
-3.9788028,,Hôtel Manhatan,0,node/6903639372,5.362115
-3.978316,,Doraville,0,node/6903639373,5.3589924
-3.9780678,,Pharmacie Saint ange,0,node/6903639374,5.3571667
-3.9777617,,André Malraux,0,node/6903639375,5.356275
-4.0228251,,Gare en haut,0,node/6903639376,5.3505392
-3.9796695,,Pharmacie Saint Bernard,0,node/6903968407,5.3672689
-3.9794498,,Carrefour garage,0,node/6903968408,5.3655779
-4.0345833,,Attécoubé Terminus 04,0,node/6904171063,5.343795
-4.0345467,,[Arret sans nom],0,node/6904171064,5.346448
-4.033957,,Marché,0,node/6904171065,5.3490624
-4.032333,,Station Afriquia,0,node/6904171066,5.3501257
-4.0328135,,Carrefour Attecoubé,0,node/6904171067,5.3524283
-4.0309717,,[Arret sans nom],0,node/6904171068,5.3574167
-4.0254169,,Arrêt,0,node/6904171070,5.3513557
-4.0261722,,Adjamé Santé,0,node/6904171071,5.3412757
-4.025807,,Institut National de la Santé Publique,0,node/6904171072,5.3381159
-4.0230192,,Arrêts tours Administratives,0,node/6904171073,5.3318344
-4.0206008,,Cité financière Plateau,0,node/6904171074,5.3266073
-4.0196512,,SIB Alpha 2000,0,node/6904171075,5.3237991
-4.0196681,,Primature,0,node/6904171076,5.3206169
-4.0157481,,Résidence Cheick Yacouba Sylla,0,node/6904171077,5.3089287
-4.0142576,,Marché Treichville,0,node/6904171078,5.3094876
-4.0099697,,[Arret sans nom],0,node/6904171079,5.3109791
-4.006092,,Biafra,0,node/6904171080,5.3126563
-3.9933399,,Banque Atlantique,0,node/6904171081,5.3076251
-3.9888629,,Hôtel Hamanieh,0,node/6904171082,5.3052787
-3.9869873,,Sainte Thérèse,0,node/6904171083,5.3043423
-3.9858381,,Commissariat du 9 ème,0,node/6904171084,5.3064581
-3.9839517,,Gare Marcory,0,node/6904188585,5.3088083
-4.0281877,,Gare Nord,0,node/6905326498,5.3589119
-4.0307925,,Château,0,node/6905326503,5.4366266
-4.0219308,,Préfecture de Police,0,node/6905344262,5.3843543
-4.0351608,,Arrêt Centre Bus,0,node/6905344263,5.4375564
-4.0390169,,Terminus 45 À l'escalier,0,node/6905344264,5.4384645
-4.0351391,,Arrêt Centre Bus,0,node/6905344265,5.4378844
-4.0299554,,Château,0,node/6905344266,5.4365245
-4.0259685,,Arrêt,0,node/6905344267,5.4328931
-4.0222108,,Gendarmerie,0,node/6905344268,5.4284112
-4.0219627,,Préfecture de Police,0,node/6905344273,5.3836534
-4.0225102,,Gendarmerie,0,node/6905553518,5.4284566
-4.0261674,,[Arret sans nom],0,node/6905553519,5.4327155
-4.0256884,,Foire de Chine,0,node/6905719605,5.3485701
-4.0206943,,Église Méthodiste Unie de Côte d'Ivoire,0,node/6905719606,5.3299376
-4.0201163,,60 logements Plateau,0,node/6905719607,5.3251345
-4.0177138,,Hôpital du port,0,node/6905719608,5.3087867
-4.0148424,,Maison du Congres,0,node/6905719609,5.3097288
-4.0116929,,Pharmacie du Rond-point,0,node/6905719610,5.3073425
-4.0069793,,[Arret sans nom],0,node/6905719611,5.3090218
-4.005442,,Nanan Yamousso,0,node/6905719612,5.3080275
-4.0043543,,Paroisse Notre-Dame de Treichville,0,node/6905719613,5.3048828
-4.0015648,,Pharmacie de l'Entente,0,node/6905719614,5.3045623
-3.998829,,Marché de Belleville,0,node/6905719615,5.3055251
-3.9931172,,Banque Atlantique,0,node/6905719616,5.3075214
-3.9887868,,Hôtel Hamanieh,0,node/6905719617,5.3049722
-3.986118,,Commissariat du 9éme,0,node/6905719618,5.3055778
-3.9847286,,Station Shell,0,node/6905719619,5.308097
-4.0284151,,[Arret sans nom],0,node/6905719620,5.3584965
-4.0304951,,[Arret sans nom],0,node/6905719621,5.357702
-4.0321715,,Carrefour Attecoubé,0,node/6905719622,5.3515438
-4.03386,,Banque Atlantique,0,node/6905719623,5.3489601
-4.0344246,,Commissariat du 10ᵉ arrondissement,0,node/6905719624,5.3471108
-4.0344802,,Attécoubé Terminus 04,0,node/6905719625,5.3437946
-4.0219475,,Saint Paul,0,node/6905772459,5.3251603
-4.0239746,,Immeuble Sogephia Hévéa,0,node/6905772460,5.3282245
-4.0245113,,Musée du Plateau,0,node/6905772461,5.3337809
-4.0160546,,Cours Sociaux,0,node/6905772466,5.4383593
-4.0275686,,Gare Nord,0,node/6905842305,5.3590397
-4.0224693,,Long Champs,0,node/6905842307,5.3252327
-3.9560075,,Gare Koumassi,0,node/6906463287,5.293902
-3.9602508,,Pharmacie Ehilie,0,node/6906463288,5.2928524
-3.966735,,Mosquée,0,node/6906463289,5.2913568
-3.980944,,Échangeur de Marcory,0,node/6906463290,5.2956714
-3.98845,,Grand carrefour Marcory,0,node/6906463291,5.2998527
-3.9976917,,Collège Moderne Autoroute,0,node/6906463292,5.2998184
-4.0026734,,Gare de Bassam,0,node/6906463293,5.2999823
-4.003273,,Ecobank,0,node/6906463294,5.3018099
-4.0155251,,Adjamé Liberté,0,node/6906463296,5.3534012
-4.0124238,,BICICI,0,node/6906507833,5.4365892
-4.0164467,,Adjamé - Liberté,0,node/6906575629,5.3546594
-4.0169033,,Williams-Ville,0,node/6906575630,5.3631417
-4.0157829,,Carrefour 2 plateaux,0,node/6906575631,5.3658197
-4.0156117,,[Arret sans nom],0,node/6906575632,5.3662557
-4.0122293,,Paillet,0,node/6906575633,5.3716139
-4.0112578,,[Arret sans nom],0,node/6906575634,5.374069
-4.005605,,[Arret sans nom],0,node/6906575635,5.3898833
-4.0065311,,[Arret sans nom],0,node/6906575636,5.4045622
-4.0064187,,[Arret sans nom],0,node/6906575637,5.4113412
-4.0064133,,ANADER,0,node/6906575638,5.4126483
-4.0064263,,Samake,0,node/6906590689,5.4148754
-4.0068417,,Samake,0,node/6906590691,5.41527
-4.0063152,,Chaîne avion,0,node/6906590692,5.4101483
-4.0063867,,1ere Boutique,0,node/6906590693,5.4073533
-4.0155634,,Carrefour 2 plateaux,0,node/6906590694,5.3659384
-4.0162927,,Adajmé Liberté,0,node/6906590695,5.3546002
-4.015528,,Adjamé Liberté,0,node/6906596960,5.35345
-4.0060884,,Nanan Yamousso,0,node/6906596961,5.3100359
-4.0044435,,Karwil,0,node/6906596962,5.3054677
-4.0036369,,Notre-dame,0,node/6906596963,5.3031308
-4.0026404,,Gare de Bassam,0,node/6906596964,5.3003893
-3.9983918,,Collège Moderne Autoroute,0,node/6906596965,5.2998444
-3.9859637,,Cap Sud,0,node/6906596966,5.2987234
-3.981013,,Échangeur Marcory,0,node/6906596967,5.2959351
-3.9675638,,Auto-école,0,node/6906596968,5.2912433
-3.964494,,Arrêt,0,node/6906596969,5.2919737
-3.9610541,,Boulangerie,0,node/6906596970,5.292783
-4.0069936,,ZOO,0,node/6906699462,5.3790616
-4.0065336,,1ere Boutique,0,node/6906699463,5.4074152
-4.0116794,,Paillet,0,node/6906699464,5.3723989
-4.0054621,,[Arret sans nom],0,node/6906699465,5.3898979
-4.0065122,,Arrêt Dokui,0,node/6906699466,5.3967647
-4.0063445,,Arrêt Dokui,0,node/6906699467,5.3968689
-4.0062842,,ANADER,0,node/6906699468,5.4121402
-4.0106347,,[Arret sans nom],0,node/6906699469,5.4169293
-4.0106159,,[Arret sans nom],0,node/6906699470,5.4170815
-4.0159368,,Abobo Mairie,0,node/6906699471,5.4197017
-4.0156192,,Abobo Mairie,0,node/6906699472,5.4197512
-4.0235294,,Gare Williamsville,0,node/6907121506,5.3675641
-4.0207037,,Mosquée,0,node/6907121507,5.3658243
-4.0189161,,Croix Bleue,0,node/6907121508,5.3643529
-4.0160715,,Agban avant le pont,0,node/6907121509,5.3576606
-4.0169929,,Pharmacie le Belier,0,node/6907121510,5.3501391
-4.0230855,,Indenié,0,node/6907121511,5.3417336
-4.018503,,Mairie du Plateau,0,node/6907121512,5.3220152
-4.0170059,,Institut Français,0,node/6907121513,5.3219502
-4.0144649,,CNPS,0,node/6907121514,5.3195012
-3.984068,,Gare Marcory,0,node/6907121515,5.3088742
-4.0033579,,RTI,0,node/6907141795,5.342209
-4.0029046,,Archibat,0,node/6907141796,5.3459837
-4.0007897,,Marché de Cocody,0,node/6907141797,5.3356901
-4.0021679,,Gare Blockauss,0,node/6907141798,5.3232894
-4.0013589,,Banque Mondiale,0,node/6907141799,5.3278237
-4.0007635,,Marché de Cocody,0,node/6907141800,5.3355267
-4.0038072,,CIE,0,node/6907141801,5.3384172
-4.0021657,,Palm Club,0,node/6907141802,5.351632
-4.0274511,,Gare Nord,0,node/6907141803,5.3587491
-4.0180323,,Texaco,0,node/6907147644,5.3543654
-4.0101289,,Pont lycée technique,0,node/6907147645,5.3478735
-4.0038018,,SODEMI,0,node/6907147646,5.3442806
-4.0033259,,Sgbci,0,node/6907147647,5.3404792
-3.9999757,,Marché de Cocody,0,node/6907147648,5.336444
-4.0003179,,PMI,0,node/6907147649,5.3334363
-4.00118,,Banque mondiale,0,node/6907147650,5.3280617
-4.0020444,,Gare Blockauss,0,node/6907147651,5.323287
-4.0168481,,Boulangerie Top baquette,0,node/6907154300,5.3528511
-4.017115,,220 logements,0,node/6907154301,5.3472669
-4.0273707,,Gare Nord,0,node/6907157792,5.3589598
-4.0213836,,Renault,0,node/6907157793,5.3559786
-4.0158064,,Adjamé Liberté,0,node/6907157794,5.3534802
-4.000587,,CERAP - INADES,0,node/6907157795,5.339615
-3.9946557,,Gare Campus Cocody,0,node/6908599212,5.3464621
-4.0013186,,ISTC,0,node/6908599213,5.343718
-4.0153091,,Quai 49,0,node/6908599215,5.4354972
-3.9968976,,INSAAC,0,node/6908618074,5.3456864
-4.016795,,EPV Konaté,0,node/6908618077,5.427395
-4.0147611,,Lycée Moderne d'Abobo,0,node/6908618078,5.4286546
-4.012329,,[Arret sans nom],0,node/6908728765,5.4339703
-4.013431,,[Arret sans nom],0,node/6908728766,5.432656
-4.0162121,,[Arret sans nom],0,node/6908728767,5.4273213
-4.0008199,,ISTC,0,node/6908728771,5.343821
-3.9937238,,Gare Campus Cocody,0,node/6908728772,5.3462119
-4.0147361,,[Arret sans nom],0,node/6908782549,5.43182
-4.014638,,[Arret sans nom],0,node/6908782550,5.429723
-3.9978676,,Cité des Arts,0,node/6908782552,5.3450487
-3.993895,,université méthodiste de Côte D'Ivoire,0,node/6908782553,5.3466283
-4.0160582,,[Arret sans nom],0,node/6908914485,5.357415
-4.0171632,,Cours socio éducatif,0,node/6908914486,5.3491257
-3.9996571,,Piscine d’État de Treichville,0,node/6908914487,5.3082112
-3.9839441,,Gare Marcory,0,node/6908914488,5.3090397
-4.0161239,,Boulangerie Top Qualité,0,node/6908914489,5.3555536
-4.0170747,,Liberté,0,node/6908914490,5.3513262
-4.0170975,,Pharmacie le Belier,0,node/6908914491,5.3503722
-4.0230188,,Indenié,0,node/6908914492,5.3418097
-4.025647,,Banque SIB,0,node/6908914493,5.3421743
-4.0183783,,Bicici plateau,0,node/6908914494,5.321186
-4.0167837,,Pyramide,0,node/6908914495,5.321624
-4.0145266,,Siège Moov,0,node/6908914496,5.3184312
-4.0188664,,Croix Bleue,0,node/6908914498,5.3641726
-4.0202826,,Infirmerie Sinikeya,0,node/6908914499,5.3653249
-4.0235066,,Gare Williamsville,0,node/6908914500,5.3670874
-4.0318263,,Petro Ivoire,0,node/6909039462,5.3589877
-4.0257324,,Pharmacie Sainte Marie,0,node/6909039464,5.3468603
-4.0159526,,Cité Policière,0,node/6909039468,5.3080247
-4.0046789,,CHU,0,node/6909039469,5.2958623
-3.9984496,,PTT Km4,0,node/6909039470,5.2927793
-3.9957435,,Pharmacie Santé Publique,0,node/6909039471,5.2914467
-4.0375583,,Terminus Cité Fairmont,0,node/6909108442,5.3585383
-4.0149536,,arrêt,0,node/6909108450,5.305135
-3.9902017,,Services Techniques du District,0,node/6909108451,5.29123
-3.9840127,,Gare Marcory,0,node/6909121487,5.3088407
-4.0074831,,Parc des Sports,0,node/6909208699,5.2971256
-3.990781,,"SIYOA, Boulevard de Marseille",0,node/6909208700,5.2895393
-4.0724972,,[Arret sans nom],0,node/6909225529,5.36188
-4.0745652,,[Arret sans nom],0,node/6909225530,5.3647534
-4.0961792,,[Arret sans nom],0,node/6909225533,5.3727101
-4.0895635,,[Arret sans nom],0,node/6909225534,5.3742257
-4.0867558,,Nestlé,0,node/6909225535,5.372722
-4.0781781,,Arrêt,0,node/6909225536,5.3745633
-4.0796923,,[Arret sans nom],0,node/6909225537,5.3703887
-4.0786743,,[Arret sans nom],0,node/6909225538,5.3683786
-4.0761986,,Direction de la Sotra,0,node/6909225539,5.3670367
-4.0736157,,[Arret sans nom],0,node/6909225540,5.3628133
-4.0702482,,[Arret sans nom],0,node/6909225541,5.3612471
-4.0678704,,Lycée Moderne Yopougon Andokoi,0,node/6909225542,5.3623019
-4.0667894,,Centre Ivoire Couture,0,node/6909225543,5.3615148
-4.0278578,,Gare Nord,0,node/6909225544,5.3585831
-4.0183049,,Gare Sud,0,node/6909225545,5.3146893
-4.0033954,,CHU Treichville,0,node/6909237619,5.2948194
-3.9881326,,Délices de France,0,node/6909237622,5.301827
-3.9900511,,Services Techniques du District,0,node/6909237623,5.2913004
-3.9994307,,PTT Km4,0,node/6909237624,5.2931333
-4.0141223,,Quincaillerie Générale,0,node/6909237625,5.3023437
-4.0150089,,Arrêt,0,node/6909237626,5.3049356
-4.0161832,,Cité Policière,0,node/6909237627,5.308109
-4.0279602,,Gare Nord,0,node/6909237631,5.3591167
-4.0319963,,Station Petro Ivoire,0,node/6909237632,5.358876
-4.0364602,,Terminus 02 Cité Fairmont,0,node/6909237633,5.3582206
-4.094158,,[Arret sans nom],0,node/6909430718,5.3765208
-4.0668847,,Gare CTE,0,node/6909430720,5.3618706
-4.0678369,,Lycée Moderne Yopougon Andokoi,0,node/6909430721,5.3621938
-4.0710622,,Station Total,0,node/6909430722,5.3607938
-4.0736572,,[Arret sans nom],0,node/6909430723,5.362382
-4.0742996,,[Arret sans nom],0,node/6909430724,5.365409
-4.0764347,,Direction de la Sotra,0,node/6909430725,5.36707
-4.0788862,,[Arret sans nom],0,node/6909430726,5.3683719
-4.080222,,Station,0,node/6909430727,5.3690582
-4.0819788,,[Arret sans nom],0,node/6909430728,5.3699698
-4.0896792,,JOMACO,0,node/6909430729,5.3741086
-4.0958456,,Dépôt Yopougon zone Industrielle,0,node/6909430730,5.3741528
-3.9848298,,Hôpital Municipal,0,node/6909521603,5.2645534
-3.9834323,,Groupe Scolaire N'Sikan,0,node/6909521604,5.2632614
-3.9849267,,CIE,0,node/6909521605,5.257665
-3.9956283,,arrêt,0,node/6909521606,5.2558751
-3.9989162,,Gestoci,0,node/6909521607,5.26373
-4.0062621,,Pont de Vridi,0,node/6909521608,5.2704314
-4.0143099,,"Etablissements Rey, Port",0,node/6909521609,5.2978357
-4.0175241,,Sicodis,0,node/6909521610,5.3005436
-4.0231458,,Terminus 32,0,node/6909521611,5.305037
-4.0211629,,Grand Moulin Abidjan,0,node/6909521612,5.3069377
-4.0179278,,Hôpital du Pont,0,node/6909521613,5.3088247
-4.0117363,,"Avenue 11, Rue 12, Treichville",0,node/6909521614,5.305655
-4.0111588,,"Avenue 15, Rue 12, Treichville",0,node/6909521615,5.3039938
-4.0034158,,Paroisse Notre Dame,0,node/6909521616,5.3040254
-3.9987874,,Marché Belleville,0,node/6909521617,5.3056574
-3.9838718,,Gare Marcory,0,node/6909521620,5.3087649
-3.9871428,,Vridi Cité - Terminus 53,0,node/6909546905,5.266603
-3.9818252,,Pharmacie Vridi Port,0,node/6909546906,5.259526
-3.9892306,,Stade de la SIR,0,node/6909546907,5.2571616
-3.9978983,,Vridi-Iran,0,node/6909546908,5.2588247
-4.0031425,,"CPMA, Vridi",0,node/6909546909,5.2676512
-4.0085496,,PALM-CI,0,node/6909546910,5.277976
-4.0084685,,Bolloré,0,node/6909546911,5.2821643
-4.008455,,Siège SOTRA,0,node/6909546912,5.2864977
-4.008424,,Arrêt,0,node/6909546913,5.292271
-4.0131528,,Ciment Bélier,0,node/6909546914,5.296841
-4.0212547,,Port Autonome Abidjan,0,node/6909546915,5.3029759
-4.0149741,,Maison du Congres,0,node/6909546916,5.309804
-4.0050815,,Collège Bosco,0,node/6909546917,5.3059215
-4.1045,,Niangon Sud à droite,0,node/6909707221,5.3226268
-4.1057378,,Carrefour Académie,0,node/6909707223,5.3233679
-4.1059349,,Caféier,0,node/6909707224,5.325714
-4.1037691,,Lubafrique,0,node/6909707225,5.3310513
-4.1029765,,2ème arrêt ANADOR,0,node/6909707226,5.3338915
-4.1014047,,Carrefour Anador,0,node/6909707227,5.3358784
-4.1004632,,Pharmacie Cité Maroc,0,node/6909707228,5.3404237
-4.0892462,,CIE,0,node/6909707229,5.3407014
-4.0892456,,[Arret sans nom],0,node/6909707230,5.3450164
-4.0875008,,Grand Centre,0,node/6909707231,5.3481316
-4.0874934,,Port-Bouët II,0,node/6909707232,5.3540742
-4.0851103,,[Arret sans nom],0,node/6909707233,5.3561104
-4.0850901,,BAE,0,node/6909707234,5.3604209
-4.0277736,,Gare Nord,0,node/6909707236,5.358951
-4.0183735,,Gare Sud,0,node/6909707238,5.3147518
-4.0049374,,Feu du Collège Bosco,0,node/6909737821,5.3058324
-4.0120606,,"Avenue 10, Rue 12, Treichville",0,node/6909737822,5.3062141
-4.0211598,,Grand Moulin Abidjan,0,node/6909737824,5.3067759
-4.0217286,,Siège Port Autonome Abidjan,0,node/6909737825,5.3033621
-4.0095509,,Port Autonome Abidjan,0,node/6909737826,5.2945614
-4.0082981,,Siège SOTRA,0,node/6909737827,5.2878677
-4.0083516,,Bolloré,0,node/6909737828,5.2820277
-4.00841,,Movis,0,node/6909737829,5.2787
-4.0061063,,Pont de Vridi,0,node/6909737830,5.2705271
-4.0239378,,Cité Administrative,0,node/6909812227,5.3309411
-4.0849641,,Carrefour Zone,0,node/6909812228,5.3572641
-4.0867444,,[Arret sans nom],0,node/6909812229,5.3552565
-4.0880983,,Pharmacie Port-Bouët II,0,node/6909812230,5.3469666
-4.0891591,,[Arret sans nom],0,node/6909812231,5.3453455
-4.0974297,,Mosquée du Maroc,0,node/6909812232,5.3400138
-4.1003975,,Pharmacie Cité Maroc,0,node/6909812233,5.3401847
-4.1013081,,Carrefour Anador,0,node/6909812234,5.335861
-4.1037999,,Lubafrique,0,node/6909812235,5.3305692
-4.1051263,,[Arret sans nom],0,node/6909812236,5.3273952
-4.1058531,,Caféier,0,node/6909812237,5.32569
-4.1045248,,Niangon Sud à droite,0,node/6909812238,5.3226401
-4.0739979,,Siporex-Sicomex,0,node/6909923471,5.3568101
-4.0740046,,Siporex avant le feu,0,node/6909923472,5.3538004
-4.0732898,,William-Ponty,0,node/6909923473,5.3448074
-4.0732871,,Yopougon 16ème Advans,0,node/6909923474,5.3388868
-4.0733247,,Saguidiba,0,node/6909923475,5.3326109
-4.0735526,,Gare Yopougon Kouté,0,node/6909923477,5.3297734
-3.9936456,,Gare Campus Cocody,0,node/6910224899,5.3463096
-4.0738578,,Gare Yopougon Kouté,0,node/6910224902,5.3297134
-4.0735191,,Saguidiba,0,node/6910224905,5.3315587
-4.0734252,,Côte d'Ivoire-Telecom,0,node/6910224906,5.3344863
-4.0734096,,Yopougon 16ème Advans,0,node/6910224907,5.338834
-4.0734078,,Saint André lavage,0,node/6910224908,5.3418778
-4.0734038,,William-Ponty,0,node/6910224909,5.345666
-4.0741883,,Siporex après le feu,0,node/6910224910,5.3540928
-4.0741772,,Siporex-Sicomex,0,node/6910224911,5.3566819
-4.0031259,,CPMA-Vridi,0,node/6910272309,5.2678334
-3.9977641,,Vridi-Iran,0,node/6910272310,5.2588726
-3.9932473,,"SIR, Vridi",0,node/6910272311,5.2565075
-3.9854582,,CIE,0,node/6910272312,5.2577882
-3.9824273,,"Cité CIE, Vridi",0,node/6910272313,5.2582659
-3.9820028,,Temple des Vainqueurs,0,node/6910272314,5.2600531
-3.9850263,,Hôpital Municipal,0,node/6910272315,5.2644761
-3.9874196,,Terminus Cité Vridi,0,node/6910272316,5.2666602
-4.0228166,,Cité Administrative,0,node/6910518025,5.3313223
-4.0201529,,Gendarmerie Abobo,0,node/6910584802,5.4267852
-4.0632851,,Institut des aveugles,0,node/6910703473,5.350955
-4.0632758,,Bel Air,0,node/6910703474,5.3476916
-4.0622364,,Complexe sportif de Yopougon,0,node/6910703475,5.3418057
-4.0622136,,Nouveau quartier,0,node/6910703476,5.3380456
-4.0621975,,Clinique les Oliviers,0,node/6910703477,5.3333961
-4.061462,,Terminus 85,0,node/6910743309,5.3294751
-4.0623826,,Clinique les Oliviers,0,node/6910743310,5.333826
-4.0623477,,Nouveau quartier,0,node/6910743311,5.3375141
-4.0634635,,Bel Air,0,node/6910743312,5.3460439
-4.0660062,,Sable,0,node/6910743313,5.3556644
-4.0634474,,Institut des aveugles,0,node/6910743314,5.3513983
-4.0804794,,Ben,0,node/6910755171,5.3237979
-4.0764964,,Marejea,0,node/6910755172,5.3255979
-4.0718266,,Iris3,0,node/6910755173,5.3255738
-4.0802502,,Yopougon Sideci - Terminus 42,0,node/6910755174,5.3198733
-4.0667291,,Marché Kouté,0,node/6910755176,5.3242746
-4.0615042,,L'usine du camp,0,node/6910755177,5.3236042
-4.0577316,,Stenb,0,node/6910755178,5.3236336
-4.0535085,,Le petit soleil,0,node/6910755179,5.3222355
-4.0507693,,Yopougon Kowëit,0,node/6910755180,5.3222275
-4.0464583,,La faveur,0,node/6910755181,5.3222395
-4.0439746,,Pharmacie Chenain,0,node/6910755182,5.3198693
-4.0439826,,Iris 3,0,node/6910755183,5.3171339
-4.0440027,,Bon choix,0,node/6910755184,5.3137348
-4.0439558,,Santé Village,0,node/6910794085,5.3095505
-4.0353389,,Gare Abobodoumé,0,node/6910794088,5.3101983
-4.01971,,Arrêt,0,node/6910797790,5.4258812
-4.0128435,,Arrêt,0,node/6910797791,5.4182684
-4.0054353,,Arrêt,0,node/6910797792,5.4156089
-3.999584,,Arrêt,0,node/6910797793,5.4155902
-3.9856156,,Termunis 81/82,0,node/6910797794,5.4038607
-3.9792073,,BICICI,0,node/6910797795,5.4031254
-3.9780821,,Arrêt,0,node/6910797796,5.4011881
-3.9776878,,Arrêt,0,node/6910797797,5.3988302
-3.977036,,Arrêt,0,node/6910797798,5.3963428
-3.9761992,,Arrêt,0,node/6910797799,5.3932466
-3.971504,,Arrêt,0,node/6910797800,5.3946558
-3.9649835,,Cité Diaspora,0,node/6910797801,5.4000986
-3.9621642,,SOCIAM,0,node/6910797802,5.4025338
-3.9620463,,SOCIAM,0,node/6910797803,5.4022965
-3.9570893,,CHU Angré,0,node/6910797804,5.399963
-4.0022783,,Arrêt,0,node/6910797805,5.4154527
-3.9570173,,CHU Angré,0,node/6910797806,5.3997812
-3.9592423,,Arrêt,0,node/6910797807,5.4003923
-3.960527,,Arrêt,0,node/6910797808,5.4011774
-3.9657399,,Arrêt,0,node/6910797809,5.3991713
-3.9689626,,Arrêt,0,node/6910797810,5.3964463
-3.9736088,,Arrêt,0,node/6910797811,5.3933681
-3.9754415,,Arrêt,0,node/6910797812,5.3929368
-3.9769683,,Arrêt,0,node/6910797813,5.3954823
-3.9772754,,Arrêt,0,node/6910797814,5.3963101
-3.9781552,,Arrêt,0,node/6910797815,5.4003569
-3.978471,,Arrêt,0,node/6910797816,5.4022415
-3.9794534,,BICICI,0,node/6910797817,5.4029505
-3.9898295,,Arrêt,0,node/6910797818,5.4042516
-3.9911934,,Saint Ambroise,0,node/6910797819,5.4070126
-3.9941237,,Arrêt,0,node/6910797820,5.4103992
-3.9953287,,Arrêt,0,node/6910797821,5.4136035
-4.0043772,,Lycée Classique d'Abidjan,0,node/6912410269,5.3317315
-4.0047695,,Hotel Ivoire 2,0,node/6912410270,5.3286968
-4.0029871,,Hotel Ivoire,0,node/6912410271,5.3278806
-4.0032565,,Hotel Ivoire,0,node/6912410272,5.3277329
-4.0045047,,Lycée Classique d'Abidjan,0,node/6912410273,5.3327049
-4.0037108,,SODEMI,0,node/6912410274,5.3439798
-4.0095505,,Pont lycée technique,0,node/6912410275,5.3477876
-4.0751626,,Carrefour Express,0,node/6912654329,5.3290976
-4.0012691,,BMW,0,node/6912729876,5.3581253
-3.998725,,SOCITECH,0,node/6912729877,5.3601195
-3.9976354,,MACACI,0,node/6912729878,5.3648148
-3.9983993,,Mobil 2 Plateaux,0,node/6912729879,5.367356
-3.9984268,,Sococé 2 Plateaux,0,node/6912729880,5.3718047
-3.9985198,,BOA,0,node/6912729881,5.3745478
-3.9985338,,SNEDAI,0,node/6912729882,5.3755833
-3.9976312,,Carrefour Duncan,0,node/6912729883,5.3776569
-3.9943103,,Las Palmas,0,node/6912729884,5.3809527
-4.0792393,,Pharmacie du Marché,0,node/6912805206,5.3388207
-4.0765581,,[Arret sans nom],0,node/6912805207,5.3373258
-4.0752894,,Patisserie,0,node/6912805208,5.3384061
-4.0652525,,Ex Chaine Avion Rue Princesse,0,node/6912805209,5.3467623
-4.0599974,,Camp FRCI,0,node/6912805210,5.3408189
-4.0572368,,Carrefour Marché,0,node/6912805211,5.3398655
-4.0549944,,Carrefour Lama Fofana,0,node/6912805212,5.3373205
-4.0550186,,Banque Atlantique,0,node/6912805213,5.3337105
-4.0520655,,Offoumou Yapo,0,node/6912805214,5.3316575
-4.0497521,,Tizra,0,node/6912805215,5.3293394
-4.0494691,,[Arret sans nom],0,node/6912805216,5.3264792
-4.0494999,,[Arret sans nom],0,node/6912805217,5.3247299
-4.0354465,,Gare Abobo Doumé,0,node/6912805219,5.3104606
-3.9932407,,Carrefour Opéra,0,node/6912820385,5.3847656
-3.9927523,,Mahikari,0,node/6912820386,5.3888111
-3.992269,,Ambassade de Chine,0,node/6912820387,5.3926338
-3.9921141,,Les Oscars,0,node/6912820388,5.3942154
-3.9918337,,BHCI,0,node/6912820389,5.3963811
-3.9913523,,Shawarma House,0,node/6912820390,5.4005116
-3.9909124,,Petro Ivoire,0,node/6912820391,5.4038172
-3.9882535,,Notre Dame,0,node/6912820392,5.4042033
-3.9819806,,FIRDA,0,node/6912820393,5.4034748
-3.9765606,,"Ancien Terminus 90, Les Arcades",0,node/6912820394,5.4033098
-3.9728354,,Soleil 2,0,node/6912820395,5.4006902
-3.9694727,,Clinique Médicale Sainte Justine,0,node/6912820396,5.3971939
-3.9648829,,Cité Diaspora,0,node/6912820397,5.3998522
-3.9697282,,Clinique Médicale Sainte Justine,0,node/6912820398,5.3972237
-3.9764213,,"Ancien Terminus 90, Les Arcades",0,node/6912820399,5.4031598
-3.9820585,,FIRDA,0,node/6912820400,5.4033208
-3.9856793,,Termunis 81/82,0,node/6912820401,5.4037772
-3.9887434,,Notre Dame,0,node/6912820402,5.4041375
-3.9906882,,Petro Ivoire,0,node/6912820403,5.4037567
-3.9911377,,Carrefour 22è,0,node/6912820404,5.4002961
-3.9915941,,BHCI,0,node/6912820405,5.3965825
-3.9920829,,Ambassade de Chine,0,node/6912820406,5.3926201
-3.9924668,,Mahikari,0,node/6912820407,5.3895654
-3.9930996,,Opéra,0,node/6912820408,5.3845481
-3.9940546,,Las Palmas,0,node/6912820409,5.3809502
-3.9970644,,Carrefour Duncan,0,node/6912820410,5.3779505
-3.9983567,,Le Roi du Pain,0,node/6912820411,5.3753472
-3.9983278,,Sococé 2 Plateaux,0,node/6912820412,5.3725038
-3.9981432,,Mobil 2 Plateaux,0,node/6912820413,5.3677225
-3.9973648,,MACACI,0,node/6912820414,5.3654376
-4.0012391,,Saint Jacques,0,node/6912820415,5.3574699
-4.0018639,,Palm Club,0,node/6912820416,5.3525544
-4.0022742,,Carrefour la Vie,0,node/6912820417,5.3493692
-4.0028093,,Arrêt,0,node/6912820418,5.344562
-4.0255438,,Sitarail,0,node/6913011676,5.3266074
-4.073499,,Gare Yopougon Kouté,0,node/6913011677,5.3293875
-4.0441328,,Bon choix,0,node/6913190443,5.3134744
-4.043768,,Santé Village,0,node/6913190444,5.3087112
-4.0440879,,[Arret sans nom],0,node/6913190445,5.3166799
-4.0441167,,[Arret sans nom],0,node/6913190446,5.3208014
-4.0468311,,[Arret sans nom],0,node/6913190447,5.3221154
-4.0496448,,[Arret sans nom],0,node/6913190448,5.323918
-4.0503167,,Commissariat de Police du 19ᵉ Arrondissement,0,node/6913190449,5.3270841
-4.0501732,,Tizra,0,node/6913190450,5.3295798
-4.0519957,,Offoumou Yapo,0,node/6913190451,5.3313998
-4.0550937,,La Poste,0,node/6913190452,5.3337753
-4.055093,,Pharmacie Sacré-cœur,0,node/6913190453,5.3369773
-4.058547,,Pharmacie Béatitude,0,node/6913190454,5.3401473
-4.0608235,,Nouveau quartier,0,node/6913190455,5.3407362
-4.0650474,,Ex Chaine Avion Rue Princesse,0,node/6913190456,5.3466167
-4.0678006,,Newton,0,node/6913190457,5.3447353
-4.0745628,,Marche Sicogi,0,node/6913190458,5.3395304
-4.0751928,,Patisserie,0,node/6913190459,5.3379928
-4.0770331,,Pharmacie du Marché,0,node/6913190460,5.3372574
-4.0806585,,Terrain Sogefiha,0,node/6913190461,5.3372711
-4.0733126,,Antenne,0,node/6913201897,5.3335416
-4.0757574,,Cabine Bleue,0,node/6913201898,5.3290163
-4.0799806,,Akadjoba,0,node/6913201899,5.3243327
-4.0871836,,Saint Pierre,0,node/6913201900,5.3239194
-4.0925668,,EPP Niangon,0,node/6913201901,5.3233739
-4.0944323,,Arrêt,0,node/6913201902,5.3197171
-4.0947904,,Arrêt,0,node/6913201903,5.3163701
-4.0928994,,Arrêt Yop 38,0,node/6913201904,5.3152357
-4.0900334,,Terminus 27,0,node/6913201907,5.315995
-4.0934497,,Arrêt,0,node/6913201908,5.3150643
-4.0948509,,EPP SICOGI Niangon Sud,0,node/6913201909,5.3172602
-4.0943199,,Carrefour Marché,0,node/6913201910,5.3202551
-4.0926667,,EPP Niangon,0,node/6913201911,5.3233885
-4.0869619,,Saint Pierre,0,node/6913201912,5.3240967
-4.0797426,,Akadjoba,0,node/6913201913,5.3246783
-4.0762905,,Arrêt de bus,0,node/6913201914,5.3287702
-4.0184952,,Gare Sud,0,node/6913201915,5.3146172
-4.0183564,,Gare Sud,0,node/6913291219,5.3144986
-3.9977011,,CNTG-BNETD,0,node/6913703797,5.329485
-3.9970399,,UCAO,0,node/6913703798,5.3310059
-3.9973538,,Maison du PDCI-RDA,0,node/6913703799,5.3350719
-3.9997195,,Piscine d’État de Treichville,0,node/6913703800,5.3084936
-3.990551,,NSIA,0,node/6913703801,5.3074734
-3.9837714,,Gare Marcory,0,node/6913703802,5.3086966
-3.9975172,,Maison du Parti,0,node/6913703803,5.3353656
-3.9969162,,UCAO,0,node/6913703804,5.3310313
-3.9976804,,CNTG-BNETD,0,node/6913703805,5.3293836
-4.0658437,,Sable,0,node/6913857608,5.3556761
-4.0646331,,"Complexe Sportif, Yopougon",0,node/6913857611,5.3407344
-4.0665987,,Mairie de Yopougon,0,node/6913857612,5.3424009
-4.0375561,,La Marine,0,node/6913929664,5.3443401
-4.0262003,,Sitarail,0,node/6913929665,5.3278599
-4.0182404,,Gare Sud,0,node/6913929666,5.3146272
-4.0376761,,La Marine,0,node/6913929668,5.3441859
-4.0737128,,Gare Yopougon Kouté,0,node/6913929669,5.3295615
-4.0216157,,Gendarmerie,0,node/6913931703,5.3367091
-4.0217222,,Gendarmerie,0,node/6913974340,5.3369705
-3.9728972,,Soleil 2,0,node/6915341517,5.400545
-3.9837323,,Arrêt,0,node/6915341518,5.4035247
-3.9906836,,Arrêt,0,node/6915341519,5.4062326
-3.9894234,,Arrêt,0,node/6915341520,5.4297269
-3.9891222,,Arrêt,0,node/6915341521,5.4313416
-3.9725804,,Abobo Biabou,0,node/6915341523,5.4564179
-3.9726482,,Abobo Biabou,0,node/6915341525,5.4564283
-3.978184,,Arrêt,0,node/6915341526,5.4454571
-3.9810371,,Arrêt,0,node/6915341527,5.4430187
-3.9831075,,Arrêt,0,node/6915341528,5.441543
-3.9847859,,Arrêt,0,node/6915341529,5.4403681
-3.9859783,,Arrêt,0,node/6915341530,5.4391313
-3.9875153,,Arrêt,0,node/6915341531,5.4368688
-3.987991,,Arrêt,0,node/6915341532,5.4356843
-3.9883619,,Arrêt,0,node/6915341533,5.434457
-3.9887503,,Arrêt,0,node/6915341534,5.4327625
-3.9889419,,Arrêt,0,node/6915341535,5.4312302
-3.9892581,,Arrêt,0,node/6915341536,5.4293215
-3.9896961,,Arrêt,0,node/6915341537,5.4264243
-3.9902515,,Arrêt,0,node/6915341538,5.4229496
-3.9905681,,Arrêt,0,node/6915341539,5.4208149
-3.9907254,,Arrêt,0,node/6915341540,5.4195345
-3.9909298,,Arrêt,0,node/6915341541,5.4182159
-3.9922122,,Arrêt,0,node/6915341542,5.4158878
-3.9928597,,Arrêt,0,node/6915341543,5.4154923
-3.9947036,,Arrêt,0,node/6915341544,5.4148205
-3.9952879,,Arrêt,0,node/6915341545,5.4141247
-3.9932262,,Arrêt,0,node/6915341546,5.409531
-3.990564,,Petro Ivoire Angré,0,node/6915341547,5.4050885
-3.9829561,,Arrêt,0,node/6915341548,5.403643
-3.9807645,,Arrêt,0,node/6915341549,5.4033522
-3.96346,,9 Kilo,0,node/6915487638,5.3585446
-3.9586683,,Rond-Point de la Palmeraie,0,node/6915487639,5.360974
-3.9598948,,Carrefour de la Gendarmerie,0,node/6915487640,5.3606149
-3.9665508,,Cap Nord,0,node/6915487641,5.3568703
-3.9779824,,Riviéra 2,0,node/6915487642,5.3532599
-3.9881887,,École de Police,0,node/6915487643,5.3502292
-3.9943092,,École de la Gendarmerie,0,node/6915487644,5.3492233
-4.0018322,,Carrefour de la Vie,0,node/6915487645,5.3485522
-4.0185375,,Mairie d'ABOBO,0,node/6915647682,5.4217637
-4.0212736,,Arrêt,0,node/6915647683,5.4270593
-4.0241622,,Arrêt,0,node/6915647684,5.4303911
-3.9635319,,9 Kilo,0,node/6915696792,5.3587403
-3.9620358,,Chic Shop,0,node/6915696795,5.3596047
-3.9657802,,Cap Nord,0,node/6915696796,5.3574857
-3.9881605,,École de Police,0,node/6915696797,5.3504609
-3.9916044,,Carrefour CHU,0,node/6915696798,5.3494956
-3.994457,,École de la Gendarmerie,0,node/6915696799,5.3493834
-4.0029649,,Carrefour de la Vie,0,node/6915696800,5.3485982
-4.0266778,,Arrêt,0,node/6915722685,5.4333404
-4.0446977,,Anokoi,0,node/6915722686,5.4390733
-4.0485036,,PK 18 Agripac,0,node/6915722687,5.4434752
-4.0512502,,Arrêt,0,node/6915722688,5.4482915
-4.0529903,,Arrêt,0,node/6915722689,5.4503535
-4.0545715,,Arrêt,0,node/6915722690,5.4565524
-4.054497,,Arrêt,0,node/6915722691,5.4574448
-4.0544278,,Arrêt,0,node/6915722692,5.465098
-4.0540279,,Arrêt,0,node/6915722693,5.4662168
-4.0530974,,Arrêt,0,node/6915722694,5.4680953
-4.0538658,,Arrêt,0,node/6915722695,5.4794949
-4.0513358,,Arrêt,0,node/6915722696,5.4828953
-4.0513476,,Arrêt,0,node/6915722697,5.4837187
-4.05146,,Arrêt,0,node/6915722698,5.4866626
-4.0515593,,Arrêt,0,node/6915722699,5.4890597
-4.0516047,,Arrêt,0,node/6915722700,5.4904279
-4.0516233,,Arrêt,0,node/6915722701,5.490915
-4.051639,,Arrêt,0,node/6915722702,5.4914503
-4.0516636,,Arrêt,0,node/6915722703,5.4928779
-4.0517658,,Arrêt,0,node/6915722704,5.4940805
-4.0517794,,Arrêt,0,node/6915722705,5.495095
-4.0516644,,Arrêt,0,node/6915722706,5.4960474
-4.0515036,,Arrêt,0,node/6915722707,5.4970767
-4.051438,,Arrêt,0,node/6915722708,5.497669
-4.0513918,,Arrêt,0,node/6915722709,5.4979794
-4.0516497,,Arrêt,0,node/6915722710,5.4995751
-4.0519247,,Arrêt,0,node/6915722711,5.500507
-4.0520934,,Arrêt,0,node/6915722712,5.5011338
-4.0522125,,Arrêt,0,node/6915722713,5.5015989
-4.0525268,,Arrêt,0,node/6915722714,5.5026911
-4.0530594,,Arrêt,0,node/6915722715,5.5045432
-4.0532829,,Arrêt,0,node/6915722716,5.5053444
-4.0531365,,Mairie d'Anyama,0,node/6915722717,5.5064599
-4.0530408,,Mairie d'Anyama,0,node/6915722719,5.5064064
-4.0513828,,Arrêt,0,node/6915722720,5.4976427
-4.0523687,,Arrêt,0,node/6915722721,5.5027177
-4.0514357,,Arrêt,0,node/6915722722,5.4994894
-4.0516383,,Arrêt,0,node/6915722723,5.4949787
-4.051407,,Arrêt,0,node/6915722724,5.4888603
-4.0513417,,Arrêt,0,node/6915722725,5.4863031
-4.0512201,,Arrêt,0,node/6915722726,5.4825896
-4.0531887,,Arrêt,0,node/6915722727,5.479955
-4.0552147,,Arrêt A l'Ecole,0,node/6915722728,5.4757466
-4.0531044,,Arrêt Contrôle,0,node/6915722729,5.470731
-4.0534141,,Arrêt,0,node/6915722730,5.4669354
-4.053759,,Arrêt Ancienne Gendarmerie,0,node/6915722731,5.4611068
-4.0544875,,Arrêt,0,node/6915722732,5.4526174
-4.0526523,,Arrêt Ancien Marché,0,node/6915722733,5.4503748
-4.0510764,,Arrêt Terminus,0,node/6915722734,5.4483606
-4.0491425,,Arrêt Agripac,0,node/6915722735,5.4449974
-4.0484067,,Arrêt,0,node/6915722736,5.4436482
-4.0057551,,Terminus dépôt SOTRA,0,node/6916152424,5.28758
-4.0084018,,Pharmacie du Port,0,node/6916152425,5.2890666
-4.0033572,,Arrêt du CHU,0,node/6916152426,5.2961604
-4.0024808,,Gare de Bassam,0,node/6916152427,5.2991407
-4.0026565,,Arrêt,0,node/6916181080,5.3478959
-3.9983308,,Grande Pharmacie /Terminus 300FCFA,0,node/6916181081,5.3700062
-3.9930971,,Arrêt,0,node/6916280433,5.4157357
-3.9940211,,Terminus Abobo Baoulé,0,node/6916280434,5.4149934
-3.9948875,,Pharmacie Actuelle,0,node/6916280435,5.4129627
-3.9939447,,Arrêt,0,node/6916280436,5.4103431
-3.9923863,,Arrêt,0,node/6916280437,5.4085794
-3.9910921,,Saint Ambroise,0,node/6916280438,5.4071215
-3.990494,,Arrêt,0,node/6916280439,5.4055233
-3.9910264,,Arrêt,0,node/6916280440,5.4011787
-3.9912618,,Carrefour 22ème,0,node/6916280441,5.3991513
-3.991524,,SODECI,0,node/6916280442,5.3973362
-3.9918311,,Paris Baguette,0,node/6916280443,5.3945043
-3.9927256,,Arrêt,0,node/6916280444,5.3875127
-3.9952144,,Arrêt,0,node/6916280445,5.3797969
-3.9983542,,NSIA,0,node/6916280446,5.3737207
-3.9981216,,SGBGI,0,node/6916280447,5.3700155
-4.002571,,Cité BAD,0,node/6916280448,5.3465781
-4.0035403,,CIE,0,node/6916280449,5.3386878
-3.9865047,,Commissariat du 9 ème,0,node/6917146061,5.3065218
-3.9857063,,Commissariat du 9 ème,0,node/6917146062,5.3061086
-3.9807831,,King Cash,0,node/6917146063,5.3034179
-3.9776047,,Cabinet Médical du 3ème pont,0,node/6917146064,5.3015677
-3.9757915,,Marché de Marcory,0,node/6917146065,5.3005869
-3.9722389,,Paroisse Sainte Bernadette,0,node/6917146066,5.2986259
-3.9714765,,Pharmacie Bagoué,0,node/6917146067,5.2982013
-3.9688084,,Banque of Africa,0,node/6917146068,5.2968312
-3.9650103,,Arrêt,0,node/6917146069,5.2965895
-3.9608221,,Arrêt,0,node/6917146070,5.2975636
-3.9572333,,Place Inchallah,0,node/6917146071,5.2983628
-3.9531506,,Koumassi Prodomo,0,node/6917146072,5.299281
-3.9494388,,Gare Mesano,0,node/6917146073,5.3001329
-3.9476752,,Koumassi Mesano,0,node/6917146074,5.3008577
-3.9483867,,Koumassi Mesano,0,node/6917146075,5.3002935
-3.9505841,,Station Petro Ivoire,0,node/6917146076,5.2998074
-3.9543702,,Palce Inchallah,0,node/6917146077,5.2989496
-3.9585451,,Arrêt,0,node/6917146078,5.2980163
-3.9619419,,Arrêt,0,node/6917146079,5.2972737
-3.9660523,,Arrêt,0,node/6917146080,5.2962808
-3.9687629,,Banque of Africa,0,node/6917146081,5.296728
-3.9712863,,Pharmacie Bagoué,0,node/6917146082,5.2980069
-3.9759814,,Marché de Marcory,0,node/6917146083,5.3006211
-3.9778785,,Cabinet Médical du 3ème pont,0,node/6917146084,5.3016585
-3.9828404,,Arrêt,0,node/6917151685,5.3044464
-3.9860886,,Commissariat du 9 ème,0,node/6917151686,5.3062161
-3.988849,,Arrêt,0,node/6917151687,5.3077309
-3.9904413,,Yan Auto Ecole,0,node/6917151688,5.3084636
-4.0352896,,Gare Abobodoumé,0,node/6919194336,5.3106101
-4.0923844,,Cité Bracodi Rte Cité verte,0,node/6919312942,5.3270854
-4.1119954,,Cité Verte,0,node/6919312943,5.332209
-4.109973,,Collège Sebaco,0,node/6919312945,5.3316148
-4.1058974,,Cité Bracodi Rte Cité verte,0,node/6919312946,5.3306787
-4.1035223,,Banque BNI,0,node/6919312947,5.3296893
-4.100539,,Le repère,0,node/6919312948,5.3284241
-4.0976201,,Carrefour de Niangon,0,node/6919312949,5.3278005
-4.0812954,,Akadjoba,0,node/6919312950,5.3241547
-4.0351267,,Gare Abobodoumé,0,node/6919312951,5.3103655
-4.053652,,Le petit soleil,0,node/6919327587,5.322126
-4.0573213,,Blé Doré,0,node/6919327588,5.3235388
-4.0669544,,Marché Kouté,0,node/6919327589,5.3241224
-4.0710314,,Carrefour Kouté,0,node/6919327590,5.3251706
-4.0761933,,Marejea,0,node/6919327591,5.325455
-4.0818366,,Akadjoba,0,node/6919327593,5.3238646
-4.0914322,,Arrêt,0,node/6919327594,5.3264405
-4.0976496,,Carrefour de Niangon,0,node/6919327595,5.327729
-4.1005786,,Le repère,0,node/6919327596,5.3283566
-4.1035169,,Top Qualitée,0,node/6919327597,5.3295851
-4.1063239,,Cité Bracodi Rte Cité verte,0,node/6919327598,5.3307695
-3.9831407,,Arrêt,0,node/6919758025,5.2982594
-3.9792079,,Arrêt,0,node/6919758026,5.2961308
-3.9763809,,Arrêt,0,node/6919758027,5.2945624
-3.9743974,,Arrêt,0,node/6919758028,5.293456
-3.9712223,,Arrêt,0,node/6919758029,5.2927669
-3.9690283,,Arrêt,0,node/6919758030,5.2932236
-3.965347,,Arrêt,0,node/6919758031,5.2940469
-3.9603108,,Arrêt,0,node/6919758032,5.2951953
-3.9565101,,Arrêt,0,node/6919758033,5.2961324
-3.9526269,,Sogefia,0,node/6919758034,5.297599
-3.9478318,,Arrêt,0,node/6919758035,5.2987064
-3.9469644,,Station Petro Ivoire,0,node/6919758036,5.3015424
-3.9453759,,Arrêt,0,node/6919758037,5.3043266
-3.946713,,Bon Samaritain,0,node/6919758038,5.3080062
-3.9473403,,Pharmacie Fanny,0,node/6919758039,5.3099762
-3.9466942,,Patisserie MC,0,node/6919758040,5.3109106
-3.9450346,,Terminus 05 Lycée Municipal de Koumassi,0,node/6919758041,5.311165
-4.0106387,,"Avenue 19, Rue 12, Treichville",0,node/6924851825,5.3023303
-4.0115547,,FIESTA,0,node/6924851826,5.3047639
-4.0006757,,Treichville Entente,0,node/6924851828,5.3028704
-4.0016802,,Nostalgie,0,node/6924851829,5.3015791
-4.003555,,Banque Bicici,0,node/6924851830,5.300882
-4.0062869,,[Arret sans nom],0,node/6924851831,5.2999593
-4.0277536,,Gare Nord,0,node/6924851833,5.3586294
-4.0106307,,"Avenue 19, Rue 12, Treichville",0,node/6924979791,5.3025272
-4.0062426,,Pharmacie de l'Avenue 27,0,node/6924979792,5.3029946
-4.0008245,,Treichville Entente,0,node/6924979794,5.3032777
-4.0208888,,[Arret sans nom],0,node/6926746685,5.3296238
-4.0236032,,Terminus tours Administratives,0,node/6926746686,5.3309876
-4.018979,,Terminus Gare Sud,0,node/6926746688,5.3149603
-4.0096436,,Station Total,0,node/6926746689,5.3018048
-3.9737989,,Arrêt,0,node/6926746749,5.4538834
-3.9864522,,Arrêt,0,node/6926746750,5.4385456
-3.9903197,,Arrêt,0,node/6926746751,5.4222388
-3.9996626,,Arrêt,0,node/6926746752,5.4154549
-4.0016378,,Arrêt,0,node/6926746753,5.4154484
-4.0054049,,Arrêt,0,node/6926746754,5.4155231
-4.0071858,,Samake,0,node/6926746755,5.4152696
-4.0280449,,Gare Nord,0,node/6926746757,5.3590439
-4.0019605,,Arrêt,0,node/6926746758,5.4155963
-3.9928882,,Arrêt,0,node/6926746759,5.4156232
-3.9908193,,Sotra,0,node/6926746760,5.4196603
-3.9904401,,Arrêt,0,node/6926746761,5.422222
-3.9898619,,Arrêt,0,node/6926746762,5.4265157
-3.9886816,,Arrêt,0,node/6926746763,5.43368
-3.9873449,,Arrêt,0,node/6926746764,5.4374054
-3.9850082,,Arrêt,0,node/6926746765,5.4402786
-3.9807703,,Arrêt,0,node/6926746766,5.443381
-3.9785569,,Arrêt,0,node/6926746767,5.4451883
-3.946597,,Bon Samaritain,0,node/6926943107,5.3079127
-3.9451392,,Pharmacie Campement,0,node/6926943108,5.3050831
-3.9835873,,Hôpital Général de Marcory,0,node/6926943109,5.3011838
-4.0046641,,Pharmacie Notre-Dame,0,node/6926943110,5.3034579
-4.0185633,,Gare Sud,0,node/6926943111,5.3146776
-4.0236086,,Terminus tours Administratives,0,node/6926943112,5.3311928
-3.9840318,,[Arret sans nom],0,node/6927022357,5.3051694
-3.9930649,,Arrêt,0,node/6927037611,5.4159386
-4.0063405,,Arrêt,0,node/6927037612,5.408251
-4.0063848,,Arrêt,0,node/6927037613,5.4057129
-4.0064518,,Arrêt,0,node/6927037614,5.4013897
-4.0057893,,Arrêt,0,node/6927037615,5.3930717
-4.0056726,,Arrêt,0,node/6927037616,5.3875774
-4.0066168,,Arrêt,0,node/6927037617,5.3801858
-4.0168427,,Arrêt,0,node/6927037618,5.3625903
-4.0169801,,Pharmacie le Belier,0,node/6927037619,5.3503578
-4.0178358,,Fraternité Matin,0,node/6927037620,5.3456673
-4.0237561,,Arrêt,0,node/6927037621,5.3411247
-4.0237963,,Arrêt,0,node/6927037622,5.3372751
-4.0238252,,Arrêt,0,node/6927037623,5.3339228
-4.0238251,,Terminus tours Administratives,0,node/6927037625,5.3310139
-4.0238861,,Arrêt,0,node/6927037626,5.3339515
-4.0238741,,Ministère de la défense,0,node/6927037627,5.3377117
-4.0161668,,Arrêt,0,node/6927037628,5.3557539
-4.0068716,,Arrêt,0,node/6927037629,5.379605
-4.0059958,,Arrêt,0,node/6927037630,5.386285
-4.0065437,,Arrêt,0,node/6927037631,5.4018603
-3.9933257,,Abobo Belleville,0,node/6927037633,5.4158855
-4.0125125,,Arrêt,0,node/6927327302,5.3434193
-4.0103402,,Arrêt,0,node/6927327303,5.346265
-4.0088409,,Arrêt,0,node/6927327304,5.3494085
-4.0044479,,Arrêt,0,node/6927327305,5.3529759
-3.989773,,Arrêt,0,node/6927327306,5.4043844
-3.9851483,,Arrêt,0,node/6927327307,5.4048944
-3.9867901,,Arrêt,0,node/6927327308,5.4082838
-3.9890592,,Arrêt,0,node/6927327309,5.407261
-4.0043218,,Arrêt,0,node/6927327310,5.3528041
-4.0085859,,Arrêt,0,node/6927327311,5.3493597
-4.0102683,,Arrêt,0,node/6927327312,5.3461658
-4.0124663,,Polyclinique,0,node/6927327313,5.3433536
-4.0186967,,Gare Sud,0,node/6927327314,5.3147983
-3.9464354,,Campement,0,node/6927330411,5.3022414
-3.9450815,,Terminus 05 Lycée Municipal de Koumassi,0,node/6927330412,5.3120389
-3.9472561,,Pharmacie Fanny,0,node/6927330413,5.3099838
-4.0047298,,Arrêt,0,node/6927330414,5.3362229
-3.9938503,,Gare Campus Cocody,0,node/6927330416,5.3462362
-3.9972169,,INSAAC,0,node/6927544633,5.3463523
-4.0030417,,Saint Jean,0,node/6927544634,5.3359628
-4.0029552,,Saint Jean,0,node/6927544636,5.3358129
-3.9970998,,Gendarmerie,0,node/6927544637,5.3482687
-4.0175371,,Arrêt,0,node/6927600976,5.3536864
-4.0250561,,Mirador,0,node/6927600977,5.3567305
-4.0241115,,Arrêt SICOGI,0,node/6927631763,5.3566458
-4.0275494,,Gare Nord,0,node/6927694921,5.3592856
-3.9971908,,Arrêt,0,node/6927701716,5.3470894
-3.9700449,,Terminus Riviera 2,0,node/6928179123,5.3534453
-3.9736351,,Cité étudiante Riviera 2,0,node/6928179124,5.3533983
-3.9780678,,Riviera 2,0,node/6928179125,5.3525929
-3.9805625,,Petite Mosquée Riviéra Jardin,0,node/6928179126,5.3512739
-3.9803499,,Petite Mosquée Riviéra Jardin,0,node/6928250859,5.3516026
-3.9781867,,Riviera 2,0,node/6928250860,5.3526374
-3.9761267,,Arrêt,0,node/6928250861,5.3530707
-3.9702004,,Terminus Riviera 2,0,node/6928250862,5.3534857
-3.9975737,,Terminus Vridi-Iran,0,node/6928681599,5.2563753
-4.0101948,,Arrêt Cuirasse Ciment,0,node/6928681601,5.2947326
-4.0279685,,Gare Nord,0,node/6928681602,5.3588804
-4.0228924,,Terminus 32,0,node/6928704112,5.3050571
-4.0170398,,[Arret sans nom],0,node/6928704113,5.3002851
-4.0140854,,"Etablissements Rey, Port",0,node/6928704114,5.29778
-3.9995223,,Arrêt Bolloré logistique,0,node/6928704115,5.264595
-3.9975522,,Terminus Vridi-Iran,0,node/6928704117,5.2562337
-4.0182207,,Gare Sud,0,node/6929796960,5.3143818
-4.0189046,,Terminus Gare Sud,0,node/6929849943,5.314962
-3.9888954,,Arrêt,0,node/6930487819,5.3078566
-3.8943455,,Station Corlay Bingerville,0,node/6930917942,5.3612016
-3.9581935,,Après barrage,0,node/6930917943,5.3618466
-3.9537437,,Dalia,0,node/6930917944,5.364055
-3.9497378,,Église Apostolique de Côte d'Ivoire,0,node/6930917945,5.3653603
-3.94563,,Camp Millitaire d'Akouédo,0,node/6930917946,5.3673945
-3.9389929,,Carrefour Faya,0,node/6930917947,5.370105
-3.9347483,,Résidence Genie 2000,0,node/6930917948,5.3712573
-3.9301188,,Optic 2000,0,node/6930917949,5.3725084
-3.9237472,,Jules Verne,0,node/6930917950,5.3741413
-3.9108525,,Pharmacie Saint Sylvestre,0,node/6930917951,5.3718715
-3.9083956,,Cité Hévéas,0,node/6930917952,5.3645064
-3.9031767,,Université de Cocody Pole Scientifique,0,node/6930917953,5.3606115
-3.8979524,,CIE,0,node/6930917954,5.360275
-3.8963887,,[Arret sans nom],0,node/6930917955,5.360916
-3.8909747,,Lycée garçon de Bingerville,0,node/6930917956,5.3577634
-3.8866322,,Carrefour marché,0,node/6930917957,5.3574363
-3.8843503,,Espace Orange,0,node/6930917958,5.3583363
-3.8841063,,Hôpital Mère-Enfant de Bingerville,0,node/6930917959,5.360674
-3.886655,,Carrefour marché,0,node/6930917961,5.3573589
-3.8908299,,Lycée garçon de Bingerville,0,node/6930917962,5.3576746
-3.8980114,,CIE,0,node/6930917963,5.3601255
-3.9020951,,Université de Cocody Pole Scientifique,0,node/6930917964,5.360215
-3.9084667,,Cité Hévéas,0,node/6930917965,5.3643261
-3.9097783,,Cité Marina,0,node/6930917966,5.368265
-3.9108391,,Arrêt,0,node/6930917967,5.3714883
-3.9233838,,Jules Verne,0,node/6930917968,5.3740098
-3.9324215,,Coris Bank,0,node/6930917969,5.3716378
-3.9379911,,Arrêt,0,node/6930917970,5.3701704
-3.9456984,,Camp Millitaire d'Akouédo,0,node/6930917971,5.3671088
-3.9527636,,[Arret sans nom],0,node/6930917972,5.3637324
-3.9579964,,Après barrage,0,node/6930917973,5.3617224
-3.94723,,Arrêt,0,node/6931151021,5.2993777
-3.9523798,,Sogefia,0,node/6931151022,5.2975523
-3.9571428,,Arrêt,0,node/6931151023,5.2958991
-3.9596352,,Pharmacie Saint François,0,node/6931151024,5.2952895
-3.9646348,,Grande Pharmacie Iroko,0,node/6931151025,5.2941237
-3.9695299,,Arrêt,0,node/6931151026,5.2929966
-3.971683,,Pharmacie Du Boulevard Du Gabon,0,node/6931151027,5.2924858
-3.9757097,,Polyclinique La Madone,0,node/6931151028,5.2940696
-3.9801776,,Arrêt,0,node/6931151029,5.2965781
-3.9828604,,Arrêt,0,node/6931151030,5.298031
-4.027668,,Gare Nord,0,node/6931151031,5.3590066
-3.9540428,,Koumassi Sicogi - Dépôt SOTRA,0,node/6931273195,5.2873212
-3.964256,,[Arret sans nom],0,node/6931273196,5.2849829
-3.9651793,,[Arret sans nom],0,node/6931273197,5.2875055
-3.9684516,,Arrêt,0,node/6931273198,5.2873493
-3.9694119,,[Arret sans nom],0,node/6931273199,5.2883388
-3.9762314,,Sicomex,0,node/6931273200,5.293018
-4.0184375,,Gare Sud,0,node/6931273203,5.3148159
-4.0117713,,Pharmacie du Rond-point,0,node/6931792543,5.3074119
-4.0071049,,[Arret sans nom],0,node/6931792544,5.3090558
-3.9672808,,Centre comercial Koumassi,0,node/6931792545,5.2889971
-3.9622262,,Arrêt,0,node/6931792546,5.2839293
-3.9586401,,Pharmacie Bethanie,0,node/6931792547,5.2847439
-3.9543311,,Arrêt,0,node/6931792548,5.2857761
-3.9538698,,Koumassi Sicogi - Dépôt SOTRA,0,node/6931792550,5.2884523
-3.970533,,Grand Carrefour de Koumassi,0,node/6931985671,5.2870688
-4.001299,,Ivosep Treichville,0,node/6931985672,5.2985627
-4.060057,,Arrêt,0,node/6932152400,5.3266769
-4.0598402,,Ghandi,0,node/6932152402,5.3250076
-4.0599193,,Ghandi,0,node/6932152404,5.3253408
-4.0669167,,Arrêt,0,node/6932152405,5.3600658
-4.0182858,,Gare Sud,0,node/6932152407,5.314853
-3.9502595,,CIAD,0,node/6932239010,5.3286224
-3.951901,,Arrêt,0,node/6932239011,5.3291271
-3.9522216,,Arrêt,0,node/6932239012,5.338314
-3.9526011,,Carrefour Mel Theodore,0,node/6932239013,5.3443655
-3.9535043,,Pharmacie Riviera III,0,node/6932239014,5.348653
-3.9545015,,Collège l'Ardoise,0,node/6932239015,5.3509724
-3.9606719,,Arrêt,0,node/6932239016,5.3550168
-3.9637336,,Arrêt,0,node/6932239017,5.3569209
-4.0185761,,Gare Sud,0,node/6932239019,5.3149333
-3.9808642,,Angré Château,0,node/6932253478,5.4127978
-3.984559,,Arrêt,0,node/6932253479,5.4102497
-3.9930569,,Arrêt,0,node/6932253480,5.3866094
-3.9885655,,Arrêt,0,node/6932253481,5.4076842
-3.9809279,,Angré Château,0,node/6932253483,5.4128518
-3.9635029,,Arrêt,0,node/6932323632,5.3569409
-3.9543647,,Collège Ardoise,0,node/6932323633,5.3517214
-3.9531872,,Pharmacie Riviera III,0,node/6932323634,5.3485048
-3.9524998,,Carrefour Mel Theodore,0,node/6932323635,5.3446873
-3.9448656,,École libanaise Al Ghadir,0,node/6932323636,5.3284521
-4.0617429,,Terminus Yopougon Camp Militaire,0,node/6933043352,5.3228845
-4.0599163,,Ghandi,0,node/6933043354,5.3245991
-4.0607049,,[Arret sans nom],0,node/6933043355,5.3278586
-4.0581514,,[Arret sans nom],0,node/6933043356,5.3300685
-4.0559573,,[Arret sans nom],0,node/6933043357,5.3314439
-4.018425,,Gare Sud,0,node/6933043359,5.3145591
-3.9428298,,Arrêt,0,node/6933080250,5.3283246
-3.9447637,,École libanaise Al Ghadir,0,node/6933080251,5.3282992
-3.9460498,,Arrêt,0,node/6933080252,5.3283286
-3.9479502,,Pharmacie M'pouto,0,node/6933080253,5.328364
-3.9527768,,Beverly,0,node/6933080254,5.3380122
-3.9578046,,Carrefour Sol Béni,0,node/6933080255,5.3311481
-3.980421,,Arrêt,0,node/6933080256,5.329493
-3.9996752,,SIB,0,node/6933080257,5.3353723
-3.9401878,,Mosquée Cité Eden,0,node/6933080258,5.3284154
-3.9401855,,Mosquée Cité Eden,0,node/6933080260,5.3283646
-4.0026096,,Arrêt,0,node/6933080262,5.3461454
-3.9789297,,Mosquée Golf,0,node/6933080263,5.3391939
-3.9812806,,Arrêt,0,node/6933080264,5.3325809
-3.9790913,,Arrêt,0,node/6933080265,5.3297881
-3.9529652,,Beverly,0,node/6933080266,5.3380134
-4.0560298,,[Arret sans nom],0,node/6933128807,5.3312516
-4.0580978,,[Arret sans nom],0,node/6933128808,5.3299817
-4.0623571,,Terminus Yopougon Camp Militaire,0,node/6933128810,5.3222556
-4.0094478,,Station Total,0,node/6933231056,5.3017767
-4.0061849,,Pharmacie de l'Avenue 27,0,node/6933231057,5.3029158
-4.0272913,,Gare Nord,0,node/6933291484,5.3589712
-4.0277539,,Gare Nord,0,node/6933302185,5.3591995
-4.0210558,,Arrêt,0,node/6934648710,5.4266332
-4.0538116,,Arrêt,0,node/6934648711,5.4438112
-4.0603428,,Arrêt,0,node/6934648712,5.4435976
-4.0647738,,Arrêt,0,node/6934648713,5.4434975
-4.0679455,,Arrêt,0,node/6934648714,5.4433733
-4.0693985,,Arrêt,0,node/6934648715,5.442806
-4.0686147,,Arrêt,0,node/6934648716,5.4392747
-4.068663,,Arrêt,0,node/6934648717,5.4321434
-4.0699659,,Arrêt,0,node/6934648718,5.428223
-4.0783779,,Arrêt,0,node/6934648719,5.413004
-4.0834808,,Arrêt,0,node/6934648720,5.4036687
-4.0842761,,Arrêt,0,node/6934648721,5.4009224
-4.0810159,,Arrêt,0,node/6934648722,5.3935763
-4.078453,,Arrêt,0,node/6934648723,5.3892384
-4.0757427,,Arrêt,0,node/6934648724,5.3836466
-4.0773951,,Arrêt,0,node/6934648725,5.3747704
-4.0820444,,Arrêt,0,node/6934648726,5.3762544
-4.0759718,,Arrêt,0,node/6934648728,5.3838941
-4.0784458,,Arrêt,0,node/6934648729,5.389032
-4.0806236,,Arrêt,0,node/6934648730,5.3928929
-4.0842976,,Arrêt,0,node/6934648731,5.4014804
-4.0784144,,Arrêt,0,node/6934648732,5.4130749
-4.070195,,Arrêt,0,node/6934648733,5.4279813
-4.0686617,,Arrêt,0,node/6934648734,5.4326393
-4.069498,,Arrêt,0,node/6934648735,5.4427909
-4.0650186,,Arrêt,0,node/6934648736,5.4435987
-4.0602688,,Arrêt,0,node/6934648737,5.4437261
-4.0536714,,Arrêt,0,node/6934648738,5.4438909
-4.0481434,,Arrêt,0,node/6934648739,5.4432611
-4.0438735,,Arrêt,0,node/6934648740,5.4392603
-4.0169741,,220 logements,0,node/6934657650,5.3480962
-3.9618933,,Carrefour Akwaba,0,node/6934657651,5.2690497
-3.9633662,,Hôpital de Port-Bouët,0,node/6934657652,5.2629137
-3.9637684,,Nouveau marché Port-Bouët,0,node/6934657653,5.2574343
-3.961553,,Océan Espadon,0,node/6934657654,5.2567198
-3.9621216,,Église Méthodiste Unie Port-Bouët,0,node/6934657655,5.2542438
-3.9607128,,Wharf Port-Bouët,0,node/6934657656,5.2530566
-3.9560196,,Terminus Port-Bouët Phare,0,node/6934657657,5.2510654
-4.0201934,,Arrêt,0,node/6934749721,5.400118
-4.0027148,,Centre Commercial du Dokui,0,node/6934798183,5.3970398
-4.0014133,,Sainte Monique,0,node/6934798184,5.3997114
-3.9960703,,Superette Akwaba,0,node/6934815685,5.3994163
-3.9916306,,22ème,0,node/6934815686,5.3979557
-3.9959845,,Superette Akwaba,0,node/6934815687,5.3992227
-3.9972693,,Pharmacie Sainte Monique,0,node/6934815688,5.3994417
-4.0008152,,Station Petro Ivoire,0,node/6934815689,5.3997942
-4.0013301,,Sainte Monique,0,node/6934815690,5.3994657
-4.0026122,,Centre Commercial du Dokui,0,node/6934815692,5.3970104
-4.0506908,,Yopougon Kowëit,0,node/6934872150,5.3221354
-4.0802555,,Sideci Matignon,0,node/6934872151,5.3218817
-4.0109827,,Abobo Akeikoi Village,0,node/6934922723,5.4604925
-4.0111108,,Destin,0,node/6934922724,5.4554315
-4.0126598,,André Bar,0,node/6934922725,5.4531085
-4.0136415,,Arrêt,0,node/6934922726,5.4493063
-4.0143429,,Arrêt,0,node/6934922727,5.4446991
-4.0141618,,Arrêt,0,node/6934922728,5.4400103
-4.0137548,,Arrêt,0,node/6934922731,5.4327535
-4.0124023,,Arrêt,0,node/6934922732,5.4336247
-4.0143033,,Arrêt,0,node/6934922733,5.4393221
-4.0145279,,Arrêt,0,node/6934922734,5.4445716
-4.0137662,,Arrêt,0,node/6934922735,5.4493357
-4.0127617,,André Bar,0,node/6934922736,5.4531566
-4.0112489,,Destin,0,node/6934922737,5.4554448
-4.0110518,,Abobo Akeikoi Village,0,node/6934922738,5.4604068
-4.0352396,,Gare Abobodoumé,0,node/6934970640,5.3102833
-4.0240914,,Arrêt,0,node/6935113685,5.4306528
-4.0236072,,Terminus tours Administratives,0,node/6935113687,5.3314011
-4.0273828,,Gare Nord,0,node/6935117220,5.3591731
-3.9897309,,Woodin,0,node/6935117222,5.3610508
-3.9897537,,[Arret sans nom],0,node/6935117223,5.3653222
-3.9898489,,Nsia Banque,0,node/6935117224,5.3685842
-3.9904759,,Leader price,0,node/6935117225,5.372732
-3.9926612,,Carrefour Sainte Cécile - Terminus 35,0,node/6935117227,5.3770534
-3.9926425,,Carrefour Sainte Cécile - Terminus 35,0,node/6935251104,5.3771843
-3.9904471,,Sococé Vallon,0,node/6935251105,5.3742722
-3.9897873,,Nsia Banque,0,node/6935251106,5.3686002
-3.9897014,,[Arret sans nom],0,node/6935251107,5.364963
-3.9896753,,Woodin,0,node/6935251108,5.3606736
-3.9907542,,Versus Bank,0,node/6935251109,5.3576192
-3.9912866,,École de Police,0,node/6935251110,5.3522302
-3.99993,,Mermoz,0,node/6935251111,5.3387479
-4.0278565,,Gare Nord,0,node/6935251112,5.3591581
-3.9831166,,Groupe Scolaire Kouamé Konan,0,node/6935274791,5.2627714
-3.9774759,,Groupe Scolaire Petit Bassam,0,node/6935274792,5.2569108
-3.9696513,,Arrêt,0,node/6935274793,5.2576259
-3.965703,,Marché,0,node/6935274794,5.2585828
-3.9608596,,Pharmacie Océan,0,node/6935274796,5.2568159
-3.9581761,,Lycée Moderne Port Bouët,0,node/6935274797,5.256199
-3.9610527,,Carrefour Akwaba,0,node/6935274798,5.2658583
-3.9661886,,Digue de Koumassi,0,node/6935274799,5.2758153
-3.9692871,,CIE Bia Sud,0,node/6935274800,5.2813533
-3.962945,,Arrêt,0,node/6935274801,5.2900094
-3.9596587,,Arrêt,0,node/6935274802,5.2907532
-3.9555147,,Gare Koumassi,0,node/6935274803,5.294113
-3.9498116,,Pharmacie Regina,0,node/6935274804,5.298266
-3.9495504,,Pharmacie Regina,0,node/6935274805,5.2982253
-3.9582726,,Ajavon,0,node/6935274806,5.2909815
-3.9612938,,Foyer des Jeunes,0,node/6935274807,5.2902818
-3.9668678,,Centre Commercial Koumassi,0,node/6935274808,5.2889304
-3.9667035,,Carrefour Ancien Koumassi,0,node/6935274809,5.2768282
-3.9577992,,43ème Bima,0,node/6935274810,5.2576733
-3.9579253,,Lycée moderne Port-bouët ,0,node/6935274811,5.2560567
-3.9642432,,Nouveau Marché Port-Bouët,0,node/6935274812,5.2574824
-3.965754,,District de Port-Bouet,0,node/6935274813,5.2584759
-3.9693877,,Arrêt,0,node/6935274814,5.2576319
-3.9790309,,Arrêt,0,node/6935274815,5.2572754
-3.9893487,,Stade de la SIR,0,node/6935274816,5.2569161
-4.006142,,Arrêt,0,node/6935401276,5.3852315
-4.0060079,,Arrêt,0,node/6935401277,5.3852595
-4.0064532,,Arrêt,0,node/6935401278,5.3984537
-4.0064304,,Arrêt,0,node/6935401279,5.4022949
-4.0063405,,Arrêt,0,node/6935401280,5.4087036
-4.0062828,,Arrêt,0,node/6935401281,5.4109493
-4.0062493,,Arrêt,0,node/6935401282,5.4143906
-4.0170009,,Arrêt,0,node/6935401283,5.420498
-4.0141176,,Arrêt,0,node/6935401284,5.4189547
-4.0123071,,Arrêt,0,node/6935407385,5.4179854
-4.0094626,,Arrêt,0,node/6935407386,5.4164927
-4.0041834,,"Parc des Sports, Boulevard Valéry Giscard d'Estaing",0,node/6935488165,5.2983706
-3.9445075,,Carrefour Aéroport,0,node/6935488166,5.2470403
-3.9295542,,Arrêt,0,node/6935488167,5.2446806
-3.925598,,Arrêt,0,node/6935488168,5.2440381
-3.922044,,Arrêt,0,node/6935488169,5.2434545
-3.9170243,,Arrêt,0,node/6935488170,5.2426599
-3.9115848,,Arrêt,0,node/6935488171,5.2417851
-3.9051327,,Mosquée,0,node/6935488172,5.2407648
-3.9593026,,Arrêt,0,node/6935494486,5.260825
-3.984569,,Avenue de la Côte d'Ivoire / Boulevard V.G.E.,0,node/6935494487,5.2976825
-3.9005903,,Terminus Gonzagueville,0,node/6935494488,5.2402774
-3.9050053,,Mosquée,0,node/6935494499,5.2405691
-3.9104489,,Arrêt,0,node/6935494500,5.2414058
-3.9156765,,Arrêt,0,node/6935494501,5.2422365
-3.9216458,,Arrêt,0,node/6935494502,5.243186
-3.9251152,,Arrêt,0,node/6935494503,5.2437256
-3.9298091,,Arrêt,0,node/6935494504,5.2444775
-3.9372025,,Arrêt,0,node/6935494505,5.2456701
-3.94366,,Arrêt,0,node/6935494506,5.2467051
-3.9541537,,Arrêt,0,node/6935494507,5.2492829
-3.9579213,,43ème Bima,0,node/6935494508,5.2573475
-4.0065188,,Palais des Sports,0,node/6935494509,5.299118
-4.0149692,,Avenue Christiani,0,node/6935494511,5.3101948
-4.0082087,,Arrêt,0,node/6937770645,5.3002327
-3.9594314,,Arrêt,0,node/6937770646,5.2618319
-3.9424717,,Arrêt,0,node/6937770647,5.2467278
-3.9007735,,Terminus Gonzagueville,0,node/6937770648,5.2400864
-3.8973275,,Arrêt,0,node/6937770649,5.2395482
-3.893671,,Arrêt,0,node/6937770650,5.2389973
-3.8845293,,Pharmacie Bénediction,0,node/6937770652,5.2375957
-3.8802069,,Anani,0,node/6937770653,5.2369286
-3.8798529,,Anani,0,node/6937770654,5.2368898
-3.8749894,,Anani - Rond-point,0,node/6937770655,5.2369172
-3.8833565,,Arrêt,0,node/6937770656,5.2372444
-3.888965,,Collège privé les Cartésiens d'Abidjan,0,node/6937770657,5.2380744
-3.8928086,,Arrêt,0,node/6937770658,5.2386868
-3.8962466,,Arrêt,0,node/6937770659,5.2391862
-3.9013763,,Terminus Gonzagueville,0,node/6937770660,5.2399789
-3.9649889,,Arrêt,0,node/6937789671,5.256211
-4.01522,,Gare Abobo Sogephia,0,node/6938095648,5.4354794
-4.0222809,,Arrêt,0,node/6938222040,5.4251869
-4.0239143,,Arrêt,0,node/6938222041,5.4191963
-4.0240283,,Arrêt,0,node/6938222042,5.4148659
-4.0292727,,Arrêt,0,node/6938222043,5.4147991
-4.0807772,,Ebimpé Village,0,node/6938324861,5.5005578
-4.0807946,,Arrêt,0,node/6938324862,5.5031942
-4.0801696,,Arrêt,0,node/6938324863,5.5033771
-4.0769751,,Arrêt,0,node/6938324864,5.5031182
-4.0770207,,Arrêt,0,node/6938324865,5.5007033
-4.0762322,,Arrêt,0,node/6938324866,5.5002134
-4.07344,,Arrêt,0,node/6938324867,5.5002334
-4.0699397,,Arrêt,0,node/6938324868,5.5000185
-4.066591,,Arrêt,0,node/6938324869,5.4982283
-4.0678543,,Arrêt,0,node/6938324870,5.4912933
-4.0690076,,Arrêt,0,node/6938324871,5.4869787
-4.0697157,,Arrêt,0,node/6938324872,5.4842033
-4.0709844,,Arrêt,0,node/6938324873,5.4791892
-4.0715718,,Arrêt,0,node/6938324874,5.4769371
-4.072693,,Arrêt,0,node/6938324875,5.4724328
-4.0737471,,Arrêt,0,node/6938324876,5.4679499
-4.0739322,,Arrêt,0,node/6938324877,5.4644949
-4.0733501,,Arrêt,0,node/6938324878,5.4606874
-4.0724757,,Arrêt,0,node/6938324879,5.4565342
-4.0713693,,Arrêt,0,node/6938324880,5.4517454
-4.0706693,,Arrêt,0,node/6938324881,5.4485133
-4.0696567,,Arrêt,0,node/6938324882,5.4441757
-4.0681963,,Arrêt,0,node/6938324883,5.4435135
-4.056062,,Arrêt,0,node/6938324884,5.443862
-4.0494295,,Arrêt,0,node/6938343085,5.4440736
-3.9639542,,Hotel Communal Port-Bouët,0,node/6938407500,5.2608437
-3.9635653,,Hôpital Géneral de Port-Bouët,0,node/6938407501,5.2629757
-3.9564407,,Arrêt,0,node/6938407503,5.293872
-3.8886204,,Collège privé les Cartésiens d'Abidjan,0,node/6938407504,5.2382227
-3.9975952,,Farandole,0,node/6938756997,5.3640511
-3.9845087,,Arrêt,0,node/6938792077,5.4036801
-3.993252,,Arrêt,0,node/6938792078,5.3829263
-4.0186301,,Gare Sud,0,node/6938792079,5.3147389
-3.9887345,,Arrêt,0,node/6939014886,5.3010837
-3.9663789,,Pharmacie Sainte Aghate,0,node/6939014887,5.3023803
-3.9640502,,Terminus Remblais 03,0,node/6939014888,5.3029659
-3.9638825,,Terminus Remblais 03,0,node/6939014890,5.302855
-3.9684999,,Arrêt,0,node/6939014891,5.3018088
-3.9714879,,Arrêt,0,node/6939014892,5.2984764
-3.9848064,,Arrêt,0,node/6939014894,5.3022895
-4.0274686,,Gare Nord,0,node/6939014895,5.359076
-4.0059154,,Terminus dépôt SOTRA,0,node/6939076692,5.2875728
-4.0768933,,Sideci Pharmacie Lem,0,node/6944816371,5.3314425
-4.0798317,,Sideci Lem,0,node/6944816372,5.3305385
-4.0813807,,[Arret sans nom],0,node/6944816373,5.3270574
-4.0806283,,Akadjoba,0,node/6944816374,5.3246445
-4.0237293,,Terminus tours Administratives,0,node/6944887181,5.3310827
-4.0220542,,Arrêt,0,node/6944887182,5.4253525
-4.0240122,,Arrêt,0,node/6944887183,5.4193151
-4.0241008,,Arrêt,0,node/6944887184,5.4150828
-4.0292533,,Arrêt,0,node/6944920985,5.4148679
-4.0334697,,Terminus bus 51/52,0,node/6944920986,5.4148038
-4.0817052,,Arrêt,0,node/6944934858,5.3274379
-4.080812,,Sideci Lem - Carrefour Sgbci,0,node/6944934859,5.330154
-4.0773064,,Sideci Pharmacie Lem,0,node/6944934860,5.3314305
-3.99141,,École de Police,0,node/6945017053,5.3521541
-3.9914516,,Arrêt,0,node/6945017054,5.3569943
-4.0082677,,Siège SOTRA,0,node/6945458783,5.2865574
-3.9722067,,Station Oilibya,0,node/6945659474,5.2569502
-3.9647529,,Arrêt,0,node/6945659475,5.2566851
-3.9643009,,Pharmacie Atlantique,0,node/6945659476,5.2546846
-3.9565238,,Port-Bouët Phare,0,node/6945659477,5.2511255
-4.0047848,,Vridi canal - Terminus 23,0,node/6945864857,5.2531341
-4.0046923,,Vridi canal - Terminus 23,0,node/6945864858,5.2531701
-4.0087358,,[Arret sans nom],0,node/6945864859,5.2657115
-4.0033337,,Arrêt du CHU,0,node/6945864860,5.2957541
-4.0134249,,Ciprel,0,node/6945966271,5.260642
-4.0138507,,[Arret sans nom],0,node/6945966272,5.2649101
-4.011446,,[Arret sans nom],0,node/6945966273,5.265254
-4.0086137,,[Arret sans nom],0,node/6945966274,5.2660346
-4.0060763,,[Arret sans nom],0,node/6945966275,5.2688363
-3.9581171,,Arrêt,0,node/6948222228,5.3539352
-3.9522725,,Arrêt,0,node/6948222230,5.3417576
-3.9521505,,Arrêt,0,node/6948222231,5.3392567
-3.952243,,Arrêt,0,node/6948222232,5.3384929
-3.943904,,Carrefour Ambassade de Chine,0,node/6948222233,5.334941
-3.9452136,,Antenne,0,node/6948222234,5.3392333
-3.9428439,,Akwaba,0,node/6948222235,5.3385917
-3.9393644,,Pharmacie,0,node/6948222236,5.3355172
-3.9368539,,Arrêt,0,node/6948222237,5.3328633
-3.9348771,,Centre de santé Municipal de M'Badon,0,node/6948222238,5.3307248
-3.9323347,,Teminus M'Badon,0,node/6948222239,5.3286344
-3.9322612,,Teminus M'Badon,0,node/6948270620,5.3285142
-3.9347577,,Centre de santé Municipal de M'Badon,0,node/6948270621,5.3305385
-3.9397017,,Pharmacie,0,node/6948270622,5.3357956
-3.9451191,,Arrêt,0,node/6948270623,5.339027
-3.9418454,,Ambassade de Chine,0,node/6948270624,5.3329114
-3.9568537,,Arrêt,0,node/6948270625,5.3538285
-3.9368337,,Arrêt,0,node/6948290580,5.3327177
-3.9429814,,Bureau Bad,0,node/6948290581,5.3385823
-3.9438068,,[Arret sans nom],0,node/6948290582,5.3350024
-3.9767852,,Arrêt,0,node/6948466331,5.353946
-3.9695473,,Arrêt,0,node/6948466332,5.3560356
-3.9273548,,Arrêt,0,node/6948466333,5.3732347
-3.9221262,,Arrêt,0,node/6948466334,5.3744488
-3.9116914,,Késsé,0,node/6948466335,5.3738883
-3.9090387,,Syndicat,0,node/6948466336,5.3664705
-3.8946091,,Station TEXACO,0,node/6948466337,5.3613312
-3.8895766,,La Poste,0,node/6948466338,5.357652
-3.8879555,,Pharmacie Du Marché,0,node/6948466339,5.357433
-3.8903531,,Sous-Prefecture de Bingerville,0,node/6948466341,5.3576379
-3.9285967,,Nouveau Goudron,0,node/6948466343,5.372677
-4.0026914,,Pharmacie les 7 Colonnes,0,node/6948466345,5.3455151
-3.9906777,,Arrêt,0,node/6948695731,5.3346312
-3.9758237,,Arrêt,0,node/6948695732,5.3396564
-3.9761442,,Arrêt,0,node/6948695733,5.3414919
-3.9751571,,Arrêt,0,node/6948695734,5.3438403
-3.975412,,Arrêt,0,node/6948695735,5.3470921
-3.9767209,,Arrêt,0,node/6948695736,5.3520693
-3.9760919,,Arrêt,0,node/6948695738,5.3530066
-3.9766203,,Arrêt,0,node/6948695739,5.35209
-3.9752188,,Arrêt,0,node/6948695740,5.3468223
-3.9750874,,Arrêt,0,node/6948695741,5.343802
-3.9760651,,Arrêt,0,node/6948695742,5.3416148
-3.9757586,,Arrêt,0,node/6948695743,5.3397193
-3.9754911,,Arrêt,0,node/6948695744,5.3385022
-3.9902714,,Arrêt,0,node/6948695745,5.3344937
-3.9957176,,Arrêt,0,node/6948695746,5.3349056
-4.0157926,,Warafa Assurance,0,node/6948706680,5.321664
-4.0152582,,Arrêt Résidence Nabil,0,node/6948706681,5.3184017
-4.0092923,,[Arret sans nom],0,node/6948706682,5.3044274
-4.0042001,,Terminus CHU Treichville,0,node/6948791226,5.2949249
-3.9679608,,Arrêt,0,node/6948855820,5.3565604
-3.9614752,,Arrêt,0,node/6948855821,5.3599399
-3.9289306,,Cité Millenium,0,node/6948855822,5.3717967
-3.9253854,,Arrêt,0,node/6948855823,5.3584311
-3.9247158,,Arrêt,0,node/6948855824,5.3556661
-3.924163,,Arrêt,0,node/6948855825,5.3532496
-3.9233825,,Collège Jeune Filles,0,node/6948855826,5.3498507
-3.9225573,,Oribat Cité Don Mello,0,node/6948855827,5.3397928
-3.9226348,,Arrêt,0,node/6948855828,5.3329467
-3.9191627,,Arrêt,0,node/6948855829,5.3282217
-3.9169304,,Paroisse,0,node/6948855830,5.3283086
-3.9164444,,EPP Abatta,0,node/6948855831,5.3221383
-3.923136,,Arrêt,0,node/6948920956,5.3342136
-3.9158679,,Arrêt,0,node/6948920957,5.3262131
-3.9161935,,EPP Abatta,0,node/6948920958,5.3267028
-3.9169358,,Paroisse,0,node/6948920959,5.3282218
-3.9227374,,Arrêt,0,node/6948920960,5.3329487
-3.9220896,,Arrêt,0,node/6948920961,5.3417243
-3.9222706,,Arrêt,0,node/6948920962,5.3443775
-3.9228521,,Arrêt,0,node/6948920963,5.3471041
-3.9242797,,Arrêt,0,node/6948920964,5.3532917
-3.9254397,,Arrêt,0,node/6948920965,5.3583733
-3.9258534,,Sodeci Abatta,0,node/6948920966,5.359984
-3.9301027,,Nouveau Goudron,0,node/6948920967,5.3722754
-3.968976,,Arrêt,0,node/6951127812,5.2579604
-3.9654422,,Mairie Port-Bouët,0,node/6951127813,5.2597086
-3.9687383,,[Arret sans nom],0,node/6951127815,5.2595919
-4.0181731,,Gare Sud,0,node/6951127816,5.3145654
-3.9533649,,Arrêt,0,node/6951182059,5.3373639
-3.9559445,,Arrêt,0,node/6951182060,5.3344449
-3.9570247,,Arrêt,0,node/6951182061,5.3308416
-3.9531144,,Arrêt,0,node/6951182062,5.3295658
-3.9535137,,Arrêt,0,node/6951182064,5.3296352
-3.9572031,,Arrêt,0,node/6951182065,5.330835
-3.952412,,Arrêt,0,node/6951182066,5.3414479
-3.9630926,,Arrêt,0,node/6951224049,5.2921887
-3.9693582,,Commissariat de Police du 6ᵉ,0,node/6951224050,5.2898905
-4.0276527,,Gare Nord,0,node/6951224051,5.3586694
-3.9554248,,Gare Koumassi,0,node/6951939383,5.2941431
-4.0273499,,Gare Nord,0,node/6951939384,5.3587923
-3.9635003,,Terminus 31 Remblais,0,node/6952071069,5.3024324
-3.9623322,,Trois Ampoules,0,node/6952071070,5.2975569
-4.0109539,,"BIAO, Treichville",0,node/6952132224,5.2988296
-3.9883868,,"Pizza, Marcory",0,node/6952132225,5.2884596
-3.9855024,,"Bernabé Parc à Fer, Boulevard de Marseille",0,node/6952132226,5.2853422
-3.9824903,,[Arret sans nom],0,node/6952132227,5.2786718
-3.9767262,,Église Notre-Dame d'Afrique,0,node/6952132228,5.2734369
-3.9714865,,Sept Villas,0,node/6952132229,5.2734089
-3.9672503,,Arrêt,0,node/6952132230,5.276028
-3.9434065,,Arrêt,0,node/6952132232,5.2486135
-3.9386439,,EPP Aéroport,0,node/6952132233,5.2544081
-3.934246,,Aéroport,0,node/6952132234,5.2536201
-3.9450909,,Carrefour Aéroport,0,node/6952132235,5.2469401
-3.9409603,,Cité ASECNA,0,node/6952132240,5.2544028
-3.9424355,,Arrêt,0,node/6952132241,5.2508117
-3.9435728,,Arrêt,0,node/6952132242,5.2480679
-3.947171,,Maquis 5 sur 5,0,node/6952132243,5.247278
-3.9610943,,Pharmacie Océan,0,node/6952132244,5.2567618
-3.9627318,,Abattoir Port-Bouët,0,node/6952132245,5.266498
-3.9751598,,Arrêt,0,node/6952132246,5.2726637
-3.9878453,,Arrêt,0,node/6952132247,5.28785
-3.9917104,,Arrêt,0,node/6952132248,5.2895893
-3.9954532,,Arrêt,0,node/6952132250,5.2912033
-4.0104501,,"BIAO, Treichville",0,node/6952132251,5.2984459
-4.0182926,,Gare Sud,0,node/6952132252,5.3144382
-3.9495367,,Arrêt,0,node/6952200468,5.3091986
-3.9481486,,Centre Médico-social,0,node/6952200469,5.3097742
-3.9837456,,Hôpital Général de Marcory,0,node/6952200470,5.3012025
-3.986865,,Arrêt,0,node/6952200471,5.3034286
-4.0094613,,Arrêt,0,node/6952200472,5.3042605
-4.007007,,Arrêt,0,node/6952200475,5.3052353
-3.9855715,,Arrêt,0,node/6952200476,5.3027926
-3.952005,,Akromiambla-Terminus 32 Koumassi,0,node/6952200477,5.3118954
-4.0471624,,Arrêt,0,node/6952244517,5.441531
-4.0559909,,Arrêt,0,node/6952566208,5.4436978
-4.0699545,,Arrêt,0,node/6952566209,5.4448793
-4.0708852,,Arrêt,0,node/6952566210,5.4490874
-4.0716147,,Arrêt,0,node/6952566211,5.4522514
-4.0718146,,Arrêt,0,node/6952566212,5.4532246
-4.0726206,,Arrêt,0,node/6952566213,5.4567491
-4.0734789,,Arrêt,0,node/6952566214,5.4606701
-4.0739724,,Arrêt,0,node/6952566215,5.4636378
-4.074022,,Arrêt,0,node/6952566216,5.4644695
-4.0738437,,Arrêt,0,node/6952566217,5.4679793
-4.0727828,,Arrêt,0,node/6952566218,5.4724295
-4.0716872,,Arrêt,0,node/6952566219,5.4769985
-4.0710461,,Arrêt,0,node/6952566220,5.4793881
-4.0703045,,Arrêt,0,node/6952566221,5.4821955
-4.0699115,,Arrêt,0,node/6952566222,5.4839777
-4.0692893,,Arrêt,0,node/6952566223,5.486354
-4.0680795,,Arrêt,0,node/6952566224,5.4911611
-4.0667948,,Arrêt,0,node/6952566225,5.4982644
-4.0740864,,Arrêt,0,node/6952566226,5.5001119
-4.0767123,,Arrêt,0,node/6952566227,5.5000518
-3.9734097,,Petit Café,0,node/6954138437,5.2862329
-3.9775054,,Arrêt,0,node/6954138438,5.2807083
-3.9804116,,Arrêt,0,node/6954138439,5.2823321
-4.0126625,,Arrêt,0,node/6954138440,5.300639
-3.9828832,,Agence Nationale de la Formation Professionnelle (AGEFOP),0,node/6954138442,5.28394
-3.9776556,,Arrêt,0,node/6954138443,5.2809293
-3.973057,,UTTb Université Loko,0,node/6954138444,5.2870755
-3.9693475,,Marché DjeKonan,0,node/6954138445,5.2892455
-3.9518099,,Arrêt,0,node/6954138446,5.3133129
-3.9679319,,CIE Koumassi,0,node/6954511639,5.2834138
-3.9686649,,Hôpital de Koumassi,0,node/6954511640,5.286559
-4.0989914,,[Arret sans nom],0,node/6954926526,5.3583583
-4.1000086,,[Arret sans nom],0,node/6954926527,5.3615502
-4.0967993,,[Arret sans nom],0,node/6954926528,5.3641759
-3.9531577,,Koumassi Soweto - Dépôt 5,0,node/6955038705,5.2859504
-3.9582532,,Pharmacie Bethanie,0,node/6955038706,5.2847586
-3.9611265,,Sation Lavage,0,node/6955038707,5.2840528
-3.9680882,,CIE Koumassi,0,node/6955038708,5.2836422
-3.9688808,,Hôpital de Koumassi,0,node/6955038709,5.2870421
-3.984628,,Pharmacie Massarana,0,node/6955038710,5.2996014
-4.0275521,,Gare Nord,0,node/6955038711,5.3587075
-4.0217512,,Cité Administrative,0,node/6955514933,5.3331711
-3.9598243,,Arrêt Pharmacie Palmeraie,0,node/6955514934,5.3635731
-3.9580205,,Arrêt,0,node/6955514935,5.3710263
-3.9587393,,Arrêt,0,node/6955514936,5.3720811
-3.964382,,Cocody SCI Les Rosiers,0,node/6955514937,5.3808935
-3.9598592,,Arrêt,0,node/6955514938,5.3727874
-3.9592516,,Arrêt,0,node/6955514939,5.3685488
-4.0184346,,Gare Sud,0,node/6955514940,5.3149553
-3.9341971,,Aéroport,0,node/6958966895,5.253474
-3.981805,,Arrêt,0,node/6961370878,5.2774525
-3.9788787,,Pharmacie de Bietry,0,node/6961370879,5.2744205
-3.9421921,,Arrêt Dr08,0,node/6961370880,5.2516684
-3.9410589,,Cité ASECNA,0,node/6961370881,5.2543801
-4.0725361,,[Arret sans nom],0,node/6961643500,5.3618139
-4.0923724,,[Arret sans nom],0,node/6961643501,5.373881
-4.0945986,,[Arret sans nom],0,node/6961643502,5.3718154
-4.0858988,,Amondji,0,node/6963093974,5.3396466
-4.0810166,,Arrêt,0,node/6963093975,5.3395998
-4.0792436,,Pont Vagabond,0,node/6963093976,5.3382505
-4.0747274,,Arrêt,0,node/6963093977,5.3403236
-4.0181436,,Gare Sud,0,node/6963093979,5.3147296
-4.0732643,,Saint André lavage,0,node/6963093981,5.3415106
-4.0859069,,Amondji,0,node/6963093982,5.3395197
-3.9928235,,Aghien 2 plateaux,0,node/6964184463,5.3883091
-4.0044791,,[Arret sans nom],0,node/6964184464,5.3359625
-3.9923066,,Aghien 2 plateaux,0,node/6964184466,5.3885302
-4.0021368,,Carrefour la Vie,0,node/6964184467,5.3502206
-3.9596674,,Arrêt Pharmacie Palmeraie,0,node/6964502135,5.3635871
-4.0846449,,BAE,0,node/6966758103,5.3609547
-4.0882243,,Arrêt,0,node/6966758104,5.3551851
-4.0957546,,Carrefour Antenne Ananeraie,0,node/6966758105,5.3549701
-4.0988526,,Oasis,0,node/6966758106,5.354878
-4.0993729,,Sorbonne,0,node/6966758107,5.3502259
-4.0997625,,Arrêt,0,node/6966758108,5.3462622
-4.1031267,,Arrêt,0,node/6966758109,5.333344
-4.1044571,,Arrêt,0,node/6966758111,5.3292232
-4.1004723,,Arrêt,0,node/6966758112,5.3441658
-4.0999784,,Arrêt,0,node/6966758113,5.3460138
-4.0994869,,Sorbonne,0,node/6966758114,5.3500978
-4.0994742,,Arrêt,0,node/6966758115,5.3529605
-4.0992308,,Oasis,0,node/6966758116,5.3549421
-4.0918869,,Arrêt,0,node/6966758117,5.3551971
-4.016671,,Arrêt,0,node/6966849451,5.3233545
-4.0138976,,Arrêt,0,node/6966849452,5.4486134
-3.9637296,,Hotel Communal Port-Bouët,0,node/6966927285,5.2613392
-3.9605525,,Wharf Port-Bouët,0,node/6966927286,5.2528723
-4.0132633,,Arrêt,0,node/6966927287,5.3027916
-4.0140968,,Arrêt,0,node/6966942817,5.4469386
-4.0166429,,Arrêt,0,node/6966942818,5.4381706
-4.0159589,,Arrêt,0,node/6966942819,5.4141149
-4.0164229,,Arrêt,0,node/6966942820,5.4069719
-4.0007964,,Arrêt,0,node/6967070473,5.2655592
-4.0085238,,Arrêt,0,node/6967070474,5.2772629
-4.0085185,,Arrêt,0,node/6967070475,5.279469
-4.0210712,,Arrêt,0,node/6967070476,5.3959876
-4.016604,,Arrêt,0,node/6967070477,5.4118438
-4.0178807,,Arrêt,0,node/6967070478,5.4197437
-4.0187565,,Arrêt,0,node/6967070479,5.4227157
-4.0289891,,Arrêt,0,node/6967070480,5.4356834
-4.0302558,,Arrêt,0,node/6967070481,5.4364023
-4.0319341,,Arrêt,0,node/6967070482,5.4370672
-4.0332256,,Arrêt,0,node/6967070483,5.4373075
-4.0362847,,Arrêt,0,node/6967070484,5.4377581
-4.0391982,,Arrêt,0,node/6967074785,5.4381539
-4.0485819,,PK 18 Agripac,0,node/6967074787,5.4435976
-4.0197301,,Arrêt,0,node/6967158577,5.4255661
-4.017465,,Arrêt,0,node/6967158578,5.4195782
-4.0226068,,Arrêt,0,node/6967158579,5.3053862
-4.0082905,,Pharmacie du Port,0,node/6967158580,5.2891307
-4.0212006,,Abobo Gendarmerie,0,node/6968911549,5.4269192
-4.0229219,,Arrêt,0,node/6968911550,5.4289586
-4.0812264,,Arrêt,0,node/6968911551,5.4078444
-4.0851445,,CHU de Yopougon,0,node/6968911556,5.3570551
-4.080236,,Arrêt,0,node/6968911557,5.3698106
-4.0777087,,Arrêt,0,node/6968911558,5.3746728
-4.0687166,,Arrêt,0,node/6968911559,5.4392253
-4.0793476,,Arrêt,0,node/6969221528,5.3423532
-4.0177429,,Gare Sud,0,node/6969221530,5.3141434
-3.9117702,,Feh Kessé,0,node/6969371620,5.3743039
-4.0097992,,Clinique Providence,0,node/6969583471,5.3472803
-4.0106696,,Supermarché Casino,0,node/6969583472,5.3451973
-4.0185824,,Gare Sud,0,node/6969583474,5.3147951
-4.01752,,Gare Sud,0,node/6969583476,5.3154387
-4.0166201,,Novotel,0,node/6969583477,5.3161731
-4.0151837,,[Arret sans nom],0,node/6969583478,5.3172748
-4.015578,,Arrêt,0,node/6969583479,5.3202726
-4.0192916,,Arrêt,0,node/6969583480,5.3209056
-4.0207359,,Arrêt,0,node/6969583481,5.3217388
-4.0207185,,Hotel de Ville,0,node/6969583482,5.3233639
-4.0207171,,Arrêt,0,node/6969583483,5.3257514
-4.0207332,,Arrêt,0,node/6969583484,5.3278011
-4.0217525,,Cité Administrative,0,node/6969620785,5.3335937
-3.985249,,Termunis 81/82,0,node/6970095632,5.4031227
-3.9859892,,Arrêt,0,node/6970095633,5.3971746
-3.9875704,,Pharmacie Les 7 Lys,0,node/6970095634,5.3841166
-3.979157,,Arrêt,0,node/6970095635,5.3643008
-3.977256,,Riviera 2,0,node/6970095637,5.3542958
-3.978931,,Arrêt,0,node/6970095638,5.3623286
-3.9866585,,DGI,0,node/6970095639,5.3924174
-3.9853522,,Termunis 81/82,0,node/6970095641,5.4031427
-3.9506122,,Arrêt,0,node/6970366278,5.3554107
-3.950804,,Arrêt,0,node/6970366281,5.3552038
-3.9482653,,Arrêt,0,node/6970366282,5.3652007
-3.9522095,,Arrêt,0,node/6970366283,5.3643008
-4.0181825,,Arrêt,0,node/6979256984,5.403546
-3.9848581,,Arrêt,0,node/6979431044,5.4038146
-3.977142,,Arrêt,0,node/6979431045,5.39671
-3.9754421,,Arrêt,0,node/6979431046,5.3902524
-3.9747639,,Arrêt,0,node/6979431047,5.387788
-3.9737651,,Arrêt,0,node/6979431048,5.3839137
-3.9734902,,Arrêt,0,node/6979431049,5.3828575
-3.9627425,,Arrêt,0,node/6979431051,5.3749859
-3.984727,,Arrêt,0,node/6979431052,5.4036825
-3.9195342,,Arrêt,0,node/6979712503,5.3281463
-3.9224169,,Arrêt,0,node/6979712504,5.3318471
-3.9227159,,Arrêt,0,node/6979712505,5.3394623
-3.923066,,Arrêt,0,node/6979712506,5.3479974
-3.9234415,,Arrêt,0,node/6979712507,5.3497346
-3.924564,,Arrêt,0,node/6979712508,5.3546363
-3.9253713,,Arrêt,0,node/6979712509,5.3579717
-3.9221386,,Arrêt;Sodeci,0,node/6979712510,5.3601
-3.9265072,,Arrêt,0,node/6979712511,5.3622665
-3.9268023,,Arrêt,0,node/6979712512,5.3635464
-3.928193,,Arrêt,0,node/6979712513,5.3687351
-3.9379911,,Arrêt,0,node/6979712514,5.3703787
-3.9279167,,Arrêt,0,node/6979712515,5.3679286
-3.9227716,,Arrêt,0,node/6979712516,5.3470093
-3.9223344,,Arrêt,0,node/6979712517,5.3449917
-3.9218402,,Arrêt,0,node/6979712518,5.3428352
-3.9221104,,Arrêt,0,node/6979712519,5.3413324
-3.9344399,,Arrêt,0,node/6980029236,5.2452454
-3.9723435,,Arrêt,0,node/6980029237,5.2569228
-4.0062828,,Bank Of Africa,0,node/6980029238,5.2684644
-4.0139727,,Arrêt,0,node/6980029239,5.2646043
-4.0112543,,Arrêt,0,node/6980029241,5.2587043
-4.0138916,,[Arret sans nom],0,node/6980029242,5.2648347
-4.006083,,[Arret sans nom],0,node/6980029243,5.2686721
-3.9560491,,Terminus Port-Bouët Phare,0,node/6980258130,5.2509145
-4.0032211,,Arrêt,0,node/6980521688,5.3433974
-3.9976139,,Arrêt,0,node/6980521689,5.3628414
-4.0057075,,Arrêt,0,node/6980521690,5.399921
-4.0065511,,Arrêt,0,node/6980521691,5.4015232
-4.0065081,,Arrêt,0,node/6980521692,5.4034191
-4.0192406,,Terminus Gendarmerie Abobo,0,node/6980521695,5.4241696
-4.0134712,,Arrêt,0,node/6980521696,5.4185708
-4.0074744,,Arrêt,0,node/6980521697,5.4155561
-4.0062694,,Arrêt,0,node/6980521698,5.4135434
-4.0064277,,Arrêt,0,node/6980521699,5.4035807
-3.9990999,,Arrêt,0,node/6980521700,5.3998663
-3.992904,,Arrêt,0,node/6980521701,5.3987194
-3.9927913,,Arrêt,0,node/6980521702,5.387006
-3.9934525,,Arrêt,0,node/6980521703,5.3819122
-3.9718473,,Arrêt,0,node/7025968250,5.2578469
-3.9994057,,Arrêt,0,node/7025975082,5.2642798
-4.003783,,Arrêt,0,node/7025975083,5.2682835
-4.10439,,Arrêt,0,node/7025992286,5.3292373
-4.0083388,,[Arret sans nom],0,node/7026069662,5.2771214
-4.0149826,,Arrêt,0,node/7026279881,5.341978
-3.9547831,,Arrêt,0,node/7026364429,5.2855772
-3.9641359,,[Arret sans nom],0,node/7026390486,5.2850417
-3.9616643,,Océan Espadon,0,node/7028872830,5.2566557
-4.0278525,,Gare Nord,0,node/7028872831,5.3588917
-3.9736383,,Cité étudiante Riviera 2,0,node/7043603291,5.3534289
-4.0957761,,Carrefour Antenne Ananeraie,0,node/7043642288,5.3550743
-4.0344058,,Gare Lagunaire Yopougon STL,0,node/7044975088,5.3109066
-4.0170439,,Gare Lagunaire Plateau STL,0,node/7044975089,5.3143858
-4.0100701,,Gare Lagunaire Treichville STL,0,node/7044975090,5.3135839
-3.952125,,Gare Lagunaire Koumassi STL,0,node/7046900012,5.315627
-3.9603245,,Gare Lagunaire M'pouto STL,0,node/7046900013,5.3240676
-4.015859,,Gare Lagunaire de Treichville Sotra,0,node/7046964142,5.3108107
-4.0347196,,Gare Lagunaire d’Abobo-Doumé Sotra,0,node/7046964143,5.3107009
-4.0176728,,Gare Lagunaire du Plateau Sotra,0,node/7047063325,5.3140753
-4.0021442,,Gare lagunaire de Blockauss Sotra,0,node/7047101136,5.3212342
-4.0016118,,Arrêt,0,node/7047930662,5.3562773
-3.9856634,,Arrêt,0,node/7047930663,5.4096636
-3.9091802,,Syndicat,0,node/7048020780,5.3665112
-3.9119428,,Késsé,0,node/7048020781,5.3739184
-3.9446417,,Camp Millitaire d'Akouédo,0,node/7048020782,5.3676562
-3.9495032,,Église Apostolique de Côte d'Ivoire,0,node/7048020783,5.3652501
-4.1020069,,Yopougon Gesco - Terminus du bus 34,0,node/7049258139,5.3672056
-4.0973914,,Arrêt,0,node/7049258140,5.365903
-4.0976979,,Arrêt,0,node/7049258141,5.3634963
-4.1003995,,Arrêt,0,node/7049258142,5.3608051
-4.0998034,,Arrêt,0,node/7049258143,5.3587021
-4.0940326,,Mamie Adjoua,0,node/7049258144,5.3582214
-4.088628,,Arrêt,0,node/7049258145,5.3552799
-4.0120965,,Arrêt,0,node/7049730219,5.3009034
-3.9392397,,EPP Aéroport,0,node/7049730220,5.2545644
-3.9712512,,Sept Villas,0,node/7049730221,5.2734289
-3.9852691,,Arrêt,0,node/7049730222,5.2844982
-4.0031956,,Carrefour La Vie,0,node/7051810979,5.3485715
-4.0128221,,Terminus Liberté,0,node/7051810981,5.3528057
-3.9885668,,Ecole de Police,0,node/7051810982,5.3503194
-3.9797437,,Riviera 2,0,node/7051810984,5.3530834
-3.9788968,,Station Total Riviera 2,0,node/7051811086,5.3529853
-3.9909077,,Vallon,0,node/7051811087,5.35446
-4.0043946,,Escalier,0,node/7051811088,5.3546991
-4.0146225,,Adjamé liberté,0,node/7051811090,5.3533605
-4.0228106,,Gare Anono,0,node/7051905145,5.3498521
-4.0223607,,Station,0,node/7051905146,5.3495777
-4.0227932,,Banfora,0,node/7051905147,5.347757
-4.0227107,,Marché,0,node/7051905148,5.3464705
-4.0226899,,Eglise Saint Michel,0,node/7051905149,5.3451372
-4.0234597,,Eglise,0,node/7051905150,5.343631
-3.9993949,,SODEFOR,0,node/7051905151,5.3490415
-3.9919236,,Carrefour CHU,0,node/7051905152,5.3494341
-3.9869374,,Arrêt,0,node/7051905153,5.3505471
-3.9724706,,Terminus Anono,0,node/7051905154,5.3445751
-3.9744008,,Marché,0,node/7051905155,5.3452895
-3.9724521,,Terminus Anono,0,node/7051905157,5.34455
-3.9769623,,Arrêt,0,node/7051905159,5.3504075
-3.9778259,,Au Lavage,0,node/7051905160,5.3500924
-3.9809205,,A la Mosquée,0,node/7051905161,5.3510311
-3.9905101,,Carrefour CHU,0,node/7051905162,5.349577
-4.0228461,,Gare Anono,0,node/7051905163,5.3497766
-3.989405,,Ecole de Police,0,node/7052162358,5.3501191
-4.0226577,,Carrefour Saint Michel,0,node/7052162359,5.3454176
-4.0216117,,A La Caisse,0,node/7052162360,5.3418391
-3.9457347,,Akouédo,0,node/7052162361,5.3673438
-3.9324155,,Playce Palmeraie,0,node/7052162362,5.3719142
-3.9287925,,Nouveau Goudron,0,node/7052162363,5.3728529
-3.9122875,,Kessé,0,node/7052162364,5.3743603
-3.8981583,,CIE,0,node/7052162365,5.3602229
-3.8947412,,Station Texaco,0,node/7052162366,5.3613609
-3.8882764,,Collège Moderne,0,node/7052162367,5.3575885
-3.8845441,,Carrefour Bangui,0,node/7052162369,5.3573081
-3.8843443,,Terminus Carrefour Bangui,0,node/7052162370,5.357718
-3.8844985,,Carrefour Bangui,0,node/7052162371,5.3571933
-3.887693,,Collège Moderne,0,node/7052162372,5.3574283
-3.9374359,,Faya,0,node/7052162373,5.3703106
-4.0224532,,Gare en haut,0,node/7052162375,5.350286
-4.0218316,,Clinique Fraternité,0,node/7052340401,5.3493033
-4.0042631,,Escalier,0,node/7052340402,5.3548993
-3.9904813,,Vallon-1er Pont,0,node/7052340403,5.3546376
-4.0227482,,Gare en haut,0,node/7052340404,5.3504162
-3.9542839,,Terminus M'Pouto,0,node/7052340405,5.3271876
-3.9543486,,Terminus M'Pouto,0,node/7052340406,5.3271989
-3.9579682,,A l'Arrêt,0,node/7052340407,5.3310206
-3.9557567,,Banny,0,node/7052340408,5.3347781
-3.9537035,,Maison Blanche,0,node/7052340409,5.337175
-3.952691,,Mel Théodore,0,node/7052340410,5.3452694
