stop_lat,stop_lon,stop_id,parent_station,stop_name,location_type
5.292783,-3.9610541,node/6906596970,,Boulangerie,0
5.3172602,-4.0948509,node/6913201909,,EPP SICOGI Niangon Sud,0
5.3150643,-4.0934497,node/6913201908,,Arrêt,0
5.3166799,-4.0440879,node/6913190445,,[Arret sans nom],0
5.3087112,-4.043768,node/6913190444,,Santé Village,0
5.3221154,-4.0468311,node/6913190447,,[Arret sans nom],0
5.3208014,-4.0441167,node/6913190446,,[Arret sans nom],0
5.3163701,-4.0947904,node/6913201903,,Arrêt,0
5.3197171,-4.0944323,node/6913201902,,Arrêt,0
5.2742845,-3.9787018,node/4107240891,,Pharmacie de Bietry,0
5.3239194,-4.0871836,node/6913201900,,Saint Pierre,0
5.315995,-4.0900334,node/6913201907,,Terminus 27,0
5.3152357,-4.0928994,node/6913201904,,Arrêt Yop 38,0
5.3427541,-4.0668084,node/3137208051,,[Arret sans nom],0
5.3286344,-3.9323347,node/6948222239,,Teminus M'Badon,0
5.3266769,-4.060057,node/6932152400,,Arrêt,0
5.3355172,-3.9393644,node/6948222236,,Pharmacie,0
5.3250076,-4.0598402,node/6932152402,,Ghandi,0
5.3253408,-4.0599193,node/6932152404,,Ghandi,0
5.3600658,-4.0669167,node/6932152405,,Arrêt,0
5.3017767,-4.0094478,node/6933231056,,Station Total,0
5.314853,-4.0182858,node/6932152407,,Gare Sud,0
5.3392333,-3.9452136,node/6948222234,,Antenne,0
5.3628414,-3.9976139,node/6980521689,,Arrêt,0
5.3433974,-4.0032211,node/6980521688,,Arrêt,0
5.3385917,-3.9428439,node/6948222235,,Akwaba,0
5.3147983,-4.0186967,node/6927327314,,Gare Sud,0
5.3184312,-4.0145266,node/6908914496,,Siège Moov,0
5.3417576,-3.9522725,node/6948222230,,Arrêt,0
5.3493427,-4.073208,node/5927302128,,Figayo,0
5.4526174,-4.0544875,node/6915722732,,Arrêt,0
5.3673274,-3.9797109,node/5958266389,,Parmacie St Bernard,0
5.4669354,-4.0534141,node/6915722730,,Arrêt,0
5.4611068,-4.053759,node/6915722731,,Arrêt Ancienne Gendarmerie,0
5.3472669,-4.017115,node/6907154301,,220 logements,0
5.3528511,-4.0168481,node/6907154300,,Boulangerie Top baquette,0
5.4483606,-4.0510764,node/6915722734,,Arrêt Terminus,0
5.4449974,-4.0491425,node/6915722735,,Arrêt Agripac,0
5.3418097,-4.0230188,node/6908914492,,Indenié,0
5.3975314,-3.9860303,node/5958266385,,Pharmacie Les Laureades,0
5.3806539,-3.9881294,node/5958266386,,Petro Ivoire 7è Tranche,0
5.373758,-3.9845519,node/5958266387,,Commisariat 30è Art.,0
5.3390831,-3.9787459,node/7160556543,,Carrefour Mosquée Golf,0
5.335168,-3.9959684,node/7160556542,,Lycée Moderne de Cocody,0
5.336062,-4.0035772,node/7160556541,,Saint Jean,0
5.4141149,-4.0159589,node/6966942819,,Arrêt,0
5.3527309,-3.9768831,node/7160556546,,Riviera 2,0
5.3464111,-3.9751786,node/7160556544,,Carrefour Anono,0
5.4469386,-4.0140968,node/6966942817,,Arrêt,0
5.3510631,-3.9763856,node/7160556548,,Station Service First Petroleum Riviéra 2,0
5.3270841,-4.0503167,node/6913190449,,Commissariat de Police du 19ᵉ Arrondissement,0
5.3465781,-4.002571,node/6916280448,,Cité BAD,0
5.3386878,-4.0035403,node/6916280449,,CIE,0
5.323918,-4.0496448,node/6913190448,,[Arret sans nom],0
5.3765337,-4.0094557,node/6902868241,,CIE,0
5.3668297,-4.0152077,node/6902868240,,Cimetière,0
5.3900553,-4.0056173,node/6902868243,,Eglise,0
5.3700155,-3.9981216,node/6916280447,,SGBGI,0
5.4197639,-4.0160257,node/6902868245,,Abobo Gare Mairie,0
5.41329,-4.0099567,node/6902868244,,Pharmacie Racines,0
5.3973362,-3.991524,node/6916280442,,SODECI,0
5.3945043,-3.9918311,node/6916280443,,Paris Baguette,0
5.4158258,-3.9933116,node/5068855021,,Terminus 704 abobo Belleville,0
5.3380122,-3.9527768,node/6933080254,,Beverly,0
5.3311481,-3.9578046,node/6933080255,,Carrefour Sol Béni,0
5.329493,-3.980421,node/6933080256,,Arrêt,0
5.3353723,-3.9996752,node/6933080257,,SIB,0
5.3283246,-3.9428298,node/6933080250,,Arrêt,0
5.3282992,-3.9447637,node/6933080251,,École libanaise Al Ghadir,0
5.3283286,-3.9460498,node/6933080252,,Arrêt,0
5.328364,-3.9479502,node/6933080253,,Pharmacie M'pouto,0
5.3284154,-3.9401878,node/6933080258,,Mosquée Cité Eden,0
5.4350792,-4.0127537,node/6474139031,,Cité Universitaire Abobo,0
5.4354761,-4.0154322,node/6474139033,,Quai 15,0
5.4102497,-3.984559,node/6932253479,,Arrêt,0
5.4127978,-3.9808642,node/6932253478,,Angré Château,0
5.4186623,-4.0060106,node/6903296477,,Carrefour Kennedy,0
5.3226907,-4.0205256,node/6136858285,,Terminus Hotel de Ville,0
5.3423254,-4.0738295,node/3075945505,,Saint André,0
5.4392603,-4.0438735,node/6934648740,,Arrêt,0
5.3620442,-3.9591336,node/6815808831,,Carrefour Palmeraie,0
5.3580852,-3.9641507,node/6815808830,,Station Shell Riviera 3,0
5.3233739,-4.0925668,node/6913201901,,EPP Niangon,0
5.3513262,-4.0170747,node/6908914490,,Liberté,0
5.422222,-3.9904401,node/6926746761,,Arrêt,0
5.4196603,-3.9908193,node/6926746760,,Sotra,0
5.43368,-3.9886816,node/6926746763,,Arrêt,0
5.4265157,-3.9898619,node/6926746762,,Arrêt,0
5.4402786,-3.9850082,node/6926746765,,Arrêt,0
5.4374054,-3.9873449,node/6926746764,,Arrêt,0
5.4451883,-3.9785569,node/6926746767,,Arrêt,0
5.443381,-3.9807703,node/6926746766,,Arrêt,0
5.3458217,-3.9505483,node/6903347584,,2ème rond-point,0
5.3419897,-4.1003513,node/5934409413,,Arrêt,0
5.3384154,-3.9427407,node/6903347580,,2 poteaux,0
5.3461517,-3.9471733,node/6903347583,,École,0
5.345935,-3.9457017,node/6903347582,,Carrefour Akouédo,0
5.3468223,-3.9752188,node/6948695740,,Arrêt,0
5.343802,-3.9750874,node/6948695741,,Arrêt,0
5.3416148,-3.9760651,node/6948695742,,Arrêt,0
5.3397193,-3.9757586,node/6948695743,,Arrêt,0
5.3385022,-3.9754911,node/6948695744,,Arrêt,0
5.3344937,-3.9902714,node/6948695745,,Arrêt,0
5.3349056,-3.9957176,node/6948695746,,Arrêt,0
5.348406,-4.0732683,node/7076835397,,Cosmos Yopougon,0
5.3052353,-4.007007,node/6952200475,,Arrêt,0
5.3029158,-4.0061849,node/6933231057,,Pharmacie de l'Avenue 27,0
5.3591428,-4.0290092,node/7076835394,,Adjamé Nouvelle Gare,0
5.3755833,-3.9985338,node/6912729882,,SNEDAI,0
5.3776569,-3.9976312,node/6912729883,,Carrefour Duncan,0
5.3718047,-3.9984268,node/6912729880,,Sococé 2 Plateaux,0
5.3745478,-3.9985198,node/6912729881,,BOA,0
5.2875728,-4.0059154,node/6939076692,,Terminus dépôt SOTRA,0
5.3809527,-3.9943103,node/6912729884,,Las Palmas,0
5.3534289,-3.9736383,node/7043603291,,Cité étudiante Riviera 2,0
5.3462622,-4.0997625,node/6966758108,,Arrêt,0
5.333344,-4.1031267,node/6966758109,,Arrêt,0
5.3582214,-4.0940326,node/7049258144,,Mamie Adjoua,0
5.3552799,-4.088628,node/7049258145,,Arrêt,0
5.4221255,-4.011717,node/6903296476,,Mosquée,0
5.3428005,-4.1003653,node/7082468467,,Resto chawamar pizza café,0
5.3465406,-4.0996063,node/7082468466,,Carrefour Véritas,0
5.349107,-4.0212174,node/6899264970,,Marché Gouro,0
5.3547097,-4.0163905,node/6899264971,,Adjamé Liberté,0
5.358734,-4.016791,node/6899264972,,Station Total,0
5.4215493,-4.0171184,node/6899264973,,Abobo Gare Mairie,0
5.3366595,-4.1006537,node/7082468469,,Maquis la Republique,0
5.3266074,-4.0255438,node/6913011676,,Sitarail,0
5.3293875,-4.073499,node/6913011677,,Gare Yopougon Kouté,0
5.3412623,-4.1003761,node/7082468468,,NSIA Banque,0
5.4148754,-4.0064263,node/6906590689,,Samake,0
5.3446768,-4.0679411,node/3137243386,,Newton,0
5.3154761,-4.0181476,node/7084838708,,Gare Sud,0
5.4136035,-3.9953287,node/6910797821,,Arrêt,0
5.4103992,-3.9941237,node/6910797820,,Arrêt,0
5.2884523,-3.9538698,node/6931792550,,Koumassi Sicogi - Dépôt SOTRA,0
5.2984459,-4.0104501,node/6952132251,,"BIAO, Treichville",0
5.2912033,-3.9954532,node/6952132250,,Arrêt,0
5.3144382,-4.0182926,node/6952132252,,Gare Sud,0
5.3526374,-3.9781867,node/6928250860,,Riviera 2,0
5.4365892,-4.0124238,node/6906507833,,BICICI,0
5.3534857,-3.9702004,node/6928250862,,Terminus Riviera 2,0
5.3589064,-4.029457,node/7057276360,,Adjamé Agban,0
5.4196489,-4.015655,node/7077935897,,Abobo Gare Mairie,0
5.4147624,-3.9960113,node/7077935896,,Carrefour Angré,0
5.4154033,-3.9931306,node/7077935895,,Cité Grâce,0
5.4224126,-3.9903116,node/7077935894,,Maternité,0
5.4236689,-3.9901212,node/7077935893,,Conteneur,0
5.4264012,-3.9896987,node/7077935892,,Fofana CDCI,0
5.4300173,-3.9891576,node/7077935891,,Mosquée,0
5.4315313,-3.9889269,node/7077935890,,Elite,0
5.3536652,-4.0117645,node/7057184320,,Adjamé Liberté Gare de Bingerville,0
5.4440736,-4.0494295,node/6938343085,,Arrêt,0
5.2870688,-3.970533,node/6931985671,,Grand Carrefour de Koumassi,0
5.2985627,-4.001299,node/6931985672,,Ivosep Treichville,0
5.3044274,-4.0092923,node/6948706682,,[Arret sans nom],0
5.321664,-4.0157926,node/6948706680,,Warafa Assurance,0
5.3184017,-4.0152582,node/6948706681,,Arrêt Résidence Nabil,0
5.3608351,-4.0171229,node/2381298633,,Agban,0
5.3701109,-3.9813021,node/5958266388,,Terminus 202 Attoban,0
5.2912433,-3.9675638,node/6906596968,,Auto-école,0
5.2919737,-3.964494,node/6906596969,,Arrêt,0
5.3395304,-4.0745628,node/6913190458,,Marche Sicogi,0
5.3379928,-4.0751928,node/6913190459,,Patisserie,0
5.3054677,-4.0044435,node/6906596962,,Karwil,0
5.3031308,-4.0036369,node/6906596963,,Notre-dame,0
5.35345,-4.015528,node/6906596960,,Adjamé Liberté,0
5.3100359,-4.0060884,node/6906596961,,Nanan Yamousso,0
5.3337753,-4.0550937,node/6913190452,,La Poste,0
5.2924331,-3.9752094,node/7054999103,,Ibis Marcory,0
5.2922114,-3.9740923,node/7054999100,,Ibis Marcory,0
5.2998444,-3.9983918,node/6906596965,,Collège Moderne Autoroute,0
5.3202551,-4.0943199,node/6913201910,,Carrefour Marché,0
5.3233885,-4.0926667,node/6913201911,,EPP Niangon,0
5.3240967,-4.0869619,node/6913201912,,Saint Pierre,0
5.3246783,-4.0797426,node/6913201913,,Akadjoba,0
5.3287702,-4.0762905,node/6913201914,,Arrêt de bus,0
5.3146172,-4.0184952,node/6913201915,,Gare Sud,0
5.3685842,-3.9898489,node/6935117224,,Nsia Banque,0
5.372732,-3.9904759,node/6935117225,,Leader price,0
5.3770534,-3.9926612,node/6935117227,,Carrefour Sainte Cécile - Terminus 35,0
5.3591731,-4.0273828,node/6935117220,,Gare Nord,0
5.3610508,-3.9897309,node/6935117222,,Woodin,0
5.3653222,-3.9897537,node/6935117223,,[Arret sans nom],0
5.2813533,-3.9692871,node/6935274800,,CIE Bia Sud,0
5.460775,-4.0111868,node/6903097505,,Terminus Akéikoi Village,0
5.4594779,-4.0109968,node/6903097504,,A l'ecole,0
5.4185708,-4.0134712,node/6980521696,,Arrêt,0
5.4155561,-4.0074744,node/6980521697,,Arrêt,0
5.449017,-4.0138345,node/6903097501,,Boulangerie,0
5.4383233,-4.0135883,node/6903097500,,Cité,0
5.4552984,-4.01134,node/6903097503,,Destin,0
5.4500084,-4.0136722,node/6903097502,,Christine Bar,0
5.4135434,-4.0062694,node/6980521698,,Arrêt,0
5.4035807,-4.0064277,node/6980521699,,Arrêt,0
5.357433,-3.8879555,node/6948466339,,Pharmacie Du Marché,0
5.357652,-3.8895766,node/6948466338,,La Poste,0
5.353946,-3.9767852,node/6948466331,,Arrêt,0
5.3732347,-3.9273548,node/6948466333,,Arrêt,0
5.3560356,-3.9695473,node/6948466332,,Arrêt,0
5.3738883,-3.9116914,node/6948466335,,Késsé,0
5.3744488,-3.9221262,node/6948466334,,Arrêt,0
5.3613312,-3.8946091,node/6948466337,,Station TEXACO,0
5.3664705,-3.9090387,node/6948466336,,Syndicat,0
5.343718,-4.0013186,node/6908599213,,ISTC,0
5.3464621,-3.9946557,node/6908599212,,Gare Campus Cocody,0
5.3358477,-4.0036435,node/7160556553,,Saint Jean,0
5.4148038,-4.0334697,node/6944920986,,Terminus bus 51/52,0
5.3373639,-3.9533649,node/6951182059,,Arrêt,0
5.3080275,-4.005442,node/6905719612,,Nanan Yamousso,0
5.2948647,-4.004071,node/4999458824,,Terminus CHU Treichville,0
5.3523977,-3.9766934,node/7160556547,,Riviera 2,0
5.4381706,-4.0166429,node/6966942818,,Arrêt,0
5.4429021,-4.0144891,node/6903193216,,Mosquée,0
5.3078566,-3.9888954,node/6930487819,,Arrêt,0
5.3401473,-4.058547,node/6913190454,,Pharmacie Béatitude,0
5.3545669,-4.0181838,node/7055596720,,Adjamé Texaco,0
5.4412279,-3.9836597,node/7171335594,,Clinique,0
5.4455655,-3.9781143,node/7171335593,,Biabou,0
5.4456736,-3.9781947,node/7171335591,,Biabou,0
5.4424655,-3.9820893,node/7171335590,,Carrefour COSIM,0
5.3550743,-4.0957761,node/7043642288,,Carrefour Antenne Ananeraie,0
5.2562337,-3.9975522,node/6928704117,,Terminus Vridi-Iran,0
5.29778,-4.0140854,node/6928704114,,"Etablissements Rey, Port",0
5.264595,-3.9995223,node/6928704115,,Arrêt Bolloré logistique,0
5.3050571,-4.0228924,node/6928704112,,Terminus 32,0
5.3002851,-4.0170398,node/6928704113,,[Arret sans nom],0
5.3402488,-3.9747494,node/7160556549,,Leader Price Riviera Golf,0
5.3994417,-3.9972693,node/6934815688,,Pharmacie Sainte Monique,0
5.3997942,-4.0008152,node/6934815689,,Station Petro Ivoire,0
5.3979557,-3.9916306,node/6934815686,,22ème,0
5.3992227,-3.9959845,node/6934815687,,Superette Akwaba,0
5.3595346,-4.028787,node/7078209300,,Adjamé Nouvelle Gare,0
5.3994163,-3.9960703,node/6934815685,,Superette Akwaba,0
5.4193151,-4.0240122,node/6944887183,,Arrêt,0
5.4253525,-4.0220542,node/6944887182,,Arrêt,0
5.3310827,-4.0237293,node/6944887181,,Terminus tours Administratives,0
5.3283646,-3.9401855,node/6933080260,,Mosquée Cité Eden,0
5.3391939,-3.9789297,node/6933080263,,Mosquée Golf,0
5.3461454,-4.0026096,node/6933080262,,Arrêt,0
5.4890597,-4.0515593,node/6915722699,,Arrêt,0
5.4866626,-4.05146,node/6915722698,,Arrêt,0
5.3380134,-3.9529652,node/6933080266,,Beverly,0
5.4794949,-4.0538658,node/6915722695,,Arrêt,0
5.4680953,-4.0530974,node/6915722694,,Arrêt,0
5.4837187,-4.0513476,node/6915722697,,Arrêt,0
5.4828953,-4.0513358,node/6915722696,,Arrêt,0
5.4574448,-4.054497,node/6915722691,,Arrêt,0
5.4565524,-4.0545715,node/6915722690,,Arrêt,0
5.4662168,-4.0540279,node/6915722693,,Arrêt,0
5.465098,-4.0544278,node/6915722692,,Arrêt,0
5.3466808,-4.0996411,node/7082468481,,Carrefour Véritas,0
5.3444406,-4.100485,node/7082468480,,Collège Nadjata,0
5.3510995,-4.1000053,node/7082468483,,SODECI,0
5.3509103,-4.0994455,node/7082468482,,Bank of Africa: BOA,0
5.3694267,-3.9776678,node/6903639367,,Escalier,0
5.370557,-3.9761316,node/6903639366,,Attoban camp,0
5.300639,-4.0126625,node/6954138440,,Arrêt,0
5.3658448,-3.9793174,node/6903639369,,Carrefour Garage,0
5.3673899,-3.9794185,node/6903639368,,Pharmacie Saint Bernard,0
5.2870755,-3.973057,node/6954138444,,UTTb Université Loko,0
5.2892455,-3.9693475,node/6954138445,,Marché DjeKonan,0
5.3133129,-3.9518099,node/6954138446,,Arrêt,0
5.3369773,-4.055093,node/6913190453,,Pharmacie Sacré-cœur,0
5.3587248,-4.0307674,node/7084919707,,Cité Fairmont,0
5.3318044,-4.0554665,node/7084919709,,Pharmacie Toits-Rouges,0
5.342213,-4.0563664,node/7084919708,,Chantier,0
5.3355267,-4.0007635,node/6907141800,,Marché de Cocody,0
5.3384172,-4.0038072,node/6907141801,,CIE,0
5.2948194,-4.0033954,node/6909237619,,CHU Treichville,0
5.3587491,-4.0274511,node/6907141803,,Gare Nord,0
5.3141434,-4.0177429,node/6969221530,,Gare Sud,0
5.3305385,-4.0798317,node/6944816372,,Sideci Lem,0
5.3270574,-4.0813807,node/6944816373,,[Arret sans nom],0
5.3314425,-4.0768933,node/6944816371,,Sideci Pharmacie Lem,0
5.3246445,-4.0806283,node/6944816374,,Akadjoba,0
5.4148679,-4.0292533,node/6944920985,,Arrêt,0
5.3650468,-4.0958118,node/7082486687,,Gesco BATIM,0
5.3582108,-4.1015174,node/7082486686,,CAT,0
5.351441,-4.1040212,node/7082486685,,Pharmacie Alicia,0
5.2407648,-3.9051327,node/6935488172,,Mosquée,0
5.2417851,-3.9115848,node/6935488171,,Arrêt,0
5.2426599,-3.9170243,node/6935488170,,Arrêt,0
5.3505424,-4.022934,node/7083105177,,Gare en haut,0
5.4135848,-4.0162419,node/6474138991,,Banco,0
5.3875127,-3.9927256,node/6916280444,,Arrêt,0
5.4237125,-4.0190818,node/6474138993,,Terminus Gendarmerie Abobo,0
5.4183764,-4.0173344,node/6474138992,,Saint-Joseph 2ème Arrêt,0
5.4363436,-4.0203886,node/6474138995,,DGI Abobo,0
5.4315506,-4.020231,node/6474138994,,Bar Ivoire Abobo,0
5.4383936,-4.0138587,node/6474138997,,Carrefour Akeïkoi,0
5.4382274,-4.0189201,node/6474138996,,Avenue Kaza,0
5.3149589,-4.0190673,node/6474138999,,Terminus Gare Sud,0
5.387006,-3.9927913,node/6980521702,,Arrêt,0
5.3737207,-3.9983542,node/6916280446,,NSIA,0
5.3819122,-3.9934525,node/6980521703,,Arrêt,0
5.3789939,-4.0070149,node/6902868242,,ZOO,0
5.3998663,-3.9990999,node/6980521700,,Arrêt,0
5.4011787,-3.9910264,node/6916280440,,Arrêt,0
5.3987194,-3.992904,node/6980521701,,Arrêt,0
5.3743039,-3.9117702,node/6969371620,,Feh Kessé,0
5.3991513,-3.9912618,node/6916280441,,Carrefour 22ème,0
5.3672576,-3.945502,node/7083191189,,Nouveau Camp,0
5.3292373,-4.10439,node/7025992286,,Arrêt,0
5.3619274,-4.0173121,node/7083191191,,Gare Kobenan Agban,0
5.3652948,-3.9494079,node/7083191190,,Deux Poteaux,0
5.3659384,-4.0155634,node/6906590694,,Carrefour 2 plateaux,0
5.3546002,-4.0162927,node/6906590695,,Adajmé Liberté,0
5.4101483,-4.0063152,node/6906590692,,Chaîne avion,0
5.4073533,-4.0063867,node/6906590693,,1ere Boutique,0
5.41527,-4.0068417,node/6906590691,,Samake,0
5.335819,-3.9767155,node/6820855646,,Ambassade des USA,0
5.3309825,-3.9728877,node/6820855647,,Hotel du Golf,0
5.2994752,-4.0026612,node/7054593081,,Gare de bassam,0
5.3534437,-4.014858,node/6899053345,,Adjamé liberté,0
5.3310297,-3.9730064,node/6820855648,,Hotel du Golf,0
5.3312498,-3.9579229,node/6820855649,,Ex Terminus Sotra;Carrefour Sol Beni,0
5.2891307,-4.0082905,node/6967158580,,Pharmacie du Port,0
5.3470567,-4.0884501,node/3666057101,,Pharmacie Port-Bouët II,0
5.3573882,-3.8872746,node/7083191185,,CIE,0
5.2857761,-3.9543311,node/6931792548,,Arrêt,0
5.2397004,-3.8998461,node/7054593069,,Terre rouge,0
5.239249,-3.8965698,node/7054593068,,Gonzagueville - Corridor,0
5.239452,-3.8968273,node/7054593066,,Gonzagueville - Corridor,0
5.2412776,-3.9084828,node/7054593065,,Jean folly,0
5.3074119,-4.0117713,node/6931792543,,Pharmacie du Rond-point,0
5.3090558,-4.0071049,node/6931792544,,[Arret sans nom],0
5.2889971,-3.9672808,node/6931792545,,Centre comercial Koumassi,0
5.2839293,-3.9622262,node/6931792546,,Arrêt,0
5.2847439,-3.9586401,node/6931792547,,Pharmacie Bethanie,0
5.2957541,-4.0033337,node/6945864860,,Arrêt du CHU,0
5.3994657,-4.0013301,node/6934815690,,Sainte Monique,0
5.3516026,-3.9803499,node/6928250859,,Petite Mosquée Riviéra Jardin,0
5.3970104,-4.0026122,node/6934815692,,Centre Commercial du Dokui,0
5.4334338,-3.9885843,node/7077935888,,Pharmacie Belle-Ville,0
5.4327142,-3.9887479,node/7077935889,,Boulangerie,0
5.4232043,-3.9925513,node/7077935885,,Manioc,0
5.4315346,-3.9889652,node/7077935886,,Elite,0
5.3531115,-3.979568,node/3145728412,,Riviéra 2,0
5.2516684,-3.9421921,node/6961370880,,Arrêt Dr08,0
5.2543801,-3.9410589,node/6961370881,,Cité ASECNA,0
5.3335937,-4.0217525,node/6969620785,,Cité Administrative,0
5.4068598,-4.0166858,node/7056562836,,Plaque Anador,0
5.4090694,-4.0162446,node/7056562837,,Anador,0
5.3844945,-4.0218383,node/7056562834,,Lavage,0
5.3999911,-4.0204348,node/7056562835,,Express,0
5.3653423,-4.0295215,node/7056562832,,Garage en Haut,0
5.3811191,-4.0237091,node/7056562833,,Cissé 1er,0
5.429723,-4.014638,node/6908782550,,[Arret sans nom],0
5.3396157,-4.0912463,node/3067761599,,Arrêt du Maroc,0
5.3582581,-3.9643623,node/5953580668,,Station Shell Riviera 3,0
5.3618751,-3.9593077,node/5953580667,,Carrefour Palmeraie,0
5.3802448,-3.967352,node/5953580661,,Pharmacie Val de Grace,0
5.3148704,-4.0185085,node/6831076682,,Gare Sud,0
5.37797,-4.0061165,node/7058050532,,Gare Warren ZOO,0
5.3735899,-3.9985393,node/7058050530,,SOCOCE 2 Plateaux,0
5.3001329,-3.9494388,node/6917146073,,Gare Mesano,0
5.3999811,-4.003952,node/7058225058,,Azur 2,0
5.3998756,-3.9992702,node/7058225059,,Geo-Beton,0
5.2862983,-3.9702836,node/7054593075,,Grand Carrefour de Koumassi - Après le feu,0
5.3540868,-4.0177184,node/7055147061,,Adjamé Texaco,0
5.3604967,-4.0276406,node/7055147060,,En bas du pont,0
5.3603634,-3.9618018,node/7060277177,,Warren Palmeraie,0
5.3715597,-3.9648145,node/7060277175,,Pharmacie Saint-Paul,0
5.358951,-4.0277736,node/6909707236,,Gare Nord,0
5.3812913,-3.9647388,node/7060277173,,Termunis des Rosiers,0
5.3808721,-3.9646855,node/7060277172,,Termunis des Rosiers,0
5.380575,-3.9643954,node/7060277171,,Pharmacie Rosiers,0
5.3603471,-3.9618668,node/7060277170,,Warren Palmeraie,0
5.4010482,-3.9781939,node/6815808844,,Marché COCOVICO,0
5.3698807,-3.9587098,node/6815808845,,Pharmacie du bonheur,0
5.383206,-3.9725319,node/6815808846,,Groupe Scolaire St Marc,0
5.37725,-4.0257575,node/6899241576,,Macaci,0
5.3737728,-3.9618581,node/6815808840,,Quick Market,0
5.3776142,-3.9635563,node/6815808842,,Commissariat 35è Art.,0
5.3866021,-3.9745308,node/6815808843,,CNPS 9ème Tranche,0
5.4250381,-3.989972,node/7171335588,,Carrefour Paweur,0
5.441591,-3.9832601,node/7171335589,,Carrefour Mosquée,0
5.4178225,-4.0120778,node/7171335585,,Ciné Cool,0
5.4152691,-4.0062815,node/7171335586,,Samaké,0
5.4147974,-3.9955329,node/7171335587,,Carrefour Angré,0
5.4051935,-4.0065403,node/6902868227,,Pharmacie Dokui,0
5.4167077,-4.0102981,node/6902868226,,Au Bar,0
5.4176463,-4.0120067,node/6902868225,,Ciné Cool,0
5.4184847,-4.0136214,node/6902868224,,Petro Ivoire,0
5.3314011,-4.0236072,node/6935113687,,Terminus tours Administratives,0
5.40212,-4.0066315,node/6902868229,,Étage Noir,0
5.4306528,-4.0240914,node/6935113685,,Arrêt,0
5.2959351,-3.981013,node/6906596967,,Échangeur Marcory,0
5.4002961,-3.9911377,node/6912820404,,Carrefour 22è,0
5.4482915,-4.0512502,node/6915722688,,Arrêt,0
5.4503535,-4.0529903,node/6915722689,,Arrêt,0
5.3261567,-4.0771924,node/7055147057,,Yopougon Palais,0
5.3140753,-4.0176728,node/7047063325,,Gare Lagunaire du Plateau Sotra,0
5.4390733,-4.0446977,node/6915722686,,Anokoi,0
5.3925854,-3.9920934,node/6912820406,,Ambassade de Chine,0
5.4333404,-4.0266778,node/6915722685,,Arrêt,0
5.365069,-3.9792552,node/6903639370,,Polyclinique Sacré-Coeur,0
5.3642087,-3.9790994,node/6903639371,,Jules ferry,0
5.362115,-3.9788028,node/6903639372,,Hôtel Manhatan,0
5.3895654,-3.9924668,node/6912820407,,Mahikari,0
5.3571667,-3.9780678,node/6903639374,,Pharmacie Saint ange,0
5.356275,-3.9777617,node/6903639375,,André Malraux,0
5.403643,-3.9829561,node/6915341548,,Arrêt,0
5.4033522,-3.9807645,node/6915341549,,Arrêt,0
5.409531,-3.9932262,node/6915341546,,Arrêt,0
5.4050885,-3.990564,node/6915341547,,Petro Ivoire Angré,0
5.4148205,-3.9947036,node/6915341544,,Arrêt,0
5.4141247,-3.9952879,node/6915341545,,Arrêt,0
5.4158878,-3.9922122,node/6915341542,,Arrêt,0
5.4154923,-3.9928597,node/6915341543,,Arrêt,0
5.4195345,-3.9907254,node/6915341540,,Arrêt,0
5.4182159,-3.9909298,node/6915341541,,Arrêt,0
5.2437256,-3.9251152,node/6935494503,,Arrêt,0
5.243186,-3.9216458,node/6935494502,,Arrêt,0
5.2422365,-3.9156765,node/6935494501,,Arrêt,0
5.2414058,-3.9104489,node/6935494500,,Arrêt,0
5.2492829,-3.9541537,node/6935494507,,Arrêt,0
5.4155835,-4.0007226,node/6903504059,,Monastère,0
5.2456701,-3.9372025,node/6935494505,,Arrêt,0
5.2444775,-3.9298091,node/6935494504,,Arrêt,0
5.299118,-4.0065188,node/6935494509,,Palais des Sports,0
5.2573475,-3.9579213,node/6935494508,,43ème Bima,0
5.3308523,-4.0564066,node/7084919710,,Ofosucom toît rouge,0
5.3225614,-4.0624255,node/7084919711,,Terminus 37 - Yopougon Camp Militaire,0
5.3316762,-4.0556932,node/7084919712,,Pharmacie Toits-Rouges,0
5.3388013,-4.055382,node/7084919713,,Lavage,0
5.3493727,-4.0454672,node/7084919714,,Maquis,0
5.3589612,-4.0315774,node/7084919715,,Cité Fairmont,0
5.443862,-4.056062,node/6938324884,,Arrêt,0
5.4485133,-4.0706693,node/6938324881,,Arrêt,0
5.4517454,-4.0713693,node/6938324880,,Arrêt,0
5.4435135,-4.0681963,node/6938324883,,Arrêt,0
5.4441757,-4.0696567,node/6938324882,,Arrêt,0
5.4186048,-4.0135168,node/6902638989,,Petro Ivoire,0
5.4195759,-4.0153363,node/6902638988,,Carrefour Marché,0
5.4446545,-4.0489498,node/6903525060,,Agripac,0
5.4425017,-4.0477433,node/6903525061,,Marahoué,0
5.4379717,-4.0360937,node/6903525062,,Dépôt,0
5.4376377,-4.033852,node/6903525063,,A la Pompe,0
5.4367133,-4.030245,node/6903525064,,Marché de Nuit,0
5.4340417,-4.026894,node/6903525065,,Hôtel du centre,0
5.4217034,-4.018191,node/6903525066,,Abobo Gare,0
5.3027926,-3.9855715,node/6952200476,,Arrêt,0
5.3029759,-4.0212547,node/6909546915,,Port Autonome Abidjan,0
5.3059215,-4.0050815,node/6909546917,,Collège Bosco,0
5.4220421,-4.0184916,node/6903602213,,Gare abobo,0
5.3551229,-4.1026352,node/7085152210,,Star Oil,0
5.4497913,-4.0521369,node/6903602212,,PK 18 ancien marché,0
5.4169293,-4.0106347,node/6906699469,,[Arret sans nom],0
5.4121402,-4.0062842,node/6906699468,,ANADER,0
5.3968689,-4.0063445,node/6906699467,,Arrêt Dokui,0
5.3967647,-4.0065122,node/6906699466,,Arrêt Dokui,0
5.3898979,-4.0054621,node/6906699465,,[Arret sans nom],0
5.3723989,-4.0116794,node/6906699464,,Paillet,0
5.4074152,-4.0065336,node/6906699463,,1ere Boutique,0
5.3790616,-4.0069936,node/6906699462,,ZOO,0
5.2983706,-4.0041834,node/6935488165,,"Parc des Sports, Boulevard Valéry Giscard d'Estaing",0
5.2470403,-3.9445075,node/6935488166,,Carrefour Aéroport,0
5.2446806,-3.9295542,node/6935488167,,Arrêt,0
5.3765774,-4.0263861,node/6474138988,,Macaci,0
5.3906844,-4.021035,node/6474138989,,Filtisac,0
5.3534527,-4.0259071,node/6474138986,,Grande Mosquée Adjamé,0
5.3586829,-4.028099,node/6474138987,,Gare Nord,0
5.3503682,-4.0255664,node/6474138985,,Pharmacie du Banco,0
5.2440381,-3.925598,node/6935488168,,Arrêt,0
5.2434545,-3.922044,node/6935488169,,Arrêt,0
5.3655906,-4.0862945,node/7082486689,,Après le 3ème Pont,0
5.3658523,-4.0955642,node/7082486688,,Bon Prix,0
5.343713,-4.0260496,node/6474137983,,Mairie d'Adjamé,0
5.3386571,-4.026107,node/6474137982,,Institut National de la Santé Publique,0
5.3339569,-4.0247204,node/6474137981,,Camp Galliéni,0
5.3225013,-4.0197472,node/6474137980,,Galerie du Parc,0
5.2545644,-3.9392397,node/7049730220,,EPP Aéroport,0
5.3459921,-4.0258452,node/6474137984,,Marché Forum,0
5.3529459,-4.0739939,node/7071584257,,Kabadougou,0
5.3574483,-4.0739858,node/7071584256,,Sicomex,0
5.3739985,-3.911971,node/7083191188,,Kessé,0
5.3598,-4.0678546,node/7071584254,,Motar,0
5.3529499,-4.0742031,node/7071584253,,Kabadougou,0
5.345451,-4.0734266,node/7071584252,,Dialogue,0
5.3291632,-4.0758406,node/7071584251,,Cabine Bleue,0
5.3190808,-4.0803581,node/7071584250,,Yopougon IGES,0
5.3612004,-3.8954768,node/7083191186,,Djama,0
5.3604072,-3.9027549,node/7083191187,,Ancien Barrage,0
5.3454484,-4.0732348,node/7071584259,,Dialogue,0
5.3521848,-4.0737994,node/7071584258,,La poste,0
5.2949249,-4.0042001,node/6948791226,,Terminus CHU Treichville,0
5.3135839,-4.0100701,node/7044975090,,Gare Lagunaire Treichville STL,0
5.3134744,-4.0441328,node/6913190443,,Bon choix,0
5.3003893,-4.0026404,node/6906596964,,Gare de Bassam,0
5.3991713,-3.9657399,node/6910797809,,Arrêt,0
5.4011774,-3.960527,node/6910797808,,Arrêt,0
5.4000986,-3.9649835,node/6910797801,,Cité Diaspora,0
5.3946558,-3.971504,node/6910797800,,Arrêt,0
5.4022965,-3.9620463,node/6910797803,,SOCIAM,0
5.4025338,-3.9621642,node/6910797802,,SOCIAM,0
5.4154527,-4.0022783,node/6910797805,,Arrêt,0
5.399963,-3.9570893,node/6910797804,,CHU Angré,0
5.4003923,-3.9592423,node/6910797807,,Arrêt,0
5.3997812,-3.9570173,node/6910797806,,CHU Angré,0
5.3003252,-3.9894412,node/7054593079,,Grand Carrefour de Marcory,0
5.3672689,-3.9796695,node/6903968407,,Pharmacie Saint Bernard,0
5.2690216,-3.9621313,node/7054593074,,Akwaba - Station Total,0
5.3655779,-3.9794498,node/6903968408,,Carrefour garage,0
5.2888222,-3.9709514,node/7054593076,,Grand Carrefour de Koumassi - Avant le feu,0
5.3000261,-3.9889035,node/7054593077,,Gare de bassam,0
5.2416175,-3.9120106,node/7054593070,,Mosquée Sylla,0
5.2423247,-3.9165281,node/7054593071,,Casier,0
5.246864,-3.9446484,node/7054593072,,Carrefour Aéroport - Après le pont,0
5.2667851,-3.9614162,node/7054593073,,Akwaba - Rond-Point,0
5.38365,-3.9824142,node/7066277285,,Termunis Aghien,0
5.3540087,-4.0166228,node/7058310543,,Adjamé Liberté,0
5.3414766,-4.0256196,node/7058310541,,Adjame Mairie-Dallas,0
5.3411122,-4.0256925,node/7058310540,,Adjame Mairie-Dallas,0
5.3640511,-3.9975952,node/6938756997,,Farandole,0
5.3493033,-4.0218316,node/7052340401,,Clinique Fraternité,0
5.3581563,-3.8844157,node/7057184308,,Terminus Bingerville,0
5.3546376,-3.9904813,node/7052340403,,Vallon-1er Pont,0
5.3548993,-4.0042631,node/7052340402,,Escalier,0
5.3271876,-3.9542839,node/7052340405,,Terminus M'Pouto,0
5.3504162,-4.0227482,node/7052340404,,Gare en haut,0
5.3310206,-3.9579682,node/7052340407,,A l'Arrêt,0
5.3271989,-3.9543486,node/7052340406,,Terminus M'Pouto,0
5.337175,-3.9537035,node/7052340409,,Maison Blanche,0
5.3347781,-3.9557567,node/7052340408,,Banny,0
5.3742081,-3.9234073,node/7057184303,,Jules Verne,0
5.3726259,-3.9295623,node/7057184302,,Nouveau Goudron,0
5.3716031,-3.9107318,node/7057184305,,Coup de Frein,0
5.3739865,-3.9117752,node/7057184304,,Kessé,0
5.3581139,-3.8843697,node/7057184307,,Terminus Bingerville,0
5.3692678,-3.9099567,node/7057184306,,Adaman,0
5.3147296,-4.0181436,node/6963093979,,Gare Sud,0
5.3295615,-4.0737128,node/6913929669,,Gare Yopougon Kouté,0
5.3441859,-4.0376761,node/6913929668,,La Marine,0
5.4017782,-4.0193063,node/7056562843,,Garage Machine,0
5.4093979,-4.0160079,node/7056562842,,Anador,0
5.4197117,-4.0175159,node/7056562841,,Au Feu,0
5.3278599,-4.0262003,node/6913929665,,Sitarail,0
5.3443401,-4.0375561,node/6913929664,,La Marine,0
5.3693433,-4.0291976,node/7056562845,,Guinness,0
5.3811124,-4.023445,node/7056562844,,Cissé 2ème,0
5.3503568,-4.0227501,node/6903370485,,Gare en haut,0
5.2563753,-3.9975737,node/6928681599,,Terminus Vridi-Iran,0
5.3632459,-4.0981807,node/7076942287,,A l'étage,0
5.3792124,-4.0022273,node/7066654372,,Carrefour Zoo,0
5.3771676,-3.9931682,node/7066654373,,Carrefour Sainte Cécile,0
5.3771769,-3.992562,node/7066654374,,Carrefour Sainte Cécile,0
5.3723568,-3.9903539,node/7066654375,,Pharmacie Arc-en-ciel,0
5.3673458,-3.9796103,node/7066654376,,Pharmacie Saint Bernard,0
5.3673715,-3.9796985,node/7066654377,,Pharmacie Saint Bernard,0
5.3770962,-3.9932553,node/7066654378,,Carrefour Vallon,0
5.3789855,-3.9997047,node/7066654379,,Carrefour Gadji,0
5.2565175,-3.9573392,node/7054593060,,43ème Bima,0
5.35769,-3.8911718,node/7057184309,,Sous-Préfecture,0
5.3247785,-4.0207447,node/6098848385,,Saint Paul Plateau,0
5.3034286,-3.986865,node/6952200471,,Arrêt,0
5.3149603,-4.018979,node/6926746688,,Terminus Gare Sud,0
5.3702292,-3.9385383,node/7057184301,,Faya,0
5.3018048,-4.0096436,node/6926746689,,Station Total,0
5.3597316,-3.9618024,node/7057184300,,Warren,0
5.3126563,-4.006092,node/6904171080,,Biafra,0
5.3076251,-3.9933399,node/6904171081,,Banque Atlantique,0
5.3052787,-3.9888629,node/6904171082,,Hôtel Hamanieh,0
5.3043423,-3.9869873,node/6904171083,,Sainte Thérèse,0
5.3064581,-3.9858381,node/6904171084,,Commissariat du 9 ème,0
5.3423485,-4.0732432,node/2460519991,,Saint André lavage,0
5.3012025,-3.9837456,node/6952200470,,Hôpital Général de Marcory,0
5.4002027,-4.0066597,node/6902868230,,Mobil,0
5.3994577,-4.0066034,node/6902868231,,Azur,0
5.3965911,-4.0064518,node/6902868232,,Arrêt Dokui,0
5.3928327,-4.0059301,node/6902868233,,Ancien Feu,0
5.387253,-4.005859,node/6902868234,,Bangui,0
5.3852715,-4.0061326,node/6902868235,,Vidange,0
5.3829176,-4.0064505,node/6902868236,,HMA,0
5.3716859,-4.0122239,node/6902868237,,Carrefour paillet,0
5.365405,-4.0159576,node/6902868238,,Carrefour 2 Plateaux,0
5.3633371,-4.0168128,node/6902868239,,Willy Agban,0
5.3219502,-4.0170059,node/6907121513,,Institut Français,0
5.339948,-3.945032,node/6903347581,,Antenne,0
5.4278782,-4.0146817,node/6903097497,,Au Feu,0
5.4230451,-4.013945,node/6903097496,,Au tournant,0
5.4227551,-4.0160694,node/6903097495,,Gare Abobo,0
5.438503,-4.0142825,node/6903097494,,Au goudron,0
5.3101491,-4.0061218,node/6899053348,,Nanan Yamousso,0
5.3042605,-4.0094613,node/6952200472,,Arrêt,0
5.3587756,-4.0309511,node/7083218788,,Adjamé Agban Village,0
5.4352003,-4.0124925,node/6903097499,,JAUG,0
5.433455,-4.0124107,node/6903097498,,Célibataire,0
5.4208149,-3.9905681,node/6915341539,,Arrêt,0
5.4229496,-3.9902515,node/6915341538,,Arrêt,0
5.42194,-4.0165181,node/6903268819,,Abobo Gare Mairie,0
5.434457,-3.9883619,node/6915341533,,Arrêt,0
5.4356843,-3.987991,node/6915341532,,Arrêt,0
5.4368688,-3.9875153,node/6915341531,,Arrêt,0
5.4391313,-3.9859783,node/6915341530,,Arrêt,0
5.4264243,-3.9896961,node/6915341537,,Arrêt,0
5.4293215,-3.9892581,node/6915341536,,Arrêt,0
5.4312302,-3.9889419,node/6915341535,,Arrêt,0
5.4327625,-3.9887503,node/6915341534,,Arrêt,0
5.3101948,-4.0149692,node/6935494511,,Avenue Christiani,0
5.3590397,-4.0275686,node/6905842305,,Gare Nord,0
5.4157731,-3.999403,node/6903504061,,Étage Noir,0
5.415434,-4.0008192,node/6903504060,,Monastère,0
5.4185995,-3.9981732,node/6903504062,,Dahico,0
5.2883388,-3.9694119,node/6931273199,,[Arret sans nom],0
5.2873493,-3.9684516,node/6931273198,,[Arret sans nom],0
5.410863,-4.0062877,node/6902638998,,Menuiserie,0
5.4101067,-4.0063067,node/6902638999,,Tchapatcha,0
5.2873212,-3.9540428,node/6931273195,,Koumassi Sicogi - Dépôt SOTRA,0
5.4144283,-4.0062697,node/6902638997,,Boulangerie Samake,0
5.3780522,-4.0070352,node/6902638994,,Panneau ZOO,0
5.4197843,-4.0157753,node/6902638995,,Abobo Gare Mairie,0
5.4152517,-4.0066972,node/6902638992,,Samaké,0
5.3994804,-4.0064894,node/6902638993,,Azur,0
5.4168519,-4.0101975,node/6902638990,,Au Bar,0
5.4157998,-4.0080786,node/6902638991,,Petit Carrefour,0
5.439303,-4.0444823,node/6903525055,,Anokoi,0
5.4390697,-4.0444772,node/6903525054,,Anokoi,0
5.4439581,-4.0487972,node/6903525057,,Agripac,0
5.4422211,-4.0479148,node/6903525056,,Marahoué,0
5.4339087,-4.0272132,node/6903525051,,Hôtel du centre,0
5.4377181,-4.0360617,node/6903525053,,Dépôt,0
5.437375,-4.0337387,node/6903525052,,A la Pompe,0
5.4383593,-4.0160546,node/6905772466,,Cours Sociaux,0
5.4479797,-4.0508555,node/6903525059,,Terminus,0
5.447775,-4.0509604,node/6903525058,,Terminus,0
5.3091986,-3.9495367,node/6952200468,,Arrêt,0
5.3097742,-3.9481486,node/6952200469,,Centre Médico-social,0
5.3048828,-4.0043543,node/6905719613,,Paroisse Notre-Dame de Treichville,0
5.3118954,-3.952005,node/6952200477,,Akromiambla-Terminus 32 Koumassi,0
5.3415133,-4.0623618,node/5739489700,,Complexe sportif de Yopougon,0
5.3045623,-4.0015648,node/6905719614,,Pharmacie de l'Entente,0
5.3536864,-4.0175371,node/6927600976,,Arrêt,0
5.3567305,-4.0250561,node/6927600977,,Mirador,0
5.3055251,-3.998829,node/6905719615,,Marché de Belleville,0
5.354878,-4.0988526,node/6966758106,,Oasis,0
5.3075214,-3.9931172,node/6905719616,,Banque Atlantique,0
5.3369609,-4.1004579,node/7085152208,,Maquis Ivoire,0
5.3281584,-4.1049112,node/7085152209,,Station First Petroleum,0
5.3445744,-4.1003664,node/7085152206,,Collège Nadjata,0
5.3422431,-4.1003779,node/7085152207,,Banque Atlantique,0
5.3049722,-3.9887868,node/6905719617,,Hôtel Hamanieh,0
5.3551851,-4.0882243,node/6966758104,,Arrêt,0
5.3286546,-3.9324706,node/6903347574,,Cocody Riviera M'badon,0
5.4036347,-4.0064176,node/6902639002,,SODECI,0
5.329969,-3.9339946,node/6903347576,,Ancien marché,0
5.3307517,-3.9350317,node/6903347577,,Centre de santé Municipal de M'Badon,0
5.3872276,-4.005732,node/6902639007,,Bangui,0
5.3929293,-4.005793,node/6902639006,,Ancien Feu,0
5.3968179,-4.006353,node/6902639005,,Arrêt Dokui,0
5.4001879,-4.0064867,node/6902639004,,Mobil,0
5.3369029,-4.0039817,node/5057297311,,Carrefour St Jean,0
5.3311928,-4.0236086,node/6926943112,,Terminus tours Administratives,0
5.3146776,-4.0185633,node/6926943111,,Gare Sud,0
5.3034579,-4.0046641,node/6926943110,,Pharmacie Notre-Dame,0
5.4170815,-4.0106159,node/6906699470,,[Arret sans nom],0
5.4197017,-4.0159368,node/6906699471,,Abobo Mairie,0
5.4197512,-4.0156192,node/6906699472,,Abobo Mairie,0
5.3609547,-4.0846449,node/6966758103,,BAE,0
5.4269192,-4.0212006,node/6968911549,,Abobo Gendarmerie,0
5.4797886,-4.053314,node/7078020142,,Impôt,0
5.3910869,-3.9756567,node/7171567240,,Pharmacie Bien Être,0
5.3058324,-4.0049374,node/6909737821,,Feu du Collège Bosco,0
5.325455,-4.0761933,node/6919327591,,Marejea,0
5.3251706,-4.0710314,node/6919327590,,Carrefour Kouté,0
5.3238646,-4.0818366,node/6919327593,,Akadjoba,0
5.327729,-4.0976496,node/6919327595,,Carrefour de Niangon,0
5.3264405,-4.0914322,node/6919327594,,Arrêt,0
5.3295851,-4.1035169,node/6919327597,,Top Qualitée,0
5.3283566,-4.1005786,node/6919327596,,Le repère,0
5.3307695,-4.1063239,node/6919327598,,Cité Bracodi Rte Cité verte,0
5.3146272,-4.0182404,node/6913929666,,Gare Sud,0
5.4223472,-4.0183461,node/7078020146,,Abobo Gare,0
5.3395304,-4.0751439,node/7056730280,,Au Score,0
5.4286546,-4.0147611,node/6908618078,,Lycée Moderne d'Abobo,0
5.3229132,-4.1049284,node/7056730282,,Carrefour Internat,0
5.3192899,-4.0997248,node/7056730283,,Carrefour Lokoa,0
5.3067759,-4.0211598,node/6909737824,,Grand Moulin Abidjan,0
5.3662288,-4.0905055,node/7082486690,,Station Total,0
5.3456864,-3.9968976,node/6908618074,,INSAAC,0
5.427395,-4.016795,node/6908618077,,EPV Konaté,0
5.3556761,-4.0658437,node/6913857608,,Sable,0
5.301827,-3.9881326,node/6909237622,,Délices de France,0
5.3107009,-4.0347196,node/7046964143,,Gare Lagunaire d’Abobo-Doumé Sotra,0
5.3108107,-4.015859,node/7046964142,,Gare Lagunaire de Treichville Sotra,0
5.4022415,-3.978471,node/6910797816,,Arrêt,0
5.4029505,-3.9794534,node/6910797817,,BICICI,0
5.3963101,-3.9772754,node/6910797814,,Arrêt,0
5.4003569,-3.9781552,node/6910797815,,Arrêt,0
5.3929368,-3.9754415,node/6910797812,,Arrêt,0
5.3954823,-3.9769683,node/6910797813,,Arrêt,0
5.3964463,-3.9689626,node/6910797810,,Arrêt,0
5.3933681,-3.9736088,node/6910797811,,Arrêt,0
5.4042516,-3.9898295,node/6910797818,,Arrêt,0
5.4070126,-3.9911934,node/6910797819,,Saint Ambroise,0
5.2987194,-4.0014656,node/7054593049,,Grand Carrefour de Treichville,0
5.347056,-4.0307164,node/7085040030,,Arrêt Mouton,0
5.297832,-4.014139,node/7085040033,,Cimivoire,0
5.3293417,-3.9332267,node/6903347575,,Nouveau marché,0
5.2786537,-4.0083864,node/7085040035,,Pharmacie d'Agban,0
5.2888022,-4.0082864,node/7085040034,,Pharmacie du port,0
5.2698953,-4.0057216,node/7085040037,,Sur le pont,0
5.2772242,-4.008381,node/7085040036,,SEA-invest,0
5.2700516,-4.0054943,node/7085040038,,Vridi Port,0
5.3687351,-3.928193,node/6979712513,,Arrêt,0
5.3635464,-3.9268023,node/6979712512,,Arrêt,0
5.3622665,-3.9265072,node/6979712511,,Arrêt,0
5.361425,-3.9262769,node/6979712510,,Arrêt,0
5.3449917,-3.9223344,node/6979712517,,Arrêt,0
5.3470093,-3.9227716,node/6979712516,,Arrêt,0
5.3679286,-3.9279167,node/6979712515,,Arrêt,0
5.3703787,-3.9379911,node/6979712514,,Arrêt,0
5.3413324,-3.9221104,node/6979712519,,Arrêt,0
5.3428352,-3.9218402,node/6979712518,,Arrêt,0
5.3032777,-4.0008245,node/6924979794,,Treichville Entente,0
5.3415507,-4.0463094,node/7055596718,,Sibeco,0
5.3029946,-4.0062426,node/6924979792,,Pharmacie de l'Avenue 27,0
5.3025272,-4.0106307,node/6924979791,,"Avenue 19, Rue 12, Treichville",0
5.3602513,-4.0284221,node/7057276357,,En bas du pont,0
5.341289,-4.0623383,node/7052366519,,Complexe,0
5.3402167,-4.0623544,node/7052366518,,Boulagerie T7 Blé,0
5.3287946,-4.0611273,node/7052366513,,Carrefour sapeur-pompier,0
5.3279734,-4.0607867,node/7052366512,,Après le feu,0
5.3243801,-4.0599163,node/7052366511,,Ghandi,0
5.3221811,-4.0547359,node/7052366510,,Yopougon Koweit,0
5.3088083,-3.9839517,node/6904188585,,Gare Marcory,0
5.336739,-4.0623618,node/7052366516,,5 étoiles,0
5.3352972,-4.0623149,node/7052366515,,Brésil,0
5.3328513,-4.0623853,node/7052366514,,Pharamacie Garage,0
5.3724022,-3.9296582,node/7057184316,,Nouveau Goudron,0
5.3717513,-3.9321224,node/7057184317,,Chantier,0
5.3743256,-3.9214982,node/7057184314,,Panneau Orange,0
5.3740305,-3.9232584,node/7057184315,,Jules Verne,0
5.3715337,-3.9108606,node/7057184312,,Coup de Frein,0
5.3742268,-3.9124618,node/7057184313,,Kessé,0
5.3612451,-3.8944883,node/7057184310,,Station Texaco,0
5.3601282,-3.8980879,node/7057184311,,CIE,0
5.3121324,-3.945225,node/2760843854,,Terminus 05 Lycée Municipal de Koumassi,0
5.3699835,-3.9387314,node/7057184318,,Faya,0
5.3614581,-3.9585087,node/7057184319,,Après barrage,0
5.3050831,-3.9451392,node/6926943108,,Pharmacie Campement,0
5.363732,-4.0254573,node/7098748069,,Station Shell,0
5.3650785,-4.028751,node/7098748068,,Pont ferraille,0
5.3588343,-4.0309384,node/7098748067,,Adjamé Agban Village,0
5.2568347,-3.9717186,node/7167642508,,Station,0
5.2577,-3.9648172,node/7167642509,,Marché de Port-Bouët,0
5.3011838,-3.9835873,node/6926943109,,Hôpital Général de Marcory,0
5.2640221,-3.9844832,node/7167642500,,La poste,0
5.2666329,-3.9883375,node/7167642501,,Vridi Cité,0
5.3454176,-4.0226577,node/7052162359,,Carrefour Saint Michel,0
5.3501191,-3.989405,node/7052162358,,Ecole de Police,0
5.2640154,-3.9842887,node/7167642504,,La poste,0
5.2623307,-3.9824635,node/7167642505,,Pharmacie Vridi SIR,0
5.2569989,-3.9781136,node/7167642506,,Petit Bassam,0
5.2572273,-3.9730664,node/7167642507,,Cimétière de Port-Bouët,0
5.3588917,-4.0278525,node/7028872831,,Gare Nord,0
5.2566557,-3.9616643,node/7028872830,,Océan Espadon,0
5.3503214,-4.0226343,node/7052340415,,Gare en haut,0
5.3564619,-3.9676865,node/7052340412,,Cap Nord,0
5.3452694,-3.952691,node/7052340410,,Mel Théodore,0
5.3508856,-3.9545229,node/7052340411,,Carrefour Lycée Français,0
5.344562,-4.0028093,node/6912820418,,Arrêt,0
5.3493692,-4.0022742,node/6912820417,,Carrefour la Vie,0
5.3525544,-4.0018639,node/6912820416,,Palm Club,0
5.3574699,-4.0012391,node/6912820415,,Saint Jacques,0
5.3654376,-3.9973648,node/6912820414,,MACACI,0
5.3677225,-3.9981432,node/6912820413,,Mobil 2 Plateaux,0
5.3725038,-3.9983278,node/6912820412,,Sococé 2 Plateaux,0
5.3753472,-3.9983567,node/6912820411,,Le Roi du Pain,0
5.3779505,-3.9970644,node/6912820410,,Carrefour Duncan,0
5.3576379,-3.8903531,node/6948466341,,Sous-Prefecture de Bingerville,0
5.372677,-3.9285967,node/6948466343,,Nouveau Goudron,0
5.3455151,-4.0026914,node/6948466345,,Pharmacie les 7 Colonnes,0
5.3971939,-3.9694727,node/6912820396,,Clinique Médicale Sainte Justine,0
5.3635871,-3.9596674,node/6964502135,,Arrêt Pharmacie Palmeraie,0
5.3243327,-4.0799806,node/6913201899,,Akadjoba,0
5.3290163,-4.0757574,node/6913201898,,Cabine Bleue,0
5.3335416,-4.0733126,node/6913201897,,Antenne,0
5.3592856,-4.0275494,node/6927694921,,Gare Nord,0
5.3414479,-3.952412,node/6951182066,,Arrêt,0
5.3558587,-4.0715101,node/7054917916,,Gabriel Gare,0
5.3296352,-3.9535137,node/6951182064,,Arrêt,0
5.330835,-3.9572031,node/6951182065,,Arrêt,0
5.3295658,-3.9531144,node/6951182062,,Arrêt,0
5.3200176,-4.0887192,node/7054917912,,Carrefour Depôt,0
5.3173936,-4.0886039,node/7054917911,,Collège Gloris,0
5.3308416,-3.9570247,node/6951182061,,Arrêt,0
5.3558654,-4.020917,node/7054917919,,Adjamé Renault,0
5.3603942,-4.0669081,node/7054917918,,Premier pont,0
5.3423365,-4.1004713,node/7068199655,,Arrêt,0
5.3492659,-3.9919008,node/7068199654,,Carrefour CHU,0
5.3236183,-4.0583807,node/7082416538,,Ivoire Boutique Superette,0
5.3222509,-4.0547088,node/7082416539,,Yopougon Koweit,0
5.3569436,-4.0664729,node/7082416534,,Station Total,0
5.3471802,-4.0632664,node/7082416535,,Bel Air - Station Shell,0
5.332673,-4.0621962,node/7082416536,,Pharamacie Garage,0
5.3291458,-4.0611622,node/7082416537,,Carrefour sapeur-pompier,0
5.3616481,-3.9973698,node/4029208102,,"ENA Cocody, Boulevard Latrille",0
5.3582975,-4.0662497,node/7082416533,,1er Pont,0
5.3587923,-4.0273499,node/6951939384,,Gare Nord,0
5.2941431,-3.9554248,node/6951939383,,Gare Koumassi,0
5.441543,-3.9831075,node/6915341528,,Arrêt,0
5.4403681,-3.9847859,node/6915341529,,Arrêt,0
5.4805949,-4.0533234,node/7078020134,,Gare d'Anyama,0
5.4808672,-4.0531236,node/7078020135,,Gare d'Anyama,0
5.4501674,-4.0526924,node/7078020132,,PK 18 ancien marché,0
5.459566,-4.054167,node/7078020133,,Carrefour Marché,0
5.4488985,-4.0517014,node/7078020131,,Collège Djessou,0
5.4297269,-3.9894234,node/6915341520,,Arrêt,0
5.4313416,-3.9891222,node/6915341521,,Arrêt,0
5.4327155,-4.0261674,node/6905553519,,[Arret sans nom],0
5.4284566,-4.0225102,node/6905553518,,Gendarmerie,0
5.4564283,-3.9726482,node/6915341525,,Abobo Biabou,0
5.4454571,-3.978184,node/6915341526,,Arrêt,0
5.4430187,-3.9810371,node/6915341527,,Arrêt,0
5.5002334,-4.07344,node/6938324867,,Arrêt,0
5.5002134,-4.0762322,node/6938324866,,Arrêt,0
5.5007033,-4.0770207,node/6938324865,,Arrêt,0
5.5031182,-4.0769751,node/6938324864,,Arrêt,0
5.5033771,-4.0801696,node/6938324863,,Arrêt,0
5.5031942,-4.0807946,node/6938324862,,Arrêt,0
5.5005578,-4.0807772,node/6938324861,,Ebimpé Village,0
5.4982283,-4.066591,node/6938324869,,Arrêt,0
5.5000185,-4.0699397,node/6938324868,,Arrêt,0
5.3218817,-4.0802555,node/6934872151,,Sideci Matignon,0
5.3221354,-4.0506908,node/6934872150,,Yopougon Kowëit,0
5.3251603,-4.0219475,node/6905772459,,Saint Paul,0
5.2913004,-3.9900511,node/6909237623,,Services Techniques du District,0
5.3049356,-4.0150089,node/6909237626,,Arrêt,0
5.308109,-4.0161832,node/6909237627,,Cité Policière,0
5.2931333,-3.9994307,node/6909237624,,PTT Km4,0
5.3023437,-4.0141223,node/6909237625,,Quincaillerie Générale,0
5.2823321,-3.9804116,node/6954138439,,Arrêt,0
5.2807083,-3.9775054,node/6954138438,,Arrêt,0
5.3721147,-4.0118134,node/6902639010,,Carrefour paillet,0
5.3653117,-4.0157876,node/6902639011,,Carrefour 2 Plateaux,0
5.3553627,-4.0160705,node/6902639012,,Gare des gbakas d’Abobo par le zoo,0
5.3556661,-3.9247158,node/6948855824,,Arrêt,0
5.3584311,-3.9253854,node/6948855823,,Arrêt,0
5.3717967,-3.9289306,node/6948855822,,Cité Millenium,0
5.3599399,-3.9614752,node/6948855821,,Arrêt,0
5.3565604,-3.9679608,node/6948855820,,Arrêt,0
5.3282217,-3.9191627,node/6948855829,,Arrêt,0
5.3079127,-3.946597,node/6926943107,,Bon Samaritain,0
5.3746728,-4.0777087,node/6968911558,,Arrêt,0
5.4392253,-4.0687166,node/6968911559,,Arrêt,0
5.2853422,-3.9855024,node/6952132226,,"Bernabé Parc à Fer, Boulevard de Marseille",0
5.3235388,-4.0573213,node/6919327588,,Blé Doré,0
5.3241224,-4.0669544,node/6919327589,,Marché Kouté,0
5.322126,-4.053652,node/6919327587,,Le petit soleil,0
5.4289586,-4.0229219,node/6968911550,,Arrêt,0
5.4078444,-4.0812264,node/6968911551,,Arrêt,0
5.3570551,-4.0851445,node/6968911556,,CHU de Yopougon,0
5.3698106,-4.080236,node/6968911557,,Arrêt,0
5.3018088,-3.9684999,node/6939014891,,Arrêt,0
5.4036801,-3.9845087,node/6938792077,,Arrêt,0
5.302855,-3.9638825,node/6939014890,,Terminus Remblais 03,0
5.3002327,-4.0082087,node/6937770645,,Arrêt,0
5.3147389,-4.0186301,node/6938792079,,Gare Sud,0
5.3829263,-3.993252,node/6938792078,,Arrêt,0
5.3505392,-4.0228251,node/6903639376,,Gare en haut,0
5.3828575,-3.9734902,node/6979431049,,Arrêt,0
5.3839137,-3.9737651,node/6979431048,,Arrêt,0
5.387788,-3.9747639,node/6979431047,,Arrêt,0
5.3902524,-3.9754421,node/6979431046,,Arrêt,0
5.39671,-3.977142,node/6979431045,,Arrêt,0
5.4038146,-3.9848581,node/6979431044,,Arrêt,0
5.3932466,-3.9761992,node/6910797799,,Arrêt,0
5.3963428,-3.977036,node/6910797798,,Arrêt,0
5.4182684,-4.0128435,node/6910797791,,Arrêt,0
5.4258812,-4.01971,node/6910797790,,Arrêt,0
5.4155902,-3.999584,node/6910797793,,Arrêt,0
5.4156089,-4.0054353,node/6910797792,,Arrêt,0
5.4031254,-3.9792073,node/6910797795,,BICICI,0
5.4038607,-3.9856156,node/6910797794,,Termunis 81/82,0
5.3988302,-3.9776878,node/6910797797,,Arrêt,0
5.4011881,-3.9780821,node/6910797796,,Arrêt,0
5.3591608,-4.0274455,node/6474137948,,Gare Nord,0
5.3424009,-4.0665987,node/6913857612,,Mairie de Yopougon,0
5.3592442,-4.027655,node/6474137946,,Gare Nord,0
5.3774907,-4.0255918,node/6474137944,,Macaci,0
5.392647,-4.0207427,node/6474137942,,Université Nangui Abrogoua,0
5.4089746,-4.0160152,node/6474137940,,Anador,0
5.4047816,-3.9909969,node/7171428179,,Petro Ivoire,0
5.4143906,-4.0062493,node/6935401282,,Arrêt,0
5.420498,-4.0170009,node/6935401283,,Arrêt,0
5.4087036,-4.0063405,node/6935401280,,Arrêt,0
5.4109493,-4.0062828,node/6935401281,,Arrêt,0
5.4189547,-4.0141176,node/6935401284,,Arrêt,0
5.2509145,-3.9560491,node/6980258130,,Terminus Port-Bouët Phare,0
5.403546,-4.0181825,node/6979256984,,Arrêt,0
5.2863103,-3.9700744,node/7054593056,,Grand Carrefour de Koumassi,0
5.2821639,-3.9691208,node/7054593057,,Koumassi - Gendarmerie,0
5.2957328,-3.9806651,node/7054593054,,Échangeur Marcory,0
5.2915945,-3.9731844,node/7054593055,,Hôpital Ibis,0
5.3006443,-3.9893769,node/7054593052,,Grand Carrefour de Marcory,0
5.2985331,-3.9856721,node/7054593053,,Cap Sud,0
5.2998985,-3.9982536,node/7054593050,,Feux Collège Autoroute,0
5.3004494,-3.9967114,node/7054593051,,Solibra,0
5.2760791,-3.9660276,node/7054593058,,Ancien Koumassi,0
5.2593053,-3.958447,node/7054593059,,Carrefour Mosquée,0
5.3552565,-4.0867444,node/6909812229,,[Arret sans nom],0
5.3572641,-4.0849641,node/6909812228,,Carrefour Zone,0
5.3281463,-3.9195342,node/6979712503,,Arrêt,0
5.3318471,-3.9224169,node/6979712504,,Arrêt,0
5.3394623,-3.9227159,node/6979712505,,Arrêt,0
5.3479974,-3.923066,node/6979712506,,Arrêt,0
5.3497346,-3.9234415,node/6979712507,,Arrêt,0
5.3546363,-3.924564,node/6979712508,,Arrêt,0
5.3579717,-3.9253713,node/6979712509,,Arrêt,0
5.3309411,-4.0239378,node/6909812227,,Cité Administrative,0
5.3608051,-4.1003995,node/7049258142,,Arrêt,0
5.3587021,-4.0998034,node/7049258143,,Arrêt,0
5.365903,-4.0973914,node/7049258140,,Arrêt,0
5.3634963,-4.0976979,node/7049258141,,Arrêt,0
5.4158855,-3.9933257,node/6927037633,,Abobo Belleville,0
5.3415894,-4.0734105,node/7076835393,,Saint André,0
5.4018603,-4.0065437,node/6927037631,,Arrêt,0
5.386285,-4.0059958,node/6927037630,,Arrêt,0
5.326606,-4.0917099,node/7076835398,,Carrefour Texaco,0
5.315878,-4.0949781,node/7076835399,,Centre Social,0
5.3222315,-4.0542649,node/7052366509,,Yopougon Koweit,0
5.3543439,-4.0177533,node/7052366500,,Adjamé Texaco,0
5.353538,-4.0145789,node/7052366501,,Adjamé Liberté,0
5.3635436,-4.0256001,node/7052366502,,Station Shell,0
5.3644663,-4.0288496,node/7052366503,,Pont ferraille,0
5.353767,-4.064189,node/7052366504,,Institut des aveugles,0
5.3410046,-4.062227,node/7052366505,,Complexe,0
5.3381504,-4.0622612,node/7052366506,,Carrefour Bicici,0
5.3372905,-4.0622391,node/7052366507,,Nouveau bureau,0
5.30185,-4.011123,node/5057165424,,Ex-pharmacie Mockey,0
5.3296306,-4.061373,node/4411562346,,Terminus 85,0
5.3145591,-4.018425,node/6933043359,,Gare Sud,0
5.3539293,-4.033113,node/7085040028,,Garage,0
5.3508722,-4.0318644,node/7085040029,,Pharmacie d'Attécoubé - Au feu,0
5.3586447,-4.0298058,node/7085040027,,Adjamé Agban,0
5.364712,-3.9084198,node/7098748076,,Nouveau Chantier,0
5.3531502,-3.8776186,node/7098748077,,Nouvelle Gare Bingerville,0
5.3711625,-3.9350903,node/7098748074,,Petit portail Génie 2000,0
5.3744618,-3.921926,node/7098748075,,Panneau Orange,0
5.3592149,-3.9627157,node/7098748072,,Chic Shop,0
5.36098,-3.9597076,node/7098748073,,Après barrage,0
5.3615635,-4.0223479,node/7098748070,,Pont pieton,0
5.3607831,-4.0179726,node/7098748071,,Carrefour Agban,0
5.3103655,-4.0351267,node/6919312951,,Gare Abobodoumé,0
5.3241547,-4.0812954,node/6919312950,,Akadjoba,0
5.360275,-3.8979524,node/6930917954,,CIE,0
5.3530073,-3.8775542,node/7098748078,,Nouvelle Gare Bingerville,0
5.3571219,-3.8836147,node/7098748079,,Marché,0
5.3835051,-3.9558144,node/7060486574,,Carrefour Saint Viateur,0
5.3609493,-3.961907,node/7060486576,,Warren Palmeraie,0
5.3833115,-3.9563294,node/7060486571,,Carrefour Saint Viateur,0
5.3695475,-3.9602964,node/7060486570,,Marché,0
5.384859,-3.9533441,node/7060486573,,Palmeraie SIPIM 4,0
5.3849164,-3.9533937,node/7060486572,,Palmeraie SIPIM 4,0
5.360674,-3.8841063,node/6930917959,,Hôpital Mère-Enfant de Bingerville,0
5.3641759,-4.0967993,node/6954926528,,[Arret sans nom],0
5.3147518,-4.0183735,node/6909707238,,Gare Sud,0
5.3530707,-3.9761267,node/6928250861,,Arrêt,0
5.3604209,-4.0850901,node/6909707234,,BAE,0
5.3583583,-4.0989914,node/6954926526,,[Arret sans nom],0
5.3615502,-4.1000086,node/6954926527,,[Arret sans nom],0
5.3481316,-4.0875008,node/6909707231,,Grand Centre,0
5.3450164,-4.0892456,node/6909707230,,[Arret sans nom],0
5.3561104,-4.0851103,node/6909707233,,[Arret sans nom],0
5.3540742,-4.0874934,node/6909707232,,Port-Bouët II,0
5.3845481,-3.9930996,node/6912820408,,Opéra,0
5.3809502,-3.9940546,node/6912820409,,Las Palmas,0
5.3509336,-4.0734722,node/7055147058,,Figayo,0
5.3557716,-4.0735272,node/7055147059,,Siporex,0
5.3294603,-4.0754168,node/7055147056,,Exprex,0
5.3965825,-3.9915941,node/6912820405,,BHCI,0
5.359793,-4.0716402,node/7055147054,,Pont piéton,0
5.3333854,-4.0733247,node/7055147055,,L'antenne,0
5.4033208,-3.9820585,node/6912820400,,FIRDA,0
5.4037772,-3.9856793,node/6912820401,,Termunis 81/82,0
5.4041375,-3.9887434,node/6912820402,,Notre Dame,0
5.4037567,-3.9906882,node/6912820403,,Petro Ivoire,0
5.4148488,-4.0333199,node/6281030720,,Terminus bus 51/52,0
5.3542958,-3.977256,node/6970095637,,Riviera 2,0
5.3643008,-3.979157,node/6970095635,,Arrêt,0
5.3841166,-3.9875704,node/6970095634,,Pharmacie Les 7 Lys,0
5.3971746,-3.9859892,node/6970095633,,Arrêt,0
5.4031227,-3.985249,node/6970095632,,Termunis 81/82,0
5.3924174,-3.9866585,node/6970095639,,DGI,0
5.3623286,-3.978931,node/6970095638,,Arrêt,0
5.4055233,-3.990494,node/6916280439,,Arrêt,0
5.4071215,-3.9910921,node/6916280438,,Saint Ambroise,0
5.4129627,-3.9948875,node/6916280435,,Pharmacie Actuelle,0
5.4149934,-3.9940211,node/6916280434,,Terminus Abobo Baoulé,0
5.4085794,-3.9923863,node/6916280437,,Arrêt,0
5.4103431,-3.9939447,node/6916280436,,Arrêt,0
5.4157357,-3.9930971,node/6916280433,,Arrêt,0
5.2834138,-3.9679319,node/6954511639,,CIE Koumassi,0
5.4208804,-4.0184881,node/7066056999,,Abobo Gare,0
5.296728,-3.9687629,node/6917146081,,Banque of Africa,0
5.3589712,-4.0272913,node/6933291484,,Gare Nord,0
5.4354794,-4.01522,node/6938095648,,Gare Abobo Sogephia,0
5.4671649,-4.0533181,node/7078020143,,Berté,0
5.3062141,-4.0120606,node/6909737822,,"Avenue 10, Rue 12, Treichville",0
5.400545,-3.9728972,node/6915341517,,Soleil 2,0
5.2878677,-4.0082981,node/6909737827,,Siège SOTRA,0
5.2945614,-4.0095509,node/6909737826,,Port Autonome Abidjan,0
5.3033621,-4.0217286,node/6909737825,,Siège Port Autonome Abidjan,0
5.4613977,-4.0537646,node/7078020144,,Ancienne Gendarmerie,0
5.2787,-4.00841,node/6909737829,,Movis,0
5.2820277,-4.0083516,node/6909737828,,Bolloré,0
5.4062326,-3.9906836,node/6915341519,,Arrêt,0
5.4035247,-3.9837323,node/6915341518,,Arrêt,0
5.3749859,-3.9627425,node/6979431051,,Arrêt,0
5.3438661,-4.0732549,node/7071584260,,William-Ponty,0
5.4769371,-4.0715718,node/6938324874,,Arrêt,0
5.4724328,-4.072693,node/6938324875,,Arrêt,0
5.4679499,-4.0737471,node/6938324876,,Arrêt,0
5.4644949,-4.0739322,node/6938324877,,Arrêt,0
5.4912933,-4.0678543,node/6938324870,,Arrêt,0
5.4869787,-4.0690076,node/6938324871,,Arrêt,0
5.4842033,-4.0697157,node/6938324872,,Arrêt,0
5.4791892,-4.0709844,node/6938324873,,Arrêt,0
5.4606874,-4.0733501,node/6938324878,,Arrêt,0
5.4565342,-4.0724757,node/6938324879,,Arrêt,0
5.3297734,-4.0735526,node/6909923477,,Gare Yopougon Kouté,0
5.3326109,-4.0733247,node/6909923475,,Saguidiba,0
5.3388868,-4.0732871,node/6909923474,,Yopougon 16ème Advans,0
5.3448074,-4.0732898,node/6909923473,,William-Ponty,0
5.3538004,-4.0740046,node/6909923472,,Siporex avant le feu,0
5.3568101,-4.0739979,node/6909923471,,Siporex-Sicomex,0
5.339732,-4.0036603,node/7066086753,,Carrefour Mermoz,0
5.3329481,-4.0044522,node/7066086752,,Lycée Classique d'Abidjan,0
5.3334295,-4.0041921,node/7066086751,,Mairie de Cocody,0
5.3582735,-4.0011296,node/7066086755,,BMW,0
5.3418979,-4.0033861,node/7066086754,,RTI,0
5.3144986,-4.0183564,node/6913291219,,Gare Sud,0
5.3283086,-3.9169304,node/6948855830,,Paroisse,0
5.326625,-3.9161011,node/6948855831,,EPP Abatta,0
5.2557943,-3.9962031,node/7167707751,,Au 19,0
5.2543874,-4.0062211,node/7167707753,,Vridi Canal,0
5.2543307,-4.0062949,node/7167707752,,Vridi Canal,0
5.2567278,-3.9652102,node/7167707755,,Marché de Port-Bouët,0
5.2556167,-3.9973108,node/7167707754,,Pharmacie Vridi Village,0
5.4436954,-4.059904,node/7066057009,,Carrefour Diallo,0
5.4436197,-4.0636905,node/7066057008,,Plaque Rouge,0
5.443419,-4.0692913,node/7066057005,,Carrefour N'Dotré,0
5.4435515,-4.0653184,node/7066057007,,Céleste,0
5.4434682,-4.0678744,node/7066057006,,Blé d'Oré,0
5.4374636,-4.0342335,node/7066057001,,A la Pompe,0
5.4242953,-4.0192654,node/7066057000,,A l'Arrêt,0
5.4433257,-4.0691039,node/7066057003,,Carrefour N'Dotré,0
5.2895393,-3.990781,node/6909208700,,"SIYOA, Boulevard de Marseille",0
5.3190728,-4.0802675,node/7071584264,,Yopougon IGES,0
5.341062,-4.0732509,node/7071584262,,Ancien Lavage,0
5.3380482,-4.0732938,node/7071584263,,16ème,0
5.4036825,-3.984727,node/6979431052,,Arrêt,0
5.3424867,-4.0732643,node/7071584261,,Saint André,0
5.428223,-4.0699659,node/6934648718,,Arrêt,0
5.413004,-4.0783779,node/6934648719,,Arrêt,0
5.4266332,-4.0210558,node/6934648710,,Arrêt,0
5.4438112,-4.0538116,node/6934648711,,Arrêt,0
5.4435976,-4.0603428,node/6934648712,,Arrêt,0
5.4434975,-4.0647738,node/6934648713,,Arrêt,0
5.4433733,-4.0679455,node/6934648714,,Arrêt,0
5.442806,-4.0693985,node/6934648715,,Arrêt,0
5.4392747,-4.0686147,node/6934648716,,Arrêt,0
5.4321434,-4.068663,node/6934648717,,Arrêt,0
5.3278045,-4.0238801,node/6474137958,,Immeuble Sogefiha,0
5.3431984,-4.0259753,node/6474137954,,Mairie d'Adjamé,0
5.3312372,-4.0238205,node/6474137956,,Terminus tours Administratives,0
5.3533564,-4.0257671,node/6474137950,,Grande Mosquée Adjamé,0
5.347769,-4.0256668,node/6474137952,,Foire de Chine,0
5.3577481,-3.8908419,node/7083153379,,Lycée Garçon de Bingerville,0
5.3620482,-3.9071712,node/7083153378,,Carrefour Garage,0
5.3663857,-3.9475834,node/7083153377,,Carrefour CFA,0
5.3653997,-3.9496641,node/7083153376,,Deux Poteaux,0
5.3628707,-3.9563683,node/7083153375,,Socoprix,0
5.3617171,-3.9584242,node/7083153374,,Après barrage,0
5.3551604,-4.0110666,node/7083153373,,Carrefour Liberté,0
5.3616957,-4.017532,node/7083153372,,Gare Kobenan Agban,0
5.3852595,-4.0060079,node/6935401277,,Arrêt,0
5.3852315,-4.006142,node/6935401276,,Arrêt,0
5.5026911,-4.0525268,node/6915722714,,Arrêt,0
5.2613392,-3.9637296,node/6966927285,,Hotel Communal Port-Bouët,0
5.4022949,-4.0064304,node/6935401279,,Arrêt,0
5.2528723,-3.9605525,node/6966927286,,Wharf Port-Bouët,0
5.314962,-4.0189046,node/6929849943,,Terminus Gare Sud,0
5.3293836,-3.9976804,node/6913703805,,CNTG-BNETD,0
5.3310313,-3.9969162,node/6913703804,,UCAO,0
5.3353656,-3.9975172,node/6913703803,,Maison du Parti,0
5.3086966,-3.9837714,node/6913703802,,Gare Marcory,0
5.3074734,-3.990551,node/6913703801,,NSIA,0
5.3084936,-3.9997195,node/6913703800,,Piscine d’État de Treichville,0
5.3233639,-4.0207185,node/6969583482,,Hotel de Ville,0
5.3257514,-4.0207171,node/6969583483,,Arrêt,0
5.3209056,-4.0192916,node/6969583480,,Arrêt,0
5.3217388,-4.0207359,node/6969583481,,Arrêt,0
5.3278011,-4.0207332,node/6969583484,,Arrêt,0
5.3273952,-4.1051263,node/6909812236,,[Arret sans nom],0
5.32569,-4.1058531,node/6909812237,,Caféier,0
5.335861,-4.1013081,node/6909812234,,Carrefour Anador,0
5.3305692,-4.1037999,node/6909812235,,Lubafrique,0
5.3400138,-4.0974297,node/6909812232,,Mosquée du Maroc,0
5.3401847,-4.1003975,node/6909812233,,Pharmacie Cité Maroc,0
5.3469666,-4.0880983,node/6909812230,,Pharmacie Port-Bouët II,0
5.3453455,-4.0891591,node/6909812231,,[Arret sans nom],0
5.3226401,-4.1045248,node/6909812238,,Niangon Sud à droite,0
5.3310139,-4.0238251,node/6927037625,,Terminus tours Administratives,0
5.3339515,-4.0238861,node/6927037626,,Arrêt,0
5.3377117,-4.0238741,node/6927037627,,Ministère de la défense,0
5.3456673,-4.0178358,node/6927037620,,Fraternité Matin,0
5.3411247,-4.0237561,node/6927037621,,Arrêt,0
5.3372751,-4.0237963,node/6927037622,,Arrêt,0
5.3339228,-4.0238252,node/6927037623,,Arrêt,0
5.3557539,-4.0161668,node/6927037628,,Arrêt,0
5.2855772,-3.9547831,node/7026364429,,Arrêt,0
5.3809122,-3.9878869,node/7056143583,,Petro Ivoire 7è Tranche,0
5.28785,-3.9878453,node/6952132247,,Arrêt,0
5.2567618,-3.9610943,node/6952132244,,Pharmacie Océan,0
5.266498,-3.9627318,node/6952132245,,Abattoir Port-Bouët,0
5.2480679,-3.9435728,node/6952132242,,Arrêt,0
5.247278,-3.947171,node/6952132243,,Maquis 5 sur 5,0
5.2544028,-3.9409603,node/6952132240,,Cité ASECNA,0
5.3977447,-3.9858967,node/7056143584,,Complexe sportif Angré,0
5.2895893,-3.9917104,node/6952132248,,Arrêt,0
5.3485982,-4.0029649,node/6915696800,,Carrefour de la Vie,0
5.3290976,-4.0751626,node/6912654329,,Carrefour Express,0
5.3315587,-4.0735191,node/6910224905,,Saguidiba,0
5.338834,-4.0734096,node/6910224907,,Yopougon 16ème Advans,0
5.3344863,-4.0734252,node/6910224906,,Côte d'Ivoire-Telecom,0
5.3297134,-4.0738578,node/6910224902,,Gare Yopougon Kouté,0
5.345666,-4.0734038,node/6910224909,,William-Ponty,0
5.3418778,-4.0734078,node/6910224908,,Saint André lavage,0
5.3359625,-4.0044791,node/6964184464,,[Arret sans nom],0
5.3647534,-4.0745652,node/6909225530,,[Arret sans nom],0
5.3727101,-4.0961792,node/6909225533,,[Arret sans nom],0
5.3502206,-4.0021368,node/6964184467,,Carrefour la Vie,0
5.372722,-4.0867558,node/6909225535,,Nestlé,0
5.3742257,-4.0895635,node/6909225534,,[Arret sans nom],0
5.3703887,-4.0796923,node/6909225537,,[Arret sans nom],0
5.3745633,-4.0781781,node/6909225536,,Arrêt,0
5.3670367,-4.0761986,node/6909225539,,Direction de la Sotra,0
5.3683786,-4.0786743,node/6909225538,,[Arret sans nom],0
5.3306787,-4.1058974,node/6919312946,,Cité Bracodi Rte Cité verte,0
5.3296893,-4.1035223,node/6919312947,,Banque BNI,0
5.3316148,-4.109973,node/6919312945,,Collège Sebaco,0
5.3270854,-4.0923844,node/6919312942,,Cité Bracodi Rte Cité verte,0
5.332209,-4.1119954,node/6919312943,,Cité Verte,0
5.328322,-3.940785,node/5143730222,,Terminus M'pouto - CIAD,0
5.350286,-4.0224532,node/7052162375,,Gare en haut,0
5.3571933,-3.8844985,node/7052162371,,Carrefour Bangui,0
5.357718,-3.8843443,node/7052162370,,Terminus Carrefour Bangui,0
5.3284241,-4.100539,node/6919312948,,Le repère,0
5.3278005,-4.0976201,node/6919312949,,Carrefour de Niangon,0
5.4179854,-4.0123071,node/6935407385,,Arrêt,0
5.4164927,-4.0094626,node/6935407386,,Arrêt,0
5.3622726,-3.959375,node/7060486566,,Après barrage,0
5.3027916,-4.0132633,node/6966927287,,Arrêt,0
5.3659533,-3.9604227,node/7060486568,,Foursquare,0
5.3984537,-4.0064532,node/6935401278,,Arrêt,0
5.423623,-4.0021714,node/6903296481,,A Gauche,0
5.4236156,-4.0015453,node/6903296480,,Au marché,0
5.4214359,-4.0037249,node/6903296482,,Makan Traoré,0
5.2774525,-3.981805,node/6961370878,,Arrêt,0
5.3466167,-4.0650474,node/6913190456,,Ex Chaine Avion Rue Princesse,0
5.3404237,-4.1004632,node/6909707228,,Pharmacie Cité Maroc,0
5.3407014,-4.0892462,node/6909707229,,CIE,0
5.3297881,-3.9790913,node/6933080265,,Arrêt,0
5.3447353,-4.0678006,node/6913190457,,Newton,0
5.3233679,-4.1057378,node/6909707223,,Carrefour Académie,0
5.3226268,-4.1045,node/6909707221,,Niangon Sud à droite,0
5.3338915,-4.1029765,node/6909707226,,2ème arrêt ANADOR,0
5.3358784,-4.1014047,node/6909707227,,Carrefour Anador,0
5.325714,-4.1059349,node/6909707224,,Caféier,0
5.3310513,-4.1037691,node/6909707225,,Lubafrique,0
5.407261,-3.9890592,node/6927327309,,Arrêt,0
5.3407362,-4.0608235,node/6913190455,,Nouveau quartier,0
5.346265,-4.0103402,node/6927327303,,Arrêt,0
5.2987234,-3.9859637,node/6906596966,,Cap Sud,0
5.327506,-4.0767995,node/7054787080,,Yopougon Palais,0
5.4048944,-3.9851483,node/6927327307,,Arrêt,0
5.4043844,-3.989773,node/6927327306,,Arrêt,0
5.3529759,-4.0044479,node/6927327305,,Arrêt,0
5.3494085,-4.0088409,node/6927327304,,Arrêt,0
5.3295798,-4.0501732,node/6913190450,,Tizra,0
5.3539352,-3.9581171,node/6948222228,,Arrêt,0
5.3313998,-4.0519957,node/6913190451,,Offoumou Yapo,0
5.45899,-4.0107733,node/6902975749,,A l'école,0
5.4336247,-4.0124023,node/6934922732,,Arrêt,0
5.4327535,-4.0137548,node/6934922731,,Arrêt,0
5.4554448,-4.0112489,node/6934922737,,Destin,0
5.4531566,-4.0127617,node/6934922736,,André Bar,0
5.4493357,-4.0137662,node/6934922735,,Arrêt,0
5.4445716,-4.0145279,node/6934922734,,Arrêt,0
5.4604068,-4.0110518,node/6934922738,,Abobo Akeikoi Village,0
5.2875055,-3.9651793,node/6931273197,,[Arret sans nom],0
5.4500232,-4.0135154,node/6902975747,,Christine Bar,0
5.2849829,-3.964256,node/6931273196,,[Arret sans nom],0
5.3109791,-4.0099697,node/6904171079,,[Arret sans nom],0
5.3094876,-4.0142576,node/6904171078,,Marché Treichville,0
5.2850417,-3.9641359,node/7026390486,,[Arret sans nom],0
5.298031,-3.9828604,node/6931151030,,Arrêt,0
5.3412757,-4.0261722,node/6904171071,,Adjamé Santé,0
5.3513557,-4.0254169,node/6904171070,,Arrêt,0
5.3318344,-4.0230192,node/6904171073,,Arrêts tours Administratives,0
5.3381159,-4.025807,node/6904171072,,Institut National de la Santé Publique,0
5.3237991,-4.0196512,node/6904171075,,SIB Alpha 2000,0
5.3266073,-4.0206008,node/6904171074,,Cité financière Plateau,0
5.3089287,-4.0157481,node/6904171077,,Résidence Cheick Yacouba Sylla,0
5.3206169,-4.0196681,node/6904171076,,Primature,0
5.4167304,-4.0098824,node/7078189936,,COOPEC,0
5.4046655,-3.992281,node/7078189937,,Angré Petro Ivoire,0
5.2705271,-4.0061063,node/6909737830,,Pont de Vridi,0
5.4236887,-4.0015221,node/6903268822,,Kennedy Marché,0
5.3637686,-4.0972832,node/7057928786,,Marché,0
5.4223082,-4.0163197,node/6903268820,,Gare Abobo Kennedy-Marché/ Mosquée Ado,0
5.4211585,-4.0100057,node/6903268821,,Station,0
5.3576374,-4.093125,node/7057928789,,Cité Mamie Adjoua,0
5.3586789,-4.0997664,node/7057928788,,2ème,0
5.2744205,-3.9788787,node/6961370879,,Pharmacie de Bietry,0
5.3470894,-3.9971908,node/6927701716,,Arrêt,0
5.3382505,-4.0792436,node/6963093976,,Pont Vagabond,0
5.3403236,-4.0747274,node/6963093977,,Arrêt,0
5.3396466,-4.0858988,node/6963093974,,Amondji,0
5.3395998,-4.0810166,node/6963093975,,Arrêt,0
5.3615936,-3.9975968,node/5957239665,,ENA,0
5.328578,-4.0050058,node/5957239666,,Hotel Ivoire,0
5.2688363,-4.0060763,node/6945966275,,[Arret sans nom],0
5.2649101,-4.0138507,node/6945966272,,[Arret sans nom],0
5.265254,-4.011446,node/6945966273,,[Arret sans nom],0
5.3989296,-3.991548,node/5957239662,,Carrefour 22ème,0
5.3855754,-3.9931428,node/5957239663,,Carrefour Opéra,0
5.4434869,-4.0653548,node/7066312409,,Céleste,0
5.4439813,-4.0493647,node/7066312408,,Agripac,0
5.4383201,-4.0400586,node/7066312407,,Au Feu,0
5.4267083,-4.0211061,node/7066312406,,Abobo Gendarmerie,0
5.3525929,-3.9780678,node/6928179125,,Riviera 2,0
5.3385823,-3.9429814,node/6948290581,,Bureau Bad,0
5.3327177,-3.9368337,node/6948290580,,Arrêt,0
5.3350024,-3.9438068,node/6948290582,,[Arret sans nom],0
5.3512739,-3.9805625,node/6928179126,,Petite Mosquée Riviéra Jardin,0
5.256211,-3.9649889,node/6937789671,,Arrêt,0
5.330154,-4.080812,node/6944934859,,Sideci Lem - Carrefour Sgbci,0
5.3534453,-3.9700449,node/6928179123,,Terminus Riviera 2,0
5.3591167,-4.0279602,node/6909237631,,Gare Nord,0
5.3294751,-4.061462,node/6910743309,,Terminus 85,0
5.3582206,-4.0364602,node/6909237633,,Terminus 02 Cité Fairmont,0
5.3969777,-3.9915461,node/7066086746,,SODECI,0
5.4241696,-4.0192406,node/6980521695,,Terminus Gendarmerie Abobo,0
5.3480868,-4.0024044,node/7066086748,,La vie,0
5.3470961,-4.0025103,node/7066086749,,Écoles des Architectes,0
5.358876,-4.0319963,node/6909237632,,Station Petro Ivoire,0
5.4499639,-4.052542,node/6903602224,,PK 18 ancien marché,0
5.4380495,-4.0384581,node/6903602220,,A l'escalier,0
5.4382834,-4.0411411,node/6903602221,,Nouvelle Gare,0
5.4448006,-4.0493193,node/6903602222,,Agripac Avant le Feu,0
5.4493883,-4.0520966,node/6903602223,,Station Total,0
5.399921,-4.0057075,node/6980521690,,Arrêt,0
5.4463091,-4.0144891,node/6903193217,,A l'étage,0
5.4015232,-4.0065511,node/6980521691,,Arrêt,0
5.4034191,-4.0065081,node/6980521692,,Arrêt,0
5.3282245,-4.0239746,node/6905772460,,Immeuble Sogephia Hévéa,0
5.3337809,-4.0245113,node/6905772461,,Musée du Plateau,0
5.4217468,-4.0180128,node/7066057012,,Abobo Gare,0
5.443826,-4.0555298,node/7066057010,,Saphirs,0
5.3562773,-4.0016118,node/7047930662,,Arrêt,0
5.4096636,-3.9856634,node/7047930663,,Arrêt,0
5.3532556,-3.8770667,node/7083153382,,Nouvelle Gare Bingerville,0
5.3836466,-4.0757427,node/6934648724,,Arrêt,0
5.3567487,-3.8828442,node/7083153380,,Marché,0
5.3762544,-4.0820444,node/6934648726,,Arrêt,0
5.4009224,-4.0842761,node/6934648721,,Arrêt,0
5.4036687,-4.0834808,node/6934648720,,Arrêt,0
5.3892384,-4.078453,node/6934648723,,Arrêt,0
5.3935763,-4.0810159,node/6934648722,,Arrêt,0
5.3532599,-3.9779824,node/6915487642,,Riviéra 2,0
5.3502292,-3.9881887,node/6915487643,,École de Police,0
5.3606149,-3.9598948,node/6915487640,,Carrefour de la Gendarmerie,0
5.3568703,-3.9665508,node/6915487641,,Cap Nord,0
5.3600535,-4.0749877,node/7079601691,,Siporex,0
5.3838941,-4.0759718,node/6934648728,,Arrêt,0
5.3492233,-3.9943092,node/6915487644,,École de la Gendarmerie,0
5.3485522,-4.0018322,node/6915487645,,Carrefour de la Vie,0
5.3149553,-4.0184346,node/6955514940,,Gare Sud,0
5.3145043,-4.0181049,node/6474137967,,Gare Sud,0
5.379605,-4.0068716,node/6927037629,,Arrêt,0
5.3414439,-4.1004505,node/7082468478,,NSIA Banque,0
5.3426857,-4.1004793,node/7082468479,,Resto chawamar pizza café,0
5.3436761,-4.0709484,node/3137217828,,2 poteaux,0
5.2726637,-3.9751598,node/6952132246,,Arrêt,0
5.3099762,-3.9473403,node/6919758039,,Pharmacie Fanny,0
5.2921887,-3.9630926,node/6951224049,,Arrêt,0
5.3154387,-4.01752,node/6969583476,,Gare Sud,0
5.3147951,-4.0185824,node/6969583474,,Gare Sud,0
5.3451973,-4.0106696,node/6969583472,,Supermarché Casino,0
5.3472803,-4.0097992,node/6969583471,,Clinique Providence,0
5.2508117,-3.9424355,node/6952132241,,Arrêt,0
5.3202726,-4.015578,node/6969583479,,Arrêt,0
5.3172748,-4.0151837,node/6969583478,,Arrêt,0
5.2932236,-3.9690283,node/6919758030,,Arrêt,0
5.3547793,-4.0029137,node/6903544089,,2ème pont,0
5.3521055,-4.014163,node/6903544088,,Adjamé Liberté,0
5.3481387,-4.0180948,node/6903544087,,Maternité,0
5.350348,-4.0224464,node/6903544086,,Gare en haut,0
5.4159386,-3.9930649,node/6927037611,,Arrêt,0
5.4057129,-4.0063848,node/6927037613,,Arrêt,0
5.408251,-4.0063405,node/6927037612,,Arrêt,0
5.3930717,-4.0057893,node/6927037615,,Arrêt,0
5.4013897,-4.0064518,node/6927037614,,Arrêt,0
5.3801858,-4.0066168,node/6927037617,,Arrêt,0
5.3875774,-4.0056726,node/6927037616,,Arrêt,0
5.3503578,-4.0169801,node/6927037619,,Pharmacie le Belier,0
5.3625903,-4.0168427,node/6927037618,,Arrêt,0
5.2987064,-3.9478318,node/6919758035,,Arrêt,0
5.2544081,-3.9386439,node/6952132233,,EPP Aéroport,0
5.2486135,-3.9434065,node/6952132232,,Arrêt,0
5.3437319,-4.063367,node/7052366520,,Menuiserie,0
5.276028,-3.9672503,node/6952132230,,Arrêt,0
5.2469401,-3.9450909,node/6952132235,,Carrefour Aéroport,0
5.2536201,-3.934246,node/6952132234,,Aéroport,0
5.2999823,-4.0026734,node/6906463293,,Gare de Bassam,0
5.2690497,-3.9618933,node/6934657651,,Carrefour Akwaba,0
5.3480962,-4.0169741,node/6934657650,,220 logements,0
5.2574343,-3.9637684,node/6934657653,,Nouveau marché Port-Bouët,0
5.2629137,-3.9633662,node/6934657652,,Hôpital de Port-Bouët,0
5.2542438,-3.9621216,node/6934657655,,Église Méthodiste Unie Port-Bouët,0
5.2567198,-3.961553,node/6934657654,,Océan Espadon,0
5.2510654,-3.9560196,node/6934657657,,Terminus Port-Bouët Phare,0
5.2530566,-3.9607128,node/6934657656,,Wharf Port-Bouët,0
5.3080062,-3.946713,node/6919758038,,Bon Samaritain,0
5.3357956,-3.9397017,node/6948270622,,Pharmacie,0
5.339027,-3.9451191,node/6948270623,,Arrêt,0
5.3285142,-3.9322612,node/6948270620,,Teminus M'Badon,0
5.3305385,-3.9347577,node/6948270621,,Centre de santé Municipal de M'Badon,0
5.3329114,-3.9418454,node/6948270624,,Ambassade de Chine,0
5.3538285,-3.9568537,node/6948270625,,Arrêt,0
5.4000185,-4.0054393,node/7058499893,,Marché,0
5.3999884,-4.0059187,node/7058499892,,Mobil Azur,0
5.4124193,-3.9814241,node/7058499897,,Fin goudron-Angré Château,0
5.4147717,-3.9779788,node/7058499896,,Angré Château,0
5.4146182,-3.9783463,node/7058499895,,Angré Château,0
5.3996113,-3.99739,node/7058499894,,Mahou,0
5.4020967,-4.0064567,node/6902639003,,Étage Noir,0
5.3540928,-4.0741883,node/6910224910,,Siporex après le feu,0
5.3566819,-4.0741772,node/6910224911,,Siporex-Sicomex,0
5.36188,-4.0724972,node/6909225529,,[Arret sans nom],0
5.4051188,-4.0063993,node/6902639001,,Pharmacie Dokui,0
5.340202,-4.0306695,node/7085040048,,Ancien ONUCI,0
5.358829,-4.0296637,node/7085040049,,Pharmacie d'Agban,0
5.4092677,-4.0063409,node/6902639000,,Chaine Avion,0
5.2787225,-4.0085158,node/7085040040,,Movis,0
5.2889938,-4.008385,node/7085040041,,Pharmacie du port,0
5.2976598,-4.0140975,node/7085040042,,Cimivoire,0
5.2998665,-4.0166918,node/7085040043,,Après le feu,0
5.3026687,-4.0205978,node/7085040044,,CDCI,0
5.3039894,-4.0218256,node/7085040045,,Dinor,0
5.3517214,-3.9543647,node/6932323633,,Collège Ardoise,0
5.3569409,-3.9635029,node/6932323632,,Arrêt,0
5.3573081,-3.8845441,node/7052162369,,Carrefour Bangui,0
5.3719142,-3.9324155,node/7052162362,,Playce Palmeraie,0
5.3728529,-3.9287925,node/7052162363,,Nouveau Goudron,0
5.3418391,-4.0216117,node/7052162360,,A La Caisse,0
5.3673438,-3.9457347,node/7052162361,,Akouédo,0
5.3613609,-3.8947412,node/7052162366,,Station Texaco,0
5.3575885,-3.8882764,node/7052162367,,Collège Moderne,0
5.3743603,-3.9122875,node/7052162364,,Kessé,0
5.3602229,-3.8981583,node/7052162365,,CIE,0
5.382931,-4.0063262,node/6902639009,,HMA,0
5.3851864,-4.0060126,node/6902639008,,Vidange,0
5.331008,-3.9352626,node/6903347578,,La ferme,0
5.3353839,-3.9393933,node/6903347579,,Pharmacie,0
5.3718154,-4.0945986,node/6961643502,,[Arret sans nom],0
5.3342854,-4.07333,node/7054787077,,Foyer des jeunes,0
5.3433827,-4.0732482,node/7054787076,,Saint André,0
5.3547952,-4.0740033,node/7054787075,,Siporex,0
5.3553927,-4.0740153,node/7054787074,,Siporex au feux,0
5.4186129,-4.0059221,node/6903296478,,Carrefour Kennedy,0
5.4213432,-4.0039185,node/6903296479,,Makan Traoré,0
5.3307248,-3.9348771,node/6948222238,,Centre de santé Municipal de M'Badon,0
5.3573903,-4.0275842,node/7054787070,,Ran,0
5.3274379,-4.0817052,node/6944934858,,Arrêt,0
5.3328633,-3.9368539,node/6948222237,,Arrêt,0
5.3461658,-4.0102683,node/6927327312,,Arrêt,0
5.3433536,-4.0124663,node/6927327313,,Polyclinique,0
5.3384929,-3.952243,node/6948222232,,Arrêt,0
5.334941,-3.943904,node/6948222233,,Carrefour Ambassade de Chine,0
5.3307989,-4.0740274,node/7054787079,,Terminus 40,0
5.3392567,-3.9521505,node/6948222231,,Arrêt,0
5.2965781,-3.9801776,node/6931151029,,Arrêt,0
5.3238162,-4.0205509,node/6136850508,,Hôtel de Ville,0
5.3234932,-4.0205339,node/6136850509,,Hotel de Ville,0
5.3381016,-3.9756735,node/7160556550,,Rond-Point,0
5.4448793,-4.0699545,node/6952566209,,Arrêt,0
5.4436978,-4.0559909,node/6952566208,,Arrêt,0
5.3738506,-3.9618125,node/6815808839,,Quick Market,0
5.3350058,-3.9966651,node/7160556551,,Maison du PDCI-RDA,0
5.3163548,-4.0892006,node/7054917926,,Yopougon Niangon-Terminus 27,0
5.4010646,-3.9780418,node/6815808834,,Marché COCOVICO,0
5.3402595,-4.0732616,node/7054917924,,Lavage,0
5.3210711,-4.0881318,node/7054917925,,Carrefour Timotel,0
5.3496357,-4.0732389,node/7054917922,,Figayo,0
5.3464872,-4.0732536,node/7054917923,,Keneya,0
5.3865761,-3.9744202,node/6815808833,,CNPS 9ème Tranche,0
5.4384053,-4.0140378,node/6902975756,,Carrefour Akéikoi,0
5.4225885,-4.0161726,node/6902975757,,Gare Gbaka Akeïkoi,0
5.446249,-4.0143571,node/6902975754,,A l'étage,0
5.4604925,-4.0109827,node/6934922723,,Abobo Akeikoi Village,0
5.4528753,-4.0128592,node/6902975752,,André Bar,0
5.4510493,-4.0133357,node/6902975753,,Carrefour marché,0
5.4493063,-4.0136415,node/6934922726,,Arrêt,0
5.4542173,-4.0119566,node/6902975751,,Monnaie,0
5.4400103,-4.0141618,node/6934922728,,Arrêt,0
5.4354972,-4.0153091,node/6908599215,,Gare Abobo Sogephia,0
5.2568159,-3.9608596,node/6935274796,,Pharmacie Océan,0
5.3501257,-4.032333,node/6904171066,,Station Afriquia,0
5.3524283,-4.0328135,node/6904171067,,Carrefour Attecoubé,0
5.346448,-4.0345467,node/6904171064,,[Arret sans nom],0
5.3490624,-4.033957,node/6904171065,,Marché,0
5.343795,-4.0345833,node/6904171063,,Attécoubé Terminus 04,0
5.400118,-4.0201934,node/6934749721,,Arrêt,0
5.3574167,-4.0309717,node/6904171068,,[Arret sans nom],0
5.3772737,-4.0259609,node/7077860799,,Macaci,0
5.3636692,-4.0293163,node/7077860798,,Après le Pont,0
5.3599225,-4.0286243,node/7077860797,,Adjamé Nouvelle Gare,0
5.3602016,-4.0287953,node/7077860796,,Adjamé Nouvelle Gare,0
5.4349504,-4.0123668,node/7077860791,,JAUG,0
5.4376433,-4.01246,node/7077860790,,Carrefour Commissaire,0
5.4230761,-4.0186451,node/7077860793,,Pharmacie de la MÉ,0
5.4333677,-4.0123426,node/7077860792,,Célibataire,0
5.2531341,-4.0047848,node/6945864857,,Vridi canal - Terminus 23,0
5.4384645,-4.0390169,node/6905344264,,Terminus 45 À l'escalier,0
5.4375564,-4.0351608,node/6905344263,,Arrêt Centre Bus,0
5.3560909,-4.0911866,node/7057928790,,Station Shell du CHU,0
5.355257,-4.0893689,node/7057928791,,Carrefour CHU,0
5.3553702,-4.0845871,node/7057928792,,Carrefour Zone,0
5.3555545,-4.0790175,node/7057928793,,Carrefour Marché,0
5.3556709,-4.0761254,node/7057928794,,Marché Siporex,0
5.3559647,-4.0684835,node/7057928795,,Auto Ecole,0
5.3566367,-4.0657128,node/7057928796,,Au Feu Du Sable,0
5.357507,-4.0526099,node/7057928797,,Garage Massa,0
5.3095505,-4.0439558,node/6910794085,,Santé Village,0
5.2576259,-3.9696513,node/6935274793,,Arrêt,0
5.3101983,-4.0353389,node/6910794088,,Gare Abobodoumé,0
5.2940469,-3.965347,node/6919758031,,Arrêt,0
5.4219587,-3.997913,node/7077917684,,A l'école,0
5.3697196,-4.0800353,node/7066312418,,Carrefour Zone,0
5.4155715,-4.0000655,node/7077917683,,Étage Noir,0
5.437834,-4.0683965,node/7066312414,,Arrêt,0
5.4321703,-4.0686605,node/7066312415,,2ème Porte,0
5.4305892,-4.0690669,node/7066312416,,Première Porte,0
5.443623,-4.0600615,node/7066312410,,Carrefour Diallo,0
5.3885302,-3.9923066,node/6964184466,,Aghien 2 plateaux,0
5.4423614,-4.0692986,node/7066312412,,Arrêt,0
5.4394681,-4.0686671,node/7066312413,,Lavage,0
5.2585828,-3.965703,node/6935274794,,Marché,0
5.2549022,-3.9620733,node/7079839320,,Église Méthodiste Unie Port-Bouët,0
5.4284112,-4.0222108,node/6905344268,,Gendarmerie,0
5.4384643,-3.9865337,node/7171335595,,Carrefour Cimetière,0
5.2972737,-3.9619419,node/6917146079,,Arrêt,0
5.2980163,-3.9585451,node/6917146078,,Arrêt,0
5.3395324,-4.0778583,node/7056730281,,Marche de Sicogi,0
5.3589119,-4.0281877,node/6905326498,,Gare Nord,0
5.299281,-3.9531506,node/6917146072,,Koumassi Prodomo,0
5.2983628,-3.9572333,node/6917146071,,Place Inchallah,0
5.2975636,-3.9608221,node/6917146070,,Arrêt,0
5.2989496,-3.9543702,node/6917146077,,Palce Inchallah,0
5.2998074,-3.9505841,node/6917146076,,Station Petro Ivoire,0
5.3002935,-3.9483867,node/6917146075,,Koumassi Mesano,0
5.3008577,-3.9476752,node/6917146074,,Koumassi Mesano,0
5.333826,-4.0623826,node/6910743310,,Clinique les Oliviers,0
5.3375141,-4.0623477,node/6910743311,,Nouveau quartier,0
5.3460439,-4.0634635,node/6910743312,,Bel Air,0
5.3556644,-4.0660062,node/6910743313,,Sable,0
5.3513983,-4.0634474,node/6910743314,,Institut des aveugles,0
5.256199,-3.9581761,node/6935274797,,Lycée Moderne Port Bouët,0
5.4383388,-4.0383071,node/6903602211,,A l'escalier,0
5.4359152,-4.0288774,node/6903602210,,Château,0
5.4383909,-4.0122722,node/7171384788,,Carrefour Commissaire,0
5.4214927,-4.0176574,node/7171384789,,Abobo Gare,0
5.426524,-4.0208376,node/6903602215,,Gendarmerie Avant le Feu,0
5.4260466,-4.0204342,node/6903602214,,Gendarmerie,0
5.4330817,-4.0264367,node/6903602217,,Solibra,0
5.4297276,-4.0236152,node/6903602216,,Mosquée Blanche,0
5.4365893,-4.0306363,node/6903602219,,Marché de Nuit,0
5.4357519,-4.0290698,node/6903602218,,Château,0
5.4435562,-4.0087719,node/7171384786,,Houphouet Boigny,0
5.4396993,-4.0086123,node/7171384787,,Carrefour Zouglou,0
5.4434935,-4.008837,node/7171384785,,Houphouet Boigny,0
5.3198783,-4.0804016,node/768587373,,Yopougon Sideci - Terminus 42,0
5.3232894,-4.0021679,node/6907141798,,Gare Blockauss,0
5.3278237,-4.0013589,node/6907141799,,Banque Mondiale,0
5.342209,-4.0033579,node/6907141795,,RTI,0
5.3459837,-4.0029046,node/6907141796,,Archibat,0
5.3356901,-4.0007897,node/6907141797,,Marché de Cocody,0
5.4510779,-4.0134484,node/6903084141,,Carrefour marché,0
5.4542793,-4.0120751,node/6903084143,,Monnaie,0
5.4530404,-4.0129173,node/6903084142,,André Bar,0
5.4130749,-4.0784144,node/6934648732,,Arrêt,0
5.4279813,-4.070195,node/6934648733,,Arrêt,0
5.3928929,-4.0806236,node/6934648730,,Arrêt,0
5.4014804,-4.0842976,node/6934648731,,Arrêt,0
5.4435987,-4.0650186,node/6934648736,,Arrêt,0
5.4437261,-4.0602688,node/6934648737,,Arrêt,0
5.4326393,-4.0686617,node/6934648734,,Arrêt,0
5.4427909,-4.069498,node/6934648735,,Arrêt,0
5.4438909,-4.0536714,node/6934648738,,Arrêt,0
5.4432611,-4.0481434,node/6934648739,,Arrêt,0
5.3309876,-4.0236032,node/6926746686,,Terminus tours Administratives,0
5.3296238,-4.0208888,node/6926746685,,[Arret sans nom],0
5.4422706,-4.0206327,node/7077860800,,BC (Belle Cité),0
5.3179651,-4.019718,node/6474137979,,Présidence,0
5.3015791,-4.0016802,node/6924851829,,Nostalgie,0
5.3028704,-4.0006757,node/6924851828,,Treichville Entente,0
5.3703106,-3.9374359,node/7052162373,,Faya,0
5.3574283,-3.887693,node/7052162372,,Collège Moderne,0
5.3023303,-4.0106387,node/6924851825,,"Avenue 19, Rue 12, Treichville",0
5.3047639,-4.0115547,node/6924851826,,FIESTA,0
5.4486134,-4.0138976,node/6966849452,,Arrêt,0
5.3233545,-4.016671,node/6966849451,,Arrêt,0
5.3836643,-3.9823508,node/7066239483,,Termunis Aghien,0
5.3844504,-3.9860141,node/7066239481,,Aghien sinsou,0
5.3783072,-3.9978513,node/7066239480,,Carrefour Duncan,0
5.3842341,-3.9851202,node/7066239484,,Aghien sinsou,0
5.3929515,-4.0210323,node/7078209302,,Filtisac,0
5.4109146,-4.0163626,node/7078209303,,Banco,0
5.3628794,-3.9595822,node/7060486567,,Station,0
5.4394513,-4.0141843,node/6902975755,,Boulangerie,0
5.4150828,-4.0241008,node/6944887184,,Arrêt,0
5.3347766,-3.9902179,node/5954541439,,Boulevard de France,0
5.2898905,-3.9693582,node/6951224050,,Commissariat de Police du 6ᵉ,0
5.3586694,-4.0276527,node/6951224051,,Gare Nord,0
5.3286164,-3.9498433,node/5954541435,,CIAD,0
5.4150388,-4.0162727,node/7078209304,,Mobil,0
5.3301187,-3.9339759,node/6903544090,,Marché,0
5.3667122,-3.9603172,node/7060486569,,King Cash,0
5.379115,-4.0248987,node/7078209301,,Ancien Garage,0
5.2988296,-4.0109539,node/6952132224,,"BIAO, Treichville",0
5.2884596,-3.9883868,node/6952132225,,"Pizza, Marcory",0
5.341978,-4.0149826,node/7026279881,,Arrêt,0
5.2786718,-3.9824903,node/6952132227,,[Arret sans nom],0
5.2734369,-3.9767262,node/6952132228,,Église Notre-Dame d'Afrique,0
5.2734089,-3.9714865,node/6952132229,,Sept Villas,0
5.2984764,-3.9714879,node/6939014892,,Arrêt,0
5.359076,-4.0274686,node/6939014895,,Gare Nord,0
5.3022895,-3.9848064,node/6939014894,,Arrêt,0
5.3325809,-3.9812806,node/6933080264,,Arrêt,0
5.4349342,-4.0124505,node/7078209306,,JAUG,0
5.3078259,-4.0374018,node/5390465849,,Gare lagunaire Aqualines Yopougon,0
5.3245991,-4.0599163,node/6933043354,,Ghandi,0
5.3278586,-4.0607049,node/6933043355,,[Arret sans nom],0
5.3300685,-4.0581514,node/6933043356,,[Arret sans nom],0
5.3314439,-4.0559573,node/6933043357,,[Arret sans nom],0
5.3228845,-4.0617429,node/6933043352,,Terminus Yopougon Camp Militaire,0
5.3395197,-4.0859069,node/6963093982,,Amondji,0
5.455207,-4.0112928,node/6902975750,,Destin,0
5.3665112,-3.9091802,node/7048020780,,Syndicat,0
5.3739184,-3.9119428,node/7048020781,,Késsé,0
5.3676562,-3.9446417,node/7048020782,,Camp Millitaire d'Akouédo,0
5.3652501,-3.9495032,node/7048020783,,Église Apostolique de Côte d'Ivoire,0
5.3117096,-3.9487208,node/3218806159,,Eglise Evangélique Internationnal Foursquare,0
5.2405691,-3.9050053,node/6935494499,,Mosquée,0
5.4034748,-3.9819806,node/6912820393,,FIRDA,0
5.4006902,-3.9728354,node/6912820395,,Soleil 2,0
5.3941384,-3.98635,node/7056217834,,Carrefour Bluethooth,0
5.3980298,-3.9905684,node/7056217832,,Angré 22ème,0
5.3980238,-3.9905188,node/7056217831,,Angré 22ème,0
5.3538378,-3.9775175,node/7056217830,,Riviera 2,0
5.3222556,-4.0623571,node/6933128810,,Terminus Yopougon Camp Militaire,0
5.3510868,-4.1036001,node/7082468484,,Station Pétro Ivoire,0
5.359287,-4.1011097,node/7076942286,,Rond-point de Gesco,0
5.28394,-3.9828832,node/6954138442,,Agence Nationale de la Formation Professionnelle (AGEFOP),0
5.3642968,-4.0306333,node/7054787064,,Pont ferrail,0
5.3570214,-4.0257033,node/7054787065,,Mirador-Adjamé Renault,0
5.2809293,-3.9776556,node/6954138443,,Arrêt,0
5.3522047,-4.0739724,node/7054787060,,La poste,0
5.3568288,-4.0741628,node/7054787061,,Siporex,0
5.3601442,-4.0731409,node/7054787062,,Pont piéton,0
5.3609066,-4.0672085,node/7054787063,,Premier pont,0
5.3566011,-4.0244374,node/7054787069,,Adjamé Renault,0
5.4724295,-4.0727828,node/6952566218,,Arrêt,0
5.4769985,-4.0716872,node/6952566219,,Arrêt,0
5.311038,-4.0153262,node/7079693847,,Gare lagunaire Aqualines Treichville,0
5.4490874,-4.0708852,node/6952566210,,Arrêt,0
5.4522514,-4.0716147,node/6952566211,,Arrêt,0
5.4532246,-4.0718146,node/6952566212,,Arrêt,0
5.4567491,-4.0726206,node/6952566213,,Arrêt,0
5.4606701,-4.0734789,node/6952566214,,Arrêt,0
5.4636378,-4.0739724,node/6952566215,,Arrêt,0
5.3463096,-3.9936456,node/6910224899,,Gare Campus Cocody,0
5.4679793,-4.0738437,node/6952566217,,Arrêt,0
5.3676362,-3.9447965,node/7083115487,,Nouveau Camp,0
5.3717597,-3.9306999,node/7083115486,,Menuiserie,0
5.3528041,-4.0043218,node/6927327310,,Arrêt,0
5.3584685,-3.9636008,node/7083115489,,9 Kilo,0
5.3599412,-3.9610648,node/7083115488,,Commissariat,0
5.4644695,-4.074022,node/6952566216,,Arrêt,0
5.3236042,-4.0615042,node/6910755177,,L'usine du camp,0
5.3534012,-4.0155251,node/6906463296,,Adjamé Liberté,0
5.3018099,-4.003273,node/6906463294,,Ecobank,0
5.3493597,-4.0085859,node/6927327311,,Arrêt,0
5.2998184,-3.9976917,node/6906463292,,Collège Moderne Autoroute,0
5.2998527,-3.98845,node/6906463291,,Grand carrefour Marcory,0
5.2956714,-3.980944,node/6906463290,,Échangeur de Marcory,0
5.3438972,-4.018311,node/2444131222,,Fraternité Matin,0
5.4399903,-4.0204509,node/7077860789,,Station,0
5.293018,-3.9762314,node/6931273200,,Sicomex,0
5.3148159,-4.0184375,node/6931273203,,Gare Sud,0
5.4421097,-4.0207091,node/7077860787,,BC (Belle Cité),0
5.2511255,-3.9565238,node/6945659477,,Port-Bouët Phare,0
5.2546846,-3.9643009,node/6945659476,,Pharmacie Atlantique,0
5.2566851,-3.9647529,node/6945659475,,Arrêt,0
5.2569502,-3.9722067,node/6945659474,,Station Oilibya,0
5.3434193,-4.0125125,node/6927327302,,Arrêt,0
5.3314305,-4.0773064,node/6944934860,,Sideci Pharmacie Lem,0
5.4154549,-3.9996626,node/6926746752,,Arrêt,0
5.3588804,-4.0279685,node/6928681602,,Gare Nord,0
5.3744957,-4.0777323,node/7066312421,,Premier,0
5.3695567,-4.0803618,node/7066312420,,Carrefour Zone,0
5.392648,-4.0804128,node/7066312423,,Barrage,0
5.3889275,-4.078365,node/7066312422,,Prison Civile,0
5.4287382,-4.0697767,node/7066312425,,Garage,0
5.4005297,-4.0843471,node/7066312424,,Cité Ado,0
5.427181,-4.0211289,node/7066312427,,Abobo Gendarmerie,0
5.4325555,-4.0686597,node/7066312426,,Sotrapim,0
5.2508384,-3.9562047,node/7079839319,,Port-Bouët Phare,0
5.2968312,-3.9688084,node/6917146068,,Banque of Africa,0
5.2965895,-3.9650103,node/6917146069,,Arrêt,0
5.3065218,-3.9865047,node/6917146061,,Commissariat du 9 ème,0
5.3061086,-3.9857063,node/6917146062,,Commissariat du 9 ème,0
5.3034179,-3.9807831,node/6917146063,,King Cash,0
5.3015677,-3.9776047,node/6917146064,,Cabinet Médical du 3ème pont,0
5.3005869,-3.9757915,node/6917146065,,Marché de Marcory,0
5.2986259,-3.9722389,node/6917146066,,Paroisse Sainte Bernadette,0
5.2982013,-3.9714765,node/6917146067,,Pharmacie Bagoué,0
5.3084008,-4.018859,node/7085040032,,En bas du pont,0
5.3546991,-4.0043946,node/7051811088,,Escalier,0
5.4298704,-4.0233336,node/6903602208,,Mosquée Blanche,0
5.4332219,-4.0262471,node/6903602209,,Solibra,0
5.4263231,-4.0203577,node/6903602207,,Gendarmerie,0
5.3612016,-3.8943455,node/6930917942,,Station Corlay Bingerville,0
5.35446,-3.9909077,node/7051811087,,Vallon,0
5.3529853,-3.9788968,node/7051811086,,Station Total Riviera 2,0
5.3618466,-3.9581935,node/6930917943,,Après barrage,0
5.3276022,-4.0964118,node/7056730271,,Pharmacie Ste Rita,0
5.329073,-4.1024722,node/7056730270,,Pharmacie Niangon Nord,0
5.3396813,-4.0792899,node/7056730273,,Pont Vagabond,0
5.3355058,-4.0859498,node/7056730272,,Poubelle,0
5.3447246,-4.0724006,node/7056730275,,Ecole William Ponty,0
5.3587519,-4.0301589,node/7056730277,,Pharmacie d'Agban,0
5.3466955,-4.068439,node/7056730276,,Pharmacie Wassakara,0
5.3467743,-4.0732878,node/7056730279,,Pharmacie Keneya,0
5.3573188,-4.0261245,node/7056730278,,Brigade d'Adjamé,0
5.4503748,-4.0526523,node/6915722733,,Arrêt Ancien Marché,0
5.364055,-3.9537437,node/6930917944,,Dalia,0
5.3567139,-4.0243931,node/7054787067,,Adjamé Renault,0
5.4251869,-4.0222809,node/6938222040,,Arrêt,0
5.4191963,-4.0239143,node/6938222041,,Arrêt,0
5.4148659,-4.0240283,node/6938222042,,Arrêt,0
5.4147991,-4.0292727,node/6938222043,,Arrêt,0
5.2430912,-3.9209591,node/7167781667,,Marché Adjoufou,0
5.2412963,-3.9096469,node/7167781666,,Jean folly,0
5.3317403,-4.021322,node/6195348341,,Cathédrale Saint paul,0
5.2575638,-3.9646751,node/7167781668,,Marché de Port-Bouët,0
5.3087649,-3.9838718,node/6909521620,,Gare Marcory,0
5.351632,-4.0021657,node/6907141802,,Palm Club,0
5.2981499,-4.0031198,node/7056277272,,Gare de bassam,0
5.2983743,-4.0029929,node/7056277277,,Gare de bassam,0
5.3586294,-4.0277536,node/6924851833,,Gare Nord,0
5.300882,-4.003555,node/6924851830,,Banque Bicici,0
5.2999593,-4.0062869,node/6924851831,,[Arret sans nom],0
5.3009034,-4.0120965,node/7049730219,,Arrêt,0
5.4393221,-4.0143033,node/6934922733,,Arrêt,0
5.3673945,-3.94563,node/6930917946,,Camp Millitaire d'Akouédo,0
5.323287,-4.0020444,node/6907147651,,Gare Blockauss,0
5.3280617,-4.00118,node/6907147650,,Banque mondiale,0
5.4607326,-4.0109926,node/6902975748,,Terminus Akéikoi village,0
5.4436482,-4.0484067,node/6915722736,,Arrêt,0
5.3616557,-3.9302824,node/7083105183,,Grouoe scolaire Les Adorables,0
5.363768,-3.9328493,node/7083105182,,Laurier 9,0
5.363529,-3.9353223,node/7083105181,,Signature Immobilier,0
5.3632112,-3.9368927,node/7083105180,,Carrefour Decharge,0
5.3601923,-3.9286637,node/7083105184,,Quincaillerie Dieudonné,0
5.3672748,-4.1022501,node/7057276359,,Gare Gesco,0
5.3010837,-3.9887345,node/6939014886,,Arrêt,0
5.3023803,-3.9663789,node/6939014887,,Pharmacie Sainte Aghate,0
5.3029659,-3.9640502,node/6939014888,,Terminus Remblais 03,0
5.2646043,-4.0139727,node/6980029239,,Arrêt,0
5.2684644,-4.0062828,node/6980029238,,Bank Of Africa,0
5.43182,-4.0147115,node/6908782549,,[Arret sans nom],0
5.3369705,-4.0217222,node/6913974340,,Gendarmerie,0
5.2569228,-3.9723435,node/6980029237,,Arrêt,0
5.2452454,-3.9344399,node/6980029236,,Arrêt,0
5.3584671,-3.9639542,node/7057184299,,9 Kilo,0
5.3567647,-3.9674538,node/7057184298,,Cap Nord,0
5.3628133,-4.0736157,node/6909225540,,[Arret sans nom],0
5.3612471,-4.0702482,node/6909225541,,[Arret sans nom],0
5.3623019,-4.0678704,node/6909225542,,Lycée Moderne Yopougon Andokoi,0
5.3615148,-4.0667894,node/6909225543,,Centre Ivoire Couture,0
5.3585831,-4.0278578,node/6909225544,,Gare Nord,0
5.3146893,-4.0183049,node/6909225545,,Gare Sud,0
5.3583082,-4.0669021,node/7078451675,,Première Station,0
5.3565898,-4.0665682,node/7078451674,,Sable,0
5.3505457,-4.0732804,node/7078451677,,Figayo,0
5.357423,-4.0264906,node/7078451676,,Brigade d'Adjamé,0
5.3355379,-4.0895319,node/7078451671,,Bon Prix,0
5.3309578,-4.0908596,node/7078451670,,Station Shell,0
5.3423158,-4.0768088,node/7078451673,,Ecole,0
5.3355259,-4.0881895,node/7078451672,,Canal,0
5.3393334,-4.0792798,node/7078451679,,Sicogi,0
5.3488787,-4.0732435,node/7078451678,,Cosmos,0
5.4082838,-3.9867901,node/6927327308,,Arrêt,0
5.3741528,-4.0958456,node/6909430730,,Dépôt Yopougon zone Industrielle,0
5.3267028,-3.9161935,node/6948920958,,EPP Abatta,0
5.3282218,-3.9169358,node/6948920959,,Paroisse,0
5.3251345,-4.0201163,node/6905719607,,60 logements Plateau,0
5.3299376,-4.0206943,node/6905719606,,Église Méthodiste Unie de Côte d'Ivoire,0
5.3485701,-4.0256884,node/6905719605,,Foire de Chine,0
5.3389242,-4.0623685,node/7052366517,,Coup d'oeil,0
5.3097288,-4.0148424,node/6905719609,,Maison du Congres,0
5.3087867,-4.0177138,node/6905719608,,Hôpital du port,0
5.3342136,-3.923136,node/6948920956,,Arrêt,0
5.3262131,-3.9158679,node/6948920957,,Arrêt,0
5.3554107,-3.9506122,node/6970366278,,Arrêt,0
5.330849,-4.074128,node/7054787051,,Terminus 40,0
5.3275194,-4.0768819,node/7054787050,,Yopougon Palais,0
5.3334922,-4.0734789,node/7054787053,,L'antenne,0
5.3324467,-4.073444,node/7054787052,,Saguidiba au feu,0
5.3377208,-4.0733823,node/7054787055,,16ème,0
5.335172,-4.073448,node/7054787054,,Mosquée,0
5.3396167,-4.0832298,node/2948146673,,Terminus bus 47,0
5.3404604,-4.0734051,node/7054787056,,Score,0
5.3387479,-3.99993,node/6935251111,,Mermoz,0
5.3522302,-3.9912866,node/6935251110,,École de Police,0
5.3591581,-4.0278565,node/6935251112,,Gare Nord,0
5.3502259,-4.0993729,node/6966758107,,Sorbonne,0
5.4554315,-4.0111108,node/6934922724,,Destin,0
5.4982644,-4.0667948,node/6952566225,,Arrêt,0
5.4911611,-4.0680795,node/6952566224,,Arrêt,0
5.5000518,-4.0767123,node/6952566227,,Arrêt,0
5.5001119,-4.0740864,node/6952566226,,Arrêt,0
5.4821955,-4.0703045,node/6952566221,,Arrêt,0
5.4793881,-4.0710461,node/6952566220,,Arrêt,0
5.486354,-4.0692893,node/6952566223,,Arrêt,0
5.4839777,-4.0699115,node/6952566222,,Arrêt,0
5.3672679,-4.102291,node/7057912884,,Gare Gesco,0
5.4531085,-4.0126598,node/6934922725,,André Bar,0
5.3549701,-4.0957546,node/6966758105,,Carrefour Antenne Ananeraie,0
5.3235121,-4.059459,node/7082416541,,Carrefour Gandhi,0
5.3235134,-4.0567224,node/7082416540,,Boulagerie,0
5.3516201,-4.063471,node/7082416543,,Afriquia,0
5.3382425,-4.0623269,node/7082416542,,Carrefour Bicici,0
5.4433989,-4.067652,node/7066312411,,Blé d'Oré,0
5.293902,-3.9560075,node/6906463287,,Gare Koumassi,0
5.2928524,-3.9602508,node/6906463288,,Pharmacie Ehilie,0
5.2913568,-3.966735,node/6906463289,,Mosquée,0
5.4378844,-4.0351391,node/6905344265,,Arrêt Centre Bus,0
5.4446991,-4.0143429,node/6934922727,,Arrêt,0
5.3284442,-3.9410686,node/5143751833,,Terminus M'pouto - CIAD,0
5.3563174,-4.0717421,node/7056274249,,Gabriel Gare,0
5.3471108,-4.0344246,node/6905719624,,Commissariat du 10ᵉ arrondissement,0
5.4339703,-4.012329,node/6908728765,,[Arret sans nom],0
5.4273213,-4.0162121,node/6908728767,,[Arret sans nom],0
5.432656,-4.013431,node/6908728766,,[Arret sans nom],0
5.3461013,-3.948838,node/7083105178,,A l'Ecole,0
5.3464071,-3.9456602,node/7083105179,,Carrefour Akouedo,0
5.260825,-3.9593026,node/6935494486,,Arrêt,0
5.2976825,-3.984569,node/6935494487,,Avenue de la Côte d'Ivoire / Boulevard V.G.E.,0
5.3489387,-4.0206447,node/6903535584,,Complexe,0
5.2576092,-3.9648521,node/7167781669,,Marché de Port-Bouët,0
5.253474,-3.9341971,node/6958966895,,Aéroport,0
5.3670874,-4.0235066,node/6908914500,,Gare Williamsville,0
5.3883091,-3.9928235,node/6964184463,,Aghien 2 plateaux,0
5.3533605,-4.0146225,node/7051811090,,Adjamé liberté,0
5.4085961,-4.0162969,node/6474138990,,Anador,0
5.3582588,-3.9263168,node/7083115485,,AB Center,0
5.3589712,-4.0324257,node/7083218789,,Cité Fairmont,0
5.3091966,-4.0166887,node/7056277275,,Gare bateau-bus,0
5.3228151,-4.1049439,node/7056730268,,Carrefour Internat,0
5.3192437,-4.0998007,node/7056730266,,Carrefour Lokoa,0
5.321877,-4.1035451,node/7056730267,,Carrefour Jatak,0
5.3089927,-4.0169063,node/7056277274,,Gare bateau-bus,0
5.3511513,-4.103179,node/7082468463,,Station Pétro Ivoire,0
5.3632192,-4.0823784,node/7082468462,,Arrêt,0
5.3621697,-4.0804191,node/7082468461,,Station Shell,0
5.33334,-4.055099,node/7083218809,,La Poste,0
5.3290977,-4.0561411,node/7083218808,,Cafeier,0
5.3507267,-4.0994078,node/7082468465,,Bank of Africa: BOA,0
5.3511513,-4.1011566,node/7082468464,,SODECI,0
5.327673,-4.0502664,node/7083218805,,Terminus,0
5.3628857,-4.0985783,node/7057928787,,Boulagerie,0
5.3271388,-4.0552231,node/7083218807,,Gendarmerie,0
5.3268618,-4.0522599,node/7083218806,,Carrefour Gnawa,0
5.3314746,-4.0519327,node/7083218801,,Offoumou Yapo,0
5.3398362,-4.0575117,node/7083218800,,Carrefour Marché,0
5.3294396,-4.0498935,node/7083218802,,Yopougon Bouassi,0
5.3659041,-4.097619,node/7057928785,,Grand Carrefour,0
5.3158647,-4.0148847,node/1227889258,,Gare lagunaire Aqualines du Plateau,0
5.253743,-3.9622208,node/7167781670,,Église Méthodiste Unie Port-Bouët,0
5.2433664,-3.92158,node/7167781671,,Marché Adjoufou,0
5.240686,-3.9044675,node/7167781672,,Mosquée,0
5.2404109,-3.9028153,node/7167781673,,Église Catholique,0
5.238433,-3.8899219,node/7167781674,,Arrêt,0
5.2379215,-3.8867462,node/7167781675,,Arrêt,0
5.2371222,-3.8737408,node/7167781676,,Anani - Rond-point,0
5.305037,-4.0231458,node/6909521611,,Terminus 32,0
5.3005436,-4.0175241,node/6909521610,,Sicodis,0
5.3088247,-4.0179278,node/6909521613,,Hôpital du Pont,0
5.3069377,-4.0211629,node/6909521612,,Grand Moulin Abidjan,0
5.3039938,-4.0111588,node/6909521615,,"Avenue 15, Rue 12, Treichville",0
5.305655,-4.0117363,node/6909521614,,"Avenue 11, Rue 12, Treichville",0
5.3056574,-3.9987874,node/6909521617,,Marché Belleville,0
5.3040254,-4.0034158,node/6909521616,,Paroisse Notre Dame,0
5.4258758,-4.0200131,node/7170486849,,Abobo Gendarmerie,0
5.3543654,-4.0180323,node/6907147644,,Texaco,0
5.3478735,-4.0101289,node/6907147645,,Pont lycée technique,0
5.3442806,-4.0038018,node/6907147646,,SODEMI,0
5.3404792,-4.0033259,node/6907147647,,Sgbci,0
5.3615088,-4.0227342,node/7055596701,,Pont pieton,0
5.336444,-3.9999757,node/6907147648,,Marché de Cocody,0
5.3334363,-4.0003179,node/6907147649,,PMI,0
5.2971256,-4.0074831,node/6909208699,,Parc des Sports,0
5.3561658,-4.0740167,node/7054787073,,Siporex après le feu,0
5.311165,-3.9450346,node/6919758041,,Terminus 05 Lycée Municipal de Koumassi,0
5.3109106,-3.9466942,node/6919758040,,Patisserie MC,0
5.3367091,-4.0216157,node/6913931703,,Gendarmerie,0
5.3547411,-4.0162553,node/7058310539,,Adjamé Liberté,0
5.4213115,-4.0153718,node/7082269144,,Abobo Gare Mairie,0
5.4048277,-3.9944986,node/7082269147,,Star 5,0
5.4044846,-3.9914757,node/7082269146,,Angré Petro Ivoire,0
5.4213352,-4.0154935,node/7082269148,,Abobo Gare Mairie,0
5.3627158,-4.0292184,node/7054787072,,Wangler,0
5.2660346,-4.0086137,node/6945966274,,[Arret sans nom],0
5.2942027,-3.9551669,node/2493730483,,Gare Koumassi,0
5.2582659,-3.9824273,node/6910272313,,"Cité CIE, Vridi",0
5.2577882,-3.9854582,node/6910272312,,CIE,0
5.2565075,-3.9932473,node/6910272311,,"SIR, Vridi",0
5.2588726,-3.9977641,node/6910272310,,Vridi-Iran,0
5.2666602,-3.9874196,node/6910272316,,Terminus Cité Vridi,0
5.2644761,-3.9850263,node/6910272315,,Hôpital Municipal,0
5.2600531,-3.9820028,node/6910272314,,Temple des Vainqueurs,0
5.4217637,-4.0185375,node/6915647682,,Mairie d'ABOBO,0
5.260642,-4.0134249,node/6945966271,,Ciprel,0
5.4303911,-4.0241622,node/6915647684,,Arrêt,0
5.2821643,-4.0084685,node/6909546911,,Bolloré,0
5.277976,-4.0085496,node/6909546910,,PALM-CI,0
5.292271,-4.008424,node/6909546913,,Arrêt,0
5.2864977,-4.008455,node/6909546912,,Siège SOTRA,0
5.3648682,-4.0956353,node/7055717187,,Gesco BATIM,0
