stop_lat,stop_name,stop_id,parent_station,stop_lon,location_type
5.3164439,Yopougon Niangon-Terminus 27,node/768587345,,-4.0893341,0
5.3198783,Yopougon Sideci - Terminus 42,node/768587373,,-4.0804016,0
5.3158647,Gare lagunaire Aqualines du Plateau,node/1227889258,,-4.0148847,0
5.3608351,Agban,node/2381298633,,-4.0171229,0
5.3438972,Fraternité Matin,node/2444131222,,-4.018311,0
5.3423485,Saint André lavage,node/2460519991,,-4.0732432,0
5.3413464,Arrêt,node/2493226931,,-4.0238611,0
5.2942027,Gare Koumassi,node/2493730483,,-3.9551669,0
5.3121324,Terminus 05 Lycée Municipal de Koumassi,node/2760843854,,-3.945225,0
5.3396167,Terminus bus 47,node/2948146673,,-4.0832298,0
5.3396157,Arrêt du Maroc,node/3067761599,,-4.0912463,0
5.3400629,Mosquée du Maroc,node/3067766555,,-4.0973067,0
5.3423254,Saint André,node/3075945505,,-4.0738295,0
5.3427541,[Arret sans nom],node/3137208051,,-4.0668084,0
5.3436761,2 poteaux,node/3137217828,,-4.0709484,0
5.3446768,Newton,node/3137243386,,-4.0679411,0
5.3531115,Riviera 2,node/3145728412,,-3.979568,0
5.3117096,Eglise Evangélique Internationnal Foursquare,node/3218806159,,-3.9487208,0
5.3368705,Saint Jean,node/3326195828,,-4.0037743,0
5.3470567,Pharmacie Port-Bouët II,node/3666057101,,-4.0884501,0
5.3493507,Figayo,node/3950172145,,-4.0734547,0
5.3616481,ENA,node/4029208102,,-3.9973698,0
5.2742845,Pharmacie de Bietry,node/4107240891,,-3.9787018,0
5.3296306,Terminus 85,node/4411562346,,-4.061373,0
5.2948647,Terminus CHU Treichville,node/4999458824,,-4.004071,0
5.30185,Ex-pharmacie Mockey,node/5057165424,,-4.011123,0
5.3369029,Carrefour St Jean,node/5057297311,,-4.0039817,0
5.4158258,Terminus 704 abobo Belleville,node/5068855021,,-3.9933116,0
5.328322,Terminus M'pouto - CIAD,node/5143730222,,-3.940785,0
5.3284442,Terminus M'pouto - CIAD,node/5143751833,,-3.9410686,0
5.3437686,[Arret sans nom],node/5281604034,,-4.0711802,0
5.3078259,Gare lagunaire Aqualines Yopougon,node/5390465849,,-4.0374018,0
5.3555889,Stif,node/5414376221,,-4.0205264,0
5.3415133,Complexe sportif de Yopougon,node/5739489700,,-4.0623618,0
5.3493427,Figayo,node/5927302128,,-4.073208,0
5.3419897,Arrêt,node/5934409413,,-4.1003513,0
5.3671401,Yopougon Gesco - Terminus du bus 34,node/5936892363,,-4.1020437,0
5.3802448,Pharmacie Val de Grace,node/5953580661,,-3.967352,0
5.3618751,Carrefour Palmeraie,node/5953580667,,-3.9593077,0
5.3582581,Station Shell Riviera 3,node/5953580668,,-3.9643623,0
5.3286164,CIAD,node/5954541435,,-3.9498433,0
5.3347766,Boulevard de France,node/5954541439,,-3.9902179,0
5.3492831,Carrefour de la Vie,node/5954541440,,-4.0024723,0
5.3989296,Carrefour 22ème,node/5957239662,,-3.991548,0
5.3855754,Carrefour Opéra,node/5957239663,,-3.9931428,0
5.3615936,ENA,node/5957239665,,-3.9975968,0
5.328578,Hôtel Ivoire,node/5957239666,,-4.0050058,0
5.3975314,Pharmacie Les Laureades,node/5958266385,,-3.9860303,0
5.3806539,Petro Ivoire 7è Tranche,node/5958266386,,-3.9881294,0
5.373758,Commisariat 30è Art.,node/5958266387,,-3.9845519,0
5.3701109,Terminus 202 Attoban,node/5958266388,,-3.9813021,0
5.3673274,Parmacie St Bernard,node/5958266389,,-3.9797109,0
5.3573659,Pharmacie St Ange,node/5958266390,,-3.9782153,0
5.3558222,Collège André Malraux,node/5958266391,,-3.9779596,0
5.3541895,Riviera 2,node/5958266392,,-3.9773239,0
5.3247785,Saint Paul Plateau,node/6098848385,,-4.0207447,0
5.3238162,Hôtel de Ville,node/6136850508,,-4.0205509,0
5.3234932,Hôtel de Ville,node/6136850509,,-4.0205339,0
5.3226907,Terminus Hotel de Ville,node/6136858285,,-4.0205256,0
5.3317403,Cathédrale Saint paul,node/6195348341,,-4.021322,0
5.4148488,Terminus bus 51/52,node/6281030720,,-4.0333199,0
5.4351428,Gare Abobo Sogephia,node/6474137921,,-4.0144508,0
5.4364247,BICICI,node/6474137923,,-4.0125419,0
5.4382745,Cours Sociaux,node/6474137925,,-4.0147435,0
5.4381179,Avenue Kaza,node/6474137927,,-4.019424,0
5.4355472,Camp Commando,node/6474137929,,-4.0202491,0
5.4306474,Station Shell,node/6474137931,,-4.0200922,0
5.4263959,Abobo Gendarmerie,node/6474137932,,-4.0198488,0
5.4234101,Abobo Gendarmerie,node/6474137934,,-4.0187446,0
5.4171616,2ème Arrêt,node/6474137936,,-4.0166455,0
5.4131456,Banco,node/6474137938,,-4.015971,0
5.4089746,Anador,node/6474137940,,-4.0160152,0
5.392647,Université Nangui Abrogoua,node/6474137942,,-4.0207427,0
5.3774907,Macaci,node/6474137944,,-4.0255918,0
5.3592442,Gare Nord,node/6474137946,,-4.027655,0
5.3591608,Gare Nord,node/6474137948,,-4.0274455,0
5.3533564,Grande Mosquée Adjamé,node/6474137950,,-4.0257671,0
5.347769,Foire de Chine,node/6474137952,,-4.0256668,0
5.3431984,Mairie d'Adjamé,node/6474137954,,-4.0259753,0
5.3312372,Cité Administrative,node/6474137956,,-4.0238205,0
5.3278045,Immeuble Sogefiha,node/6474137958,,-4.0238801,0
5.3145043,Gare Sud,node/6474137967,,-4.0181049,0
5.3179651,Présidence,node/6474137979,,-4.019718,0
5.3225013,Galerie du Parc,node/6474137980,,-4.0197472,0
5.3339569,Camp Galliéni,node/6474137981,,-4.0247204,0
5.3386571,Institut National de la Santé Publique,node/6474137982,,-4.026107,0
5.343713,Mairie d'Adjamé,node/6474137983,,-4.0260496,0
5.3459921,Marché Forum,node/6474137984,,-4.0258452,0
5.3503682,Pharmacie du Banco,node/6474138985,,-4.0255664,0
5.3534527,Grande Mosquée Adjamé,node/6474138986,,-4.0259071,0
5.3586829,Gare Nord,node/6474138987,,-4.028099,0
5.3765774,Macaci,node/6474138988,,-4.0263861,0
5.3906844,Filtisac,node/6474138989,,-4.021035,0
5.4085961,Anador,node/6474138990,,-4.0162969,0
5.4135848,Banco,node/6474138991,,-4.0162419,0
5.4183764,Saint-Joseph 2ème Arrêt,node/6474138992,,-4.0173344,0
5.4237125,Abobo Gendarmerie,node/6474138993,,-4.0190818,0
5.4315506,Bar Ivoire Abobo,node/6474138994,,-4.020231,0
5.4363436,DGI Abobo,node/6474138995,,-4.0203886,0
5.4382274,Avenue Kaza,node/6474138996,,-4.0189201,0
5.4383936,Carrefour Akeïkoi,node/6474138997,,-4.0138587,0
5.3149589,Terminus Gare Sud,node/6474138999,,-4.0190673,0
5.4350792,Cité Universitaire Abobo,node/6474139031,,-4.0127537,0
5.4354761,Quai 15,node/6474139033,,-4.0154322,0
5.3580852,Station Shell Riviera 3,node/6815808830,,-3.9641507,0
5.3620442,Carrefour Palmeraie,node/6815808831,,-3.9591336,0
5.3865761,CNPS 9ème Tranche,node/6815808833,,-3.9744202,0
5.4010646,Marché COCOVICO,node/6815808834,,-3.9780418,0
5.3738506,Quick Market,node/6815808839,,-3.9618125,0
5.3737728,Quick Market,node/6815808840,,-3.9618581,0
5.3776142,Commissariat 35è Art.,node/6815808842,,-3.9635563,0
5.3866021,CNPS 9ème Tranche,node/6815808843,,-3.9745308,0
5.4010482,Marché COCOVICO,node/6815808844,,-3.9781939,0
5.3698807,Pharmacie du bonheur,node/6815808845,,-3.9587098,0
5.383206,Groupe Scolaire St Marc,node/6815808846,,-3.9725319,0
5.282599,Camp Commando de Koumassi,node/6819328985,,-3.9692172,0
5.2892136,Grand Carrefour de Koumassi,node/6819329085,,-3.9707407,0
5.2921087,Hôtel Ibis Marcory,node/6819329086,,-3.9741109,0
5.2916293,Hôtel Ibis Marcory,node/6819329185,,-3.973691,0
5.3008419,Chimtec Grand carrefour Marcory,node/6819329285,,-3.9897184,0
5.335819,Ambassade des USA,node/6820855646,,-3.9767155,0
5.3309825,Hotel du Golf,node/6820855647,,-3.9728877,0
5.3310297,Hotel du Golf,node/6820855648,,-3.9730064,0
5.3312498,Ex Terminus Sotra;Carrefour Sol Beni,node/6820855649,,-3.9579229,0
5.332764,Cathédrale Saint paul,node/6831076677,,-4.021605,0
5.3299678,Église Méthodiste Unie de Côte d'Ivoire,node/6831076678,,-4.0205671,0
5.3148704,Gare Sud,node/6831076682,,-4.0185085,0
5.2988832,Cap Sud,node/6832290086,,-3.9867521,0
5.2996481,Gare de Bassam,node/6899034705,,-4.0022393,0
5.3004143,Gendarmerie,node/6899034706,,-3.9997862,0
5.303315,Notre-dame,node/6899034707,,-4.0037983,0
5.3072484,Pharmacie Nanan Yamousso,node/6899034708,,-4.005186,0
5.3099574,Après le Pont,node/6899034709,,-4.0061407,0
5.3534116,Adjamé Liberté,node/6899034710,,-4.0160603,0
5.3534437,Adjamé Liberté,node/6899053345,,-4.014858,0
5.3535364,Gare de Bingerville,node/6899053346,,-4.0120307,0
5.325075,Feux du plateau,node/6899053347,,-4.0152949,0
5.3101491,Nanan Yamousso,node/6899053348,,-4.0061218,0
5.2996797,Gare de Bassam,node/6899053349,,-4.0024275,0
5.4200067,Abobo Gare Mairie,node/6899241573,,-4.0174383,0
5.4143755,Mobil,node/6899241574,,-4.0159818,0
5.3846198,Lavage,node/6899241575,,-4.0215227,0
5.37725,Macaci,node/6899241576,,-4.0257575,0
5.3543459,Adjamé Liberté,node/6899241577,,-4.0164004,0
5.349107,Marché Gouro,node/6899264970,,-4.0212174,0
5.3547097,Adjamé Liberté,node/6899264971,,-4.0163905,0
5.358734,Station Total,node/6899264972,,-4.016791,0
5.4215493,Abobo Gare Mairie,node/6899264973,,-4.0171184,0
5.4195759,Carrefour Marché,node/6902638988,,-4.0153363,0
5.4186048,Petro Ivoire,node/6902638989,,-4.0135168,0
5.4168519,Au Bar,node/6902638990,,-4.0101975,0
5.4157998,Petit Carrefour,node/6902638991,,-4.0080786,0
5.4152338,Samaké,node/6902638992,,-4.0067032,0
5.3994804,Azur,node/6902638993,,-4.0064894,0
5.3780522,Panneau ZOO,node/6902638994,,-4.0070352,0
5.4197843,Abobo Gare Mairie,node/6902638995,,-4.0157753,0
5.4176548,Ciné Cool,node/6902638996,,-4.0117095,0
5.4144283,Boulangerie Samake,node/6902638997,,-4.0062697,0
5.410863,Menuiserie,node/6902638998,,-4.0062877,0
5.4101067,Tchapatcha,node/6902638999,,-4.0063067,0
5.4092677,Chaîne Avion,node/6902639000,,-4.0063409,0
5.4051188,Pharmacie Dokui,node/6902639001,,-4.0063993,0
5.4036347,SODECI,node/6902639002,,-4.0064176,0
5.4020967,Étage Noir,node/6902639003,,-4.0064567,0
5.4001879,Mobil,node/6902639004,,-4.0064867,0
5.3968179,Arrêt Dokui,node/6902639005,,-4.006353,0
5.3929293,Ancien Feu,node/6902639006,,-4.005793,0
5.3872276,Bangui,node/6902639007,,-4.005732,0
5.3851864,Vidange,node/6902639008,,-4.0060126,0
5.382931,HMA,node/6902639009,,-4.0063262,0
5.3721147,Carrefour paillet,node/6902639010,,-4.0118134,0
5.3653117,Carrefour 2 Plateaux,node/6902639011,,-4.0157876,0
5.3553627,Gare des gbakas d’Abobo par le zoo,node/6902639012,,-4.0160705,0
5.4184847,Petro Ivoire,node/6902868224,,-4.0136214,0
5.4176463,Ciné Cool,node/6902868225,,-4.0120067,0
5.4167077,Au Bar,node/6902868226,,-4.0102981,0
5.4051935,Pharmacie Dokui,node/6902868227,,-4.0065403,0
5.4036701,SODECI,node/6902868228,,-4.0065873,0
5.40212,Étage Noir,node/6902868229,,-4.0066315,0
5.4002027,Mobil,node/6902868230,,-4.0066597,0
5.3994577,Azur,node/6902868231,,-4.0066034,0
5.3965911,Arrêt Dokui,node/6902868232,,-4.0064518,0
5.3928327,Ancien Feu,node/6902868233,,-4.0059301,0
5.387253,Bangui,node/6902868234,,-4.005859,0
5.3853034,Vidange,node/6902868235,,-4.0060952,0
5.382907,HMA,node/6902868236,,-4.0064118,0
5.3716859,Carrefour paillet,node/6902868237,,-4.0122239,0
5.365405,Carrefour 2 Plateaux,node/6902868238,,-4.0159576,0
5.3633371,Willy Agban,node/6902868239,,-4.0168128,0
5.3668297,Cimetière,node/6902868240,,-4.0152077,0
5.3765337,CIE,node/6902868241,,-4.0094557,0
5.3789939,ZOO,node/6902868242,,-4.0070149,0
5.3900553,Eglise,node/6902868243,,-4.0056173,0
5.41329,Pharmacie Racines,node/6902868244,,-4.0099567,0
5.4197639,Abobo Gare Mairie,node/6902868245,,-4.0160257,0
5.4500232,Christine Bar,node/6902975747,,-4.0135154,0
5.4607326,Terminus Akéikoi Village,node/6902975748,,-4.0109926,0
5.45899,À l'École,node/6902975749,,-4.0107733,0
5.455207,Destin,node/6902975750,,-4.0112928,0
5.4542173,Monnaie,node/6902975751,,-4.0119566,0
5.4528753,André Bar,node/6902975752,,-4.0128592,0
5.4510493,Carrefour Marché,node/6902975753,,-4.0133357,0
5.446249,A l'étage,node/6902975754,,-4.0143571,0
5.4394513,Boulangerie,node/6902975755,,-4.0141843,0
5.4384053,Carrefour Akéikoi,node/6902975756,,-4.0140378,0
5.4225885,Gare Gbaka Akeïkoi,node/6902975757,,-4.0161726,0
5.4510779,Carrefour Marché,node/6903084141,,-4.0134484,0
5.4530404,André Bar,node/6903084142,,-4.0129173,0
5.4542793,Monnaie,node/6903084143,,-4.0120751,0
5.438503,Au goudron,node/6903097494,,-4.0142825,0
5.4227551,Abobo Gare,node/6903097495,,-4.0160694,0
5.4230451,Au tournant,node/6903097496,,-4.013945,0
5.4278809,Lycée Moderne Abobo 1 & 2,node/6903097497,,-4.0146415,0
5.433455,Célibataire,node/6903097498,,-4.0124107,0
5.4352003,JAUG,node/6903097499,,-4.0124925,0
5.4383233,Cité,node/6903097500,,-4.0135883,0
5.449017,Boulangerie,node/6903097501,,-4.0138345,0
5.4500084,Christine Bar,node/6903097502,,-4.0136722,0
5.4552984,Destin,node/6903097503,,-4.01134,0
5.4594779,À l'École,node/6903097504,,-4.0109968,0
5.460775,Terminus Akéikoi Village,node/6903097505,,-4.0111868,0
5.4429021,Mosquée,node/6903193216,,-4.0144891,0
5.4463091,A l'étage,node/6903193217,,-4.0144891,0
5.42194,Abobo Gare Mairie,node/6903268819,,-4.0165181,0
5.4223082,Gare Abobo Kennedy-Marché/ Mosquée Ado,node/6903268820,,-4.0163197,0
5.4211585,Station,node/6903268821,,-4.0100057,0
5.4236887,Kennedy Marché,node/6903268822,,-4.0015221,0
5.4220774,Mosquée,node/6903296476,,-4.011662,0
5.4186997,Carrefour Kennedy,node/6903296477,,-4.0059623,0
5.418665,Carrefour Kennedy,node/6903296478,,-4.0058919,0
5.4211643,Makan Traoré,node/6903296479,,-4.0039433,0
5.4236156,Au marché,node/6903296480,,-4.0015453,0
5.423623,A Gauche,node/6903296481,,-4.0021714,0
5.4214359,Makan Traoré,node/6903296482,,-4.0037249,0
5.3286546,Cocody Riviera M'badon,node/6903347574,,-3.9324706,0
5.3293417,Nouveau marché,node/6903347575,,-3.9332267,0
5.329969,Ancien marché,node/6903347576,,-3.9339946,0
5.3307517,Centre de santé Municipal de M'Badon,node/6903347577,,-3.9350317,0
5.331008,La ferme,node/6903347578,,-3.9352626,0
5.3353839,Pharmacie,node/6903347579,,-3.9393933,0
5.3384154,2 poteaux,node/6903347580,,-3.9427407,0
5.339948,Antenne,node/6903347581,,-3.945032,0
5.345935,Carrefour Akouédo,node/6903347582,,-3.9457017,0
5.3461517,École,node/6903347583,,-3.9471733,0
5.3458217,2ème rond-point,node/6903347584,,-3.9505483,0
5.3503568,Gare en haut,node/6903370485,,-4.0227501,0
5.4210882,Station,node/6903374200,,-4.0100339,0
5.4196516,Immeuble Cercueil,node/6903374201,,-4.00729,0
5.4195942,Immeuble Cercueil,node/6903374202,,-4.0074087,0
5.4234508,Terminus mosquée Ado Kenedy,node/6903397403,,-3.9978515,0
5.4215774,À l'École,node/6903397404,,-3.9978489,0
5.4198617,[Arret sans nom],node/6903397405,,-3.9979409,0
5.4185867,Dahico,node/6903397406,,-3.9980283,0
5.4157689,Étage Noir,node/6903397407,,-3.9992242,0
5.415578,Samaké,node/6903406997,,-4.0059533,0
5.4156012,Eglise,node/6903406998,,-4.0037563,0
5.4155167,Eglise,node/6903504058,,-4.0037625,0
5.4155583,Monastère,node/6903504059,,-4.0007112,0
5.4154526,Monastère,node/6903504060,,-4.0008035,0
5.4157731,Étage Noir,node/6903504061,,-3.999403,0
5.4185995,Dahico,node/6903504062,,-3.9981732,0
5.4339087,Hôtel du centre,node/6903525051,,-4.0272132,0
5.437375,A la Pompe,node/6903525052,,-4.0337387,0
5.4377181,Dépôt,node/6903525053,,-4.0360617,0
5.4390697,Anokoi,node/6903525054,,-4.0444772,0
5.439303,Anokoi,node/6903525055,,-4.0444823,0
5.4422211,Marahoué,node/6903525056,,-4.0479148,0
5.4439581,Agripac,node/6903525057,,-4.0487972,0
5.447775,Terminus,node/6903525058,,-4.0509604,0
5.4479797,Terminus,node/6903525059,,-4.0508555,0
5.4446545,Agripac,node/6903525060,,-4.0489498,0
5.4425017,Marahoué,node/6903525061,,-4.0477433,0
5.4379717,Dépôt,node/6903525062,,-4.0360937,0
5.4376377,A la Pompe,node/6903525063,,-4.033852,0
5.4367133,Marché de Nuit,node/6903525064,,-4.030245,0
5.4340417,Hôtel du centre,node/6903525065,,-4.026894,0
5.4217034,Abobo Gare,node/6903525066,,-4.018191,0
5.3489387,Complexe,node/6903535584,,-4.0206447,0
5.350348,Gare en haut,node/6903544086,,-4.0224464,0
5.3481387,Maternité,node/6903544087,,-4.0180948,0
5.3521055,Adjamé Liberté,node/6903544088,,-4.014163,0
5.3547793,2ème pont,node/6903544089,,-4.0029137,0
5.3301187,Marché,node/6903544090,,-3.9339759,0
5.4263231,Abobo Gendarmerie,node/6903602207,,-4.0203577,0
5.4298704,Mosquée Blanche,node/6903602208,,-4.0233336,0
5.4332219,Solibra,node/6903602209,,-4.0262471,0
5.4359152,Château,node/6903602210,,-4.0288774,0
5.4383388,A l'escalier,node/6903602211,,-4.0383071,0
5.4497913,PK 18 ancien marché,node/6903602212,,-4.0521369,0
5.4220421,Abobo Gare,node/6903602213,,-4.0184916,0
5.4260466,Abobo Gendarmerie,node/6903602214,,-4.0204342,0
5.426524,Gendarmerie Avant le Feu,node/6903602215,,-4.0208376,0
5.4297276,Mosquée Blanche,node/6903602216,,-4.0236152,0
5.4330817,Solibra,node/6903602217,,-4.0264367,0
5.4357519,Château,node/6903602218,,-4.0290698,0
5.4365893,Marché de Nuit,node/6903602219,,-4.0306363,0
5.4380495,A l'escalier,node/6903602220,,-4.0384581,0
5.4382834,Nouvelle Gare,node/6903602221,,-4.0411411,0
5.4448006,Agripac Avant le Feu,node/6903602222,,-4.0493193,0
5.4493883,Station Total,node/6903602223,,-4.0520966,0
5.4499639,PK 18 ancien marché,node/6903602224,,-4.052542,0
5.370557,Attoban camp,node/6903639366,,-3.9761316,0
5.3694267,Escalier,node/6903639367,,-3.9776678,0
5.3673899,Pharmacie Saint Bernard,node/6903639368,,-3.9794185,0
5.3658448,Carrefour Garage,node/6903639369,,-3.9793174,0
5.365069,Polyclinique Sacré-Coeur,node/6903639370,,-3.9792552,0
5.3642087,Jules ferry,node/6903639371,,-3.9790994,0
5.362115,Hôtel Manhatan,node/6903639372,,-3.9788028,0
5.3589924,Doraville,node/6903639373,,-3.978316,0
5.3571667,Pharmacie Saint ange,node/6903639374,,-3.9780678,0
5.356275,André Malraux,node/6903639375,,-3.9777617,0
5.3505392,Gare en haut,node/6903639376,,-4.0228251,0
5.3672689,Pharmacie Saint Bernard,node/6903968407,,-3.9796695,0
5.3655779,Carrefour Garage,node/6903968408,,-3.9794498,0
5.343795,Attécoubé Terminus 04,node/6904171063,,-4.0345833,0
5.346448,[Arret sans nom],node/6904171064,,-4.0345467,0
5.3490624,Marché,node/6904171065,,-4.033957,0
5.3501257,Station Afriquia,node/6904171066,,-4.032333,0
5.3524283,Carrefour Attecoubé,node/6904171067,,-4.0328135,0
5.3574167,[Arret sans nom],node/6904171068,,-4.0309717,0
5.3513557,Pharmacie du Banco,node/6904171070,,-4.0254169,0
5.3412757,Adjamé Santé,node/6904171071,,-4.0261722,0
5.3381159,Institut National de la Santé Publique,node/6904171072,,-4.025807,0
5.3318344,Cité Administrative,node/6904171073,,-4.0230192,0
5.3266073,Cité financière Plateau,node/6904171074,,-4.0206008,0
5.3237991,SIB Alpha 2000,node/6904171075,,-4.0196512,0
5.3206169,Primature,node/6904171076,,-4.0196681,0
5.3089287,Résidence Cheick Yacouba Sylla,node/6904171077,,-4.0157481,0
5.3094876,Marché Treichville,node/6904171078,,-4.0142576,0
5.3109791,[Arret sans nom],node/6904171079,,-4.0099697,0
5.3126563,Biafra,node/6904171080,,-4.006092,0
5.3076251,Banque Atlantique,node/6904171081,,-3.9933399,0
5.3052787,Hôtel Hamanieh,node/6904171082,,-3.9888629,0
5.3043423,Sainte Thérèse,node/6904171083,,-3.9869873,0
5.3064581,Commissariat du 9 ème,node/6904171084,,-3.9858381,0
5.3088083,Gare Marcory,node/6904188585,,-3.9839517,0
5.3589119,Gare Nord,node/6905326498,,-4.0281877,0
5.4366266,Château,node/6905326503,,-4.0307925,0
5.3843543,Préfecture de Police,node/6905344262,,-4.0219308,0
5.4375564,Arrêt Centre Bus,node/6905344263,,-4.0351608,0
5.4384645,Terminus 45 À l'escalier,node/6905344264,,-4.0390169,0
5.4378844,Arrêt Centre Bus,node/6905344265,,-4.0351391,0
5.4365245,Château,node/6905344266,,-4.0299554,0
5.4328931,Arrêt,node/6905344267,,-4.0259685,0
5.4284112,Abobo Gendarmerie,node/6905344268,,-4.0222108,0
5.3836534,Préfecture de Police,node/6905344273,,-4.0219627,0
5.4284566,Abobo Gendarmerie,node/6905553518,,-4.0225102,0
5.4327155,[Arret sans nom],node/6905553519,,-4.0261674,0
5.3485701,Foire de Chine,node/6905719605,,-4.0256884,0
5.3299376,Église Méthodiste Unie de Côte d'Ivoire,node/6905719606,,-4.0206943,0
5.3251345,60 logements Plateau,node/6905719607,,-4.0201163,0
5.3087867,Hôpital du port,node/6905719608,,-4.0177138,0
5.3097288,Maison du Congres,node/6905719609,,-4.0148424,0
5.3073425,Pharmacie du Rond-point,node/6905719610,,-4.0116929,0
5.3090218,[Arret sans nom],node/6905719611,,-4.0069793,0
5.3080275,Nanan Yamousso,node/6905719612,,-4.005442,0
5.3048828,Paroisse Notre-Dame de Treichville,node/6905719613,,-4.0043543,0
5.3045623,Pharmacie de l'Entente,node/6905719614,,-4.0015648,0
5.3055251,Marché de Belleville,node/6905719615,,-3.998829,0
5.3075214,Banque Atlantique,node/6905719616,,-3.9931172,0
5.3049722,Hôtel Hamanieh,node/6905719617,,-3.9887868,0
5.3055778,Commissariat du 9éme,node/6905719618,,-3.986118,0
5.308097,Station Shell,node/6905719619,,-3.9847286,0
5.3584965,[Arret sans nom],node/6905719620,,-4.0284151,0
5.357702,[Arret sans nom],node/6905719621,,-4.0304951,0
5.3515438,Carrefour Attecoubé,node/6905719622,,-4.0321715,0
5.3489601,Banque Atlantique,node/6905719623,,-4.03386,0
5.3471108,Commissariat du 10ᵉ arrondissement,node/6905719624,,-4.0344246,0
5.3437946,Attécoubé Terminus 04,node/6905719625,,-4.0344802,0
5.3251603,Saint Paul,node/6905772459,,-4.0219475,0
5.3282245,Immeuble Sogephia Hévéa,node/6905772460,,-4.0239746,0
5.3337809,Musée du Plateau,node/6905772461,,-4.0245113,0
5.4383593,Cours Sociaux,node/6905772466,,-4.0160546,0
5.3590397,Gare Nord,node/6905842305,,-4.0275686,0
5.3252327,Long Champs,node/6905842307,,-4.0224693,0
5.293902,Gare Koumassi,node/6906463287,,-3.9560075,0
5.2928524,Pharmacie Ehilie,node/6906463288,,-3.9602508,0
5.2913568,Mosquée,node/6906463289,,-3.966735,0
5.2956714,Échangeur de Marcory,node/6906463290,,-3.980944,0
5.2998527,Grand carrefour Marcory,node/6906463291,,-3.98845,0
5.2998184,Collège Moderne Autoroute,node/6906463292,,-3.9976917,0
5.2999823,Gare de Bassam,node/6906463293,,-4.0026734,0
5.3018099,Ecobank,node/6906463294,,-4.003273,0
5.3534012,Adjamé Liberté,node/6906463296,,-4.0155251,0
5.4365892,BICICI,node/6906507833,,-4.0124238,0
5.3546594,Adjamé Liberté,node/6906575629,,-4.0164467,0
5.3631417,Williams-Ville,node/6906575630,,-4.0169033,0
5.3658197,Carrefour 2 Plateaux,node/6906575631,,-4.0157829,0
5.3662557,[Arret sans nom],node/6906575632,,-4.0156117,0
5.3716139,Paillet,node/6906575633,,-4.0122293,0
5.374069,[Arret sans nom],node/6906575634,,-4.0112578,0
5.3898833,[Arret sans nom],node/6906575635,,-4.005605,0
5.4045622,[Arret sans nom],node/6906575636,,-4.0065311,0
5.4113412,[Arret sans nom],node/6906575637,,-4.0064187,0
5.4126483,ANADER,node/6906575638,,-4.0064133,0
5.4148754,Samaké,node/6906590689,,-4.0064263,0
5.41527,Samaké,node/6906590691,,-4.0068417,0
5.4101483,Chaîne Avion,node/6906590692,,-4.0063152,0
5.4073533,1ere Boutique,node/6906590693,,-4.0063867,0
5.3659384,Carrefour 2 Plateaux,node/6906590694,,-4.0155634,0
5.3546002,Adajmé Liberté,node/6906590695,,-4.0162927,0
5.35345,Adjamé Liberté,node/6906596960,,-4.015528,0
5.3100359,Nanan Yamousso,node/6906596961,,-4.0060884,0
5.3054677,Karwil,node/6906596962,,-4.0044435,0
5.3031308,Notre-dame,node/6906596963,,-4.0036369,0
5.3003893,Gare de Bassam,node/6906596964,,-4.0026404,0
5.2998444,Collège Moderne Autoroute,node/6906596965,,-3.9983918,0
5.2987234,Cap Sud,node/6906596966,,-3.9859637,0
5.2959351,Échangeur Marcory,node/6906596967,,-3.981013,0
5.2912433,Auto-école,node/6906596968,,-3.9675638,0
5.2919737,Arrêt,node/6906596969,,-3.964494,0
5.292783,Boulangerie,node/6906596970,,-3.9610541,0
5.3790616,ZOO,node/6906699462,,-4.0069936,0
5.4074152,1ere Boutique,node/6906699463,,-4.0065336,0
5.3723989,Paillet,node/6906699464,,-4.0116794,0
5.3898979,[Arret sans nom],node/6906699465,,-4.0054621,0
5.3967647,Arrêt Dokui,node/6906699466,,-4.0065122,0
5.3968689,Arrêt Dokui,node/6906699467,,-4.0063445,0
5.4121402,ANADER,node/6906699468,,-4.0062842,0
5.4169293,[Arret sans nom],node/6906699469,,-4.0106347,0
5.4170815,[Arret sans nom],node/6906699470,,-4.0106159,0
5.4197017,Abobo Mairie,node/6906699471,,-4.0159368,0
5.4197512,Abobo Mairie,node/6906699472,,-4.0156192,0
5.3675641,Gare Williamsville,node/6907121506,,-4.0235294,0
5.3658243,Mosquée,node/6907121507,,-4.0207037,0
5.3643529,Croix Bleue,node/6907121508,,-4.0189161,0
5.3576606,Agban avant le pont,node/6907121509,,-4.0160715,0
5.3501391,Pharmacie le Belier,node/6907121510,,-4.0169929,0
5.3417336,Indenié,node/6907121511,,-4.0230855,0
5.3220152,Mairie du Plateau,node/6907121512,,-4.018503,0
5.3219502,Institut Français,node/6907121513,,-4.0170059,0
5.3195012,CNPS,node/6907121514,,-4.0144649,0
5.3088742,Gare Marcory,node/6907121515,,-3.984068,0
5.342209,RTI,node/6907141795,,-4.0033579,0
5.3459837,Archibat,node/6907141796,,-4.0029046,0
5.3356901,Marché de Cocody,node/6907141797,,-4.0007897,0
5.3232894,Gare Blockauss,node/6907141798,,-4.0021679,0
5.3278237,Banque Mondiale,node/6907141799,,-4.0013589,0
5.3355267,Marché de Cocody,node/6907141800,,-4.0007635,0
5.3384172,CIE,node/6907141801,,-4.0038072,0
5.351632,Palm Club,node/6907141802,,-4.0021657,0
5.3587491,Gare Nord,node/6907141803,,-4.0274511,0
5.3543654,Texaco,node/6907147644,,-4.0180323,0
5.3478735,Pont lycée technique,node/6907147645,,-4.0101289,0
5.3442806,SODEMI,node/6907147646,,-4.0038018,0
5.3404792,SGBCI,node/6907147647,,-4.0033259,0
5.336444,Marché de Cocody,node/6907147648,,-3.9999757,0
5.3334363,PMI,node/6907147649,,-4.0003179,0
5.3280617,Banque Mondiale,node/6907147650,,-4.00118,0
5.323287,Gare Blockauss,node/6907147651,,-4.0020444,0
5.3528511,Boulangerie Top baquette,node/6907154300,,-4.0168481,0
5.3472669,220 logements,node/6907154301,,-4.017115,0
5.3589598,Gare Nord,node/6907157792,,-4.0273707,0
5.3559786,Renault,node/6907157793,,-4.0213836,0
5.3534802,Adjamé Liberté,node/6907157794,,-4.0158064,0
5.339615,CERAP - INADES,node/6907157795,,-4.000587,0
5.3464621,Gare Campus Cocody,node/6908599212,,-3.9946557,0
5.343718,ISTC,node/6908599213,,-4.0013186,0
5.4354972,Quai 49,node/6908599215,,-4.0153091,0
5.3456864,INSAAC,node/6908618074,,-3.9968976,0
5.427395,EPV Konaté,node/6908618077,,-4.016795,0
5.4286537,Lycée Moderne d'Abobo,node/6908618078,,-4.0146633,0
5.4339703,[Arret sans nom],node/6908728765,,-4.012329,0
5.432656,[Arret sans nom],node/6908728766,,-4.013431,0
5.4273213,[Arret sans nom],node/6908728767,,-4.0162121,0
5.343821,ISTC,node/6908728771,,-4.0008199,0
5.3462119,Gare Campus Cocody,node/6908728772,,-3.9937238,0
5.43182,[Arret sans nom],node/6908782549,,-4.0147361,0
5.429723,[Arret sans nom],node/6908782550,,-4.014638,0
5.3450487,Cité des Arts,node/6908782552,,-3.9978676,0
5.3466283,université méthodiste de Côte D'Ivoire,node/6908782553,,-3.993895,0
5.357415,[Arret sans nom],node/6908914485,,-4.0160582,0
5.3491257,Cours socio éducatif,node/6908914486,,-4.0171632,0
5.3082112,Piscine d’État de Treichville,node/6908914487,,-3.9996571,0
5.3090397,Gare Marcory,node/6908914488,,-3.9839441,0
5.3555536,Boulangerie Top Qualité,node/6908914489,,-4.0161239,0
5.3513262,Liberté,node/6908914490,,-4.0170747,0
5.3503722,Pharmacie le Belier,node/6908914491,,-4.0170975,0
5.3418097,Indenié,node/6908914492,,-4.0230188,0
5.3421743,Banque SIB,node/6908914493,,-4.025647,0
5.321186,Bicici plateau,node/6908914494,,-4.0183783,0
5.321624,Pyramide,node/6908914495,,-4.0167837,0
5.3184312,Siège Moov,node/6908914496,,-4.0145266,0
5.3641726,Croix Bleue,node/6908914498,,-4.0188664,0
5.3653249,Infirmerie Sinikeya,node/6908914499,,-4.0202826,0
5.3670874,Gare Williamsville,node/6908914500,,-4.0235066,0
5.3589877,Petro Ivoire,node/6909039462,,-4.0318263,0
5.3468603,Pharmacie Sainte Marie,node/6909039464,,-4.0257324,0
5.3080247,Cité Policière,node/6909039468,,-4.0159526,0
5.2958623,CHU,node/6909039469,,-4.0046789,0
5.2927793,PTT Km4,node/6909039470,,-3.9984496,0
5.2914467,Pharmacie Santé Publique,node/6909039471,,-3.9957435,0
5.3585383,Terminus Cité Fairmont,node/6909108442,,-4.0375583,0
5.305135,arrêt,node/6909108450,,-4.0149536,0
5.29123,Services Techniques du District,node/6909108451,,-3.9902017,0
5.3088407,Gare Marcory,node/6909121487,,-3.9840127,0
5.2971256,Parc des Sports,node/6909208699,,-4.0074831,0
5.2895393,"SIYOA, Boulevard de Marseille",node/6909208700,,-3.990781,0
5.36188,Arrêt,node/6909225529,,-4.0724972,0
5.3647534,Arrêt,node/6909225530,,-4.0745652,0
5.3727101,[Arret sans nom],node/6909225533,,-4.0961792,0
5.3742257,[Arret sans nom],node/6909225534,,-4.0895635,0
5.372722,Nestlé,node/6909225535,,-4.0867558,0
5.3745633,Arrêt,node/6909225536,,-4.0781781,0
5.3703887,[Arret sans nom],node/6909225537,,-4.0796923,0
5.3683786,Arrêt,node/6909225538,,-4.0786743,0
5.3670367,Direction de la Sotra,node/6909225539,,-4.0761986,0
5.3628133,Arrêt,node/6909225540,,-4.0736157,0
5.3612471,[Arret sans nom],node/6909225541,,-4.0702482,0
5.3623019,Lycée Moderne Yopougon Andokoi,node/6909225542,,-4.0678704,0
5.3615148,Centre Ivoire Couture,node/6909225543,,-4.0667894,0
5.3585831,Gare Nord,node/6909225544,,-4.0278578,0
5.3146893,Gare Sud,node/6909225545,,-4.0183049,0
5.2948194,CHU Treichville,node/6909237619,,-4.0033954,0
5.301827,Délices de France,node/6909237622,,-3.9881326,0
5.2913004,Services Techniques du District,node/6909237623,,-3.9900511,0
5.2931333,PTT Km4,node/6909237624,,-3.9994307,0
5.3023437,Quincaillerie Générale,node/6909237625,,-4.0141223,0
5.3049356,Arrêt,node/6909237626,,-4.0150089,0
5.308109,Cité Policière,node/6909237627,,-4.0161832,0
5.3591167,Gare Nord,node/6909237631,,-4.0279602,0
5.358876,Station Petro Ivoire,node/6909237632,,-4.0319963,0
5.3582206,Terminus 02 Cité Fairmont,node/6909237633,,-4.0364602,0
5.3765208,[Arret sans nom],node/6909430718,,-4.094158,0
5.3618706,Gare CTE,node/6909430720,,-4.0668847,0
5.3621938,Lycée Moderne Yopougon Andokoi,node/6909430721,,-4.0678369,0
5.3607938,Station Total,node/6909430722,,-4.0710622,0
5.362382,Arrêt,node/6909430723,,-4.0736572,0
5.365409,Arrêt,node/6909430724,,-4.0742996,0
5.36707,Direction de la Sotra,node/6909430725,,-4.0764347,0
5.3683719,Arrêt,node/6909430726,,-4.0788862,0
5.3690582,Station,node/6909430727,,-4.080222,0
5.3699698,[Arret sans nom],node/6909430728,,-4.0819788,0
5.3741086,JOMACO,node/6909430729,,-4.0896792,0
5.3741528,Dépôt Yopougon zone Industrielle,node/6909430730,,-4.0958456,0
5.2645534,Hôpital Municipal,node/6909521603,,-3.9848298,0
5.2632614,Groupe Scolaire N'Sikan,node/6909521604,,-3.9834323,0
5.257665,CIE,node/6909521605,,-3.9849267,0
5.2558751,arrêt,node/6909521606,,-3.9956283,0
5.26373,Gestoci,node/6909521607,,-3.9989162,0
5.2704314,Pont de Vridi,node/6909521608,,-4.0062621,0
5.2978357,"Etablissements Rey, Port",node/6909521609,,-4.0143099,0
5.3005436,Sicodis,node/6909521610,,-4.0175241,0
5.305037,Terminus 32,node/6909521611,,-4.0231458,0
5.3069377,Grand Moulin Abidjan,node/6909521612,,-4.0211629,0
5.3088247,Hôpital du Pont,node/6909521613,,-4.0179278,0
5.305655,"Avenue 11, Rue 12, Treichville",node/6909521614,,-4.0117363,0
5.3039938,"Avenue 15, Rue 12, Treichville",node/6909521615,,-4.0111588,0
5.3040254,Paroisse Notre Dame,node/6909521616,,-4.0034158,0
5.3056574,Marché Belleville,node/6909521617,,-3.9987874,0
5.3087649,Gare Marcory,node/6909521620,,-3.9838718,0
5.266603,Vridi Cité - Terminus 53,node/6909546905,,-3.9871428,0
5.259526,Pharmacie Vridi Port,node/6909546906,,-3.9818252,0
5.2571616,Stade de la SIR,node/6909546907,,-3.9892306,0
5.2588247,Vridi-Iran,node/6909546908,,-3.9978983,0
5.2676512,"CPMA, Vridi",node/6909546909,,-4.0031425,0
5.277976,PALM-CI,node/6909546910,,-4.0085496,0
5.2821643,Bolloré,node/6909546911,,-4.0084685,0
5.2864977,Siège SOTRA,node/6909546912,,-4.008455,0
5.292271,Arrêt,node/6909546913,,-4.008424,0
5.296841,Ciment Bélier,node/6909546914,,-4.0131528,0
5.3029759,Port Autonome Abidjan,node/6909546915,,-4.0212547,0
5.309804,Maison du Congres,node/6909546916,,-4.0149741,0
5.3059215,Collège Bosco,node/6909546917,,-4.0050815,0
5.3226268,Niangon Sud à droite,node/6909707221,,-4.1045,0
5.3233679,Carrefour Académie,node/6909707223,,-4.1057378,0
5.325714,Caféier,node/6909707224,,-4.1059349,0
5.3310513,Lubafrique,node/6909707225,,-4.1037691,0
5.3338915,2ème arrêt ANADOR,node/6909707226,,-4.1029765,0
5.3358784,Carrefour Anador,node/6909707227,,-4.1014047,0
5.3404237,Pharmacie Cité Maroc,node/6909707228,,-4.1004632,0
5.3407014,CIE,node/6909707229,,-4.0892462,0
5.3450164,[Arret sans nom],node/6909707230,,-4.0892456,0
5.3481316,Grand Centre,node/6909707231,,-4.0875008,0
5.3540742,Port-Bouët II,node/6909707232,,-4.0874934,0
5.3561104,[Arret sans nom],node/6909707233,,-4.0851103,0
5.3604209,BAE,node/6909707234,,-4.0850901,0
5.358951,Gare Nord,node/6909707236,,-4.0277736,0
5.3147518,Gare Sud,node/6909707238,,-4.0183735,0
5.3058324,Feu du Collège Bosco,node/6909737821,,-4.0049374,0
5.3062141,"Avenue 10, Rue 12, Treichville",node/6909737822,,-4.0120606,0
5.3067759,Grand Moulin Abidjan,node/6909737824,,-4.0211598,0
5.3033621,Siège Port Autonome Abidjan,node/6909737825,,-4.0217286,0
5.2945614,Port Autonome Abidjan,node/6909737826,,-4.0095509,0
5.2878677,Siège SOTRA,node/6909737827,,-4.0082981,0
5.2820277,Bolloré,node/6909737828,,-4.0083516,0
5.2787,Movis,node/6909737829,,-4.00841,0
5.2705271,Pont de Vridi,node/6909737830,,-4.0061063,0
5.3309411,Cité Administrative,node/6909812227,,-4.0239378,0
5.3572641,CHU de Yopougon,node/6909812228,,-4.0849641,0
5.3552565,[Arret sans nom],node/6909812229,,-4.0867444,0
5.3469666,Pharmacie Port-Bouët II,node/6909812230,,-4.0880983,0
5.3453455,[Arret sans nom],node/6909812231,,-4.0891591,0
5.3400138,Mosquée du Maroc,node/6909812232,,-4.0974297,0
5.3401847,Pharmacie Cité Maroc,node/6909812233,,-4.1003975,0
5.335861,Carrefour Anador,node/6909812234,,-4.1013081,0
5.3305692,Lubafrique,node/6909812235,,-4.1037999,0
5.3273952,[Arret sans nom],node/6909812236,,-4.1051263,0
5.32569,Caféier,node/6909812237,,-4.1058531,0
5.3226401,Niangon Sud à droite,node/6909812238,,-4.1045248,0
5.3568101,Siporex-Sicomex,node/6909923471,,-4.0739979,0
5.3538004,Siporex avant le feu,node/6909923472,,-4.0740046,0
5.3448074,William-Ponty,node/6909923473,,-4.0732898,0
5.3388868,Yopougon 16ème Advans,node/6909923474,,-4.0732871,0
5.3326109,Saguidiba,node/6909923475,,-4.0733247,0
5.3297734,Gare Yopougon Kouté,node/6909923477,,-4.0735526,0
5.3463096,Gare Campus Cocody,node/6910224899,,-3.9936456,0
5.3297134,Gare Yopougon Kouté,node/6910224902,,-4.0738578,0
5.3315587,Saguidiba,node/6910224905,,-4.0735191,0
5.3344863,Côte d'Ivoire-Telecom,node/6910224906,,-4.0734252,0
5.338834,Yopougon 16ème Advans,node/6910224907,,-4.0734096,0
5.3418778,Saint André lavage,node/6910224908,,-4.0734078,0
5.345666,William-Ponty,node/6910224909,,-4.0734038,0
5.3540928,Siporex après le feu,node/6910224910,,-4.0741883,0
5.3566819,Siporex-Sicomex,node/6910224911,,-4.0741772,0
5.2678334,CPMA-Vridi,node/6910272309,,-4.0031259,0
5.2588726,Vridi-Iran,node/6910272310,,-3.9977641,0
5.2565075,"SIR, Vridi",node/6910272311,,-3.9932473,0
5.2577882,CIE,node/6910272312,,-3.9854582,0
5.2582659,"Cité CIE, Vridi",node/6910272313,,-3.9824273,0
5.2600531,Temple des Vainqueurs,node/6910272314,,-3.9820028,0
5.2644761,Hôpital Municipal,node/6910272315,,-3.9850263,0
5.2666602,Terminus Cité Vridi,node/6910272316,,-3.9874196,0
5.3313223,Cité Administrative,node/6910518025,,-4.0228166,0
5.4267852,Abobo Gendarmerie,node/6910584802,,-4.0201529,0
5.350955,Institut des aveugles,node/6910703473,,-4.0632851,0
5.3476916,Bel Air,node/6910703474,,-4.0632758,0
5.3418057,Complexe sportif de Yopougon,node/6910703475,,-4.0622364,0
5.3380456,Nouveau quartier,node/6910703476,,-4.0622136,0
5.3333961,Clinique les Oliviers,node/6910703477,,-4.0621975,0
5.3294751,Terminus 85,node/6910743309,,-4.061462,0
5.333826,Clinique les Oliviers,node/6910743310,,-4.0623826,0
5.3375141,Nouveau quartier,node/6910743311,,-4.0623477,0
5.3460439,Bel Air,node/6910743312,,-4.0634635,0
5.3556644,Sable,node/6910743313,,-4.0660062,0
5.3513983,Institut des aveugles,node/6910743314,,-4.0634474,0
5.3237979,Ben,node/6910755171,,-4.0804794,0
5.3255979,Marejea,node/6910755172,,-4.0764964,0
5.3255738,Iris3,node/6910755173,,-4.0718266,0
5.3198733,Yopougon Sideci - Terminus 42,node/6910755174,,-4.0802502,0
5.3242746,Marché Kouté,node/6910755176,,-4.0667291,0
5.3236042,L'usine du camp,node/6910755177,,-4.0615042,0
5.3236336,Stenb,node/6910755178,,-4.0577316,0
5.3222355,Le petit soleil,node/6910755179,,-4.0535085,0
5.3222275,Yopougon Kowëit,node/6910755180,,-4.0507693,0
5.3222395,La faveur,node/6910755181,,-4.0464583,0
5.3198693,Pharmacie Chenain,node/6910755182,,-4.0439746,0
5.3171339,Iris 3,node/6910755183,,-4.0439826,0
5.3137348,Bon choix,node/6910755184,,-4.0440027,0
5.3095505,Santé Village,node/6910794085,,-4.0439558,0
5.3101983,Gare Abobo-Doumé,node/6910794088,,-4.0353389,0
5.4258812,Arrêt,node/6910797790,,-4.01971,0
5.4182684,Arrêt,node/6910797791,,-4.0128435,0
5.4156089,Arrêt,node/6910797792,,-4.0054353,0
5.4155902,Arrêt,node/6910797793,,-3.999584,0
5.4038607,Terminus 81/82,node/6910797794,,-3.9856156,0
5.4031254,BICICI,node/6910797795,,-3.9792073,0
5.4011881,Arrêt,node/6910797796,,-3.9780821,0
5.3988302,Arrêt,node/6910797797,,-3.9776878,0
5.3963428,Arrêt,node/6910797798,,-3.977036,0
5.3932466,Arrêt,node/6910797799,,-3.9761992,0
5.3946558,Arrêt,node/6910797800,,-3.971504,0
5.4000986,Cité Diaspora,node/6910797801,,-3.9649835,0
5.4025338,SOCIAM,node/6910797802,,-3.9621642,0
5.4022965,SOCIAM,node/6910797803,,-3.9620463,0
5.399963,CHU Angré,node/6910797804,,-3.9570893,0
5.4154527,Arrêt,node/6910797805,,-4.0022783,0
5.3997812,CHU Angré,node/6910797806,,-3.9570173,0
5.4003923,Arrêt,node/6910797807,,-3.9592423,0
5.4011774,Arrêt,node/6910797808,,-3.960527,0
5.3991713,Arrêt,node/6910797809,,-3.9657399,0
5.3964463,Arrêt,node/6910797810,,-3.9689626,0
5.3933681,Arrêt,node/6910797811,,-3.9736088,0
5.3929368,Arrêt,node/6910797812,,-3.9754415,0
5.3954823,Arrêt,node/6910797813,,-3.9769683,0
5.3963101,Arrêt,node/6910797814,,-3.9772754,0
5.4003569,Arrêt,node/6910797815,,-3.9781552,0
5.4022415,Arrêt,node/6910797816,,-3.978471,0
5.4029505,BICICI,node/6910797817,,-3.9794534,0
5.4042516,Arrêt,node/6910797818,,-3.9898295,0
5.4070126,Saint Ambroise,node/6910797819,,-3.9911934,0
5.4103992,Arrêt,node/6910797820,,-3.9941237,0
5.4136035,Arrêt,node/6910797821,,-3.9953287,0
5.3317315,Lycée Classique d'Abidjan,node/6912410269,,-4.0043772,0
5.3286968,Hôtel Ivoire,node/6912410270,,-4.0047695,0
5.3278806,Hôtel Ivoire,node/6912410271,,-4.0029871,0
5.3277329,Hôtel Ivoire,node/6912410272,,-4.0032565,0
5.3327049,Lycée Classique d'Abidjan,node/6912410273,,-4.0045047,0
5.3439798,SODEMI,node/6912410274,,-4.0037108,0
5.3477876,Pont lycée technique,node/6912410275,,-4.0095505,0
5.3290976,Carrefour Express,node/6912654329,,-4.0751626,0
5.3581253,BMW,node/6912729876,,-4.0012691,0
5.3601195,SOCITECH,node/6912729877,,-3.998725,0
5.3648148,Macaci,node/6912729878,,-3.9976354,0
5.367356,Mobil 2 Plateaux,node/6912729879,,-3.9983993,0
5.3718047,Sococé 2 Plateaux,node/6912729880,,-3.9984268,0
5.3745478,BOA,node/6912729881,,-3.9985198,0
5.3755833,Snedai,node/6912729882,,-3.9985338,0
5.3776569,Carrefour Duncan,node/6912729883,,-3.9976312,0
5.3809527,Las Palmas,node/6912729884,,-3.9943103,0
5.3388207,Pharmacie du Marché,node/6912805206,,-4.0792393,0
5.3373258,[Arret sans nom],node/6912805207,,-4.0765581,0
5.3384061,Patisserie,node/6912805208,,-4.0752894,0
5.3467623,Ex Chaine Avion Rue Princesse,node/6912805209,,-4.0652525,0
5.3408189,Camp FRCI,node/6912805210,,-4.0599974,0
5.3398655,Carrefour Marché,node/6912805211,,-4.0572368,0
5.3373205,Carrefour Lama Fofana,node/6912805212,,-4.0549944,0
5.3337105,Banque Atlantique,node/6912805213,,-4.0550186,0
5.3316575,Offoumou Yapo,node/6912805214,,-4.0520655,0
5.3293394,Tizra,node/6912805215,,-4.0497521,0
5.3264792,[Arret sans nom],node/6912805216,,-4.0494691,0
5.3247299,Arrêt,node/6912805217,,-4.0494999,0
5.3104606,Gare Abobo-Doumé,node/6912805219,,-4.0354465,0
5.3847656,Carrefour Opéra,node/6912820385,,-3.9932407,0
5.3888111,Mahikari,node/6912820386,,-3.9927523,0
5.3926338,Ambassade de Chine,node/6912820387,,-3.992269,0
5.3942154,Les Oscars,node/6912820388,,-3.9921141,0
5.3963811,BHCI,node/6912820389,,-3.9918337,0
5.4005116,Shawarma House,node/6912820390,,-3.9913523,0
5.4038172,Petro Ivoire Angré,node/6912820391,,-3.9909124,0
5.4042033,Notre Dame,node/6912820392,,-3.9882535,0
5.4034748,FIRDA,node/6912820393,,-3.9819806,0
5.4033098,"Ancien Terminus 90, Les Arcades",node/6912820394,,-3.9765606,0
5.4006902,Soleil 2,node/6912820395,,-3.9728354,0
5.3971939,Clinique Médicale Sainte Justine,node/6912820396,,-3.9694727,0
5.3998522,Cité Diaspora,node/6912820397,,-3.9648829,0
5.3972237,Clinique Médicale Sainte Justine,node/6912820398,,-3.9697282,0
5.4031598,"Ancien Terminus 90, Les Arcades",node/6912820399,,-3.9764213,0
5.4033208,FIRDA,node/6912820400,,-3.9820585,0
5.4037772,Termunis 81/82,node/6912820401,,-3.9856793,0
5.4041375,Notre Dame,node/6912820402,,-3.9887434,0
5.4037567,Petro Ivoire Angré,node/6912820403,,-3.9906882,0
5.4002961,Carrefour 22è,node/6912820404,,-3.9911377,0
5.3965825,BHCI,node/6912820405,,-3.9915941,0
5.3926201,Ambassade de Chine,node/6912820406,,-3.9920829,0
5.3895654,Mahikari,node/6912820407,,-3.9924668,0
5.3845481,Opéra,node/6912820408,,-3.9930996,0
5.3809502,Las Palmas,node/6912820409,,-3.9940546,0
5.3779505,Carrefour Duncan,node/6912820410,,-3.9970644,0
5.3753472,Le Roi du Pain,node/6912820411,,-3.9983567,0
5.3725038,Sococé 2 Plateaux,node/6912820412,,-3.9983278,0
5.3677225,Mobil 2 Plateaux,node/6912820413,,-3.9981432,0
5.3654376,Macaci,node/6912820414,,-3.9973648,0
5.3574699,Saint Jacques,node/6912820415,,-4.0012391,0
5.3525544,Palm Club,node/6912820416,,-4.0018639,0
5.3493692,Carrefour la Vie,node/6912820417,,-4.0022742,0
5.344562,Arrêt,node/6912820418,,-4.0028093,0
5.3266074,Sitarail,node/6913011676,,-4.0255438,0
5.3293875,Gare Yopougon Kouté,node/6913011677,,-4.073499,0
5.3134744,Bon choix,node/6913190443,,-4.0441328,0
5.3087112,Santé Village,node/6913190444,,-4.043768,0
5.3166799,Iris 3,node/6913190445,,-4.0440879,0
5.3208014,Arrêt,node/6913190446,,-4.0441167,0
5.3221154,La faveur,node/6913190447,,-4.0468311,0
5.323918,Arrêt,node/6913190448,,-4.0496448,0
5.3270841,Commissariat de Police du 19ᵉ Arrondissement,node/6913190449,,-4.0503167,0
5.3295798,Tizra,node/6913190450,,-4.0501732,0
5.3313998,Offoumou Yapo,node/6913190451,,-4.0519957,0
5.3337753,La Poste,node/6913190452,,-4.0550937,0
5.3369773,Pharmacie Sacré-cœur,node/6913190453,,-4.055093,0
5.3401473,Pharmacie Béatitude,node/6913190454,,-4.058547,0
5.3407362,Nouveau quartier,node/6913190455,,-4.0608235,0
5.3466167,Ex Chaine Avion Rue Princesse,node/6913190456,,-4.0650474,0
5.3447353,Newton,node/6913190457,,-4.0678006,0
5.3395304,Marche Sicogi,node/6913190458,,-4.0745628,0
5.3379928,Patisserie,node/6913190459,,-4.0751928,0
5.3372574,Pharmacie du Marché,node/6913190460,,-4.0770331,0
5.3372711,Terrain Sogefiha,node/6913190461,,-4.0806585,0
5.3335416,Antenne,node/6913201897,,-4.0733126,0
5.3290163,Cabine Bleue,node/6913201898,,-4.0757574,0
5.3243327,Akadjoba,node/6913201899,,-4.0799806,0
5.3239194,Saint Pierre,node/6913201900,,-4.0871836,0
5.3233739,EPP Niangon,node/6913201901,,-4.0925668,0
5.3197171,Arrêt,node/6913201902,,-4.0944323,0
5.3163701,Arrêt,node/6913201903,,-4.0947904,0
5.3152357,Arrêt Yop 38,node/6913201904,,-4.0928994,0
5.315995,Terminus 27,node/6913201907,,-4.0900334,0
5.3150643,Arrêt,node/6913201908,,-4.0934497,0
5.3172602,EPP SICOGI Niangon Sud,node/6913201909,,-4.0948509,0
5.3202551,Carrefour Marché,node/6913201910,,-4.0943199,0
5.3233885,EPP Niangon,node/6913201911,,-4.0926667,0
5.3240967,Saint Pierre,node/6913201912,,-4.0869619,0
5.3246783,Akadjoba,node/6913201913,,-4.0797426,0
5.3287702,Arrêt de bus,node/6913201914,,-4.0762905,0
5.3146172,Gare Sud,node/6913201915,,-4.0184952,0
5.3144986,Gare Sud,node/6913291219,,-4.0183564,0
5.329485,CNTG-BNETD,node/6913703797,,-3.9977011,0
5.3310059,UCAO,node/6913703798,,-3.9970399,0
5.3350719,Maison du PDCI-RDA,node/6913703799,,-3.9973538,0
5.3084936,Piscine d’État de Treichville,node/6913703800,,-3.9997195,0
5.3074734,NSIA,node/6913703801,,-3.990551,0
5.3086966,Gare Marcory,node/6913703802,,-3.9837714,0
5.3353656,Maison du Parti,node/6913703803,,-3.9975172,0
5.3310313,UCAO,node/6913703804,,-3.9969162,0
5.3293836,CNTG-BNETD,node/6913703805,,-3.9976804,0
5.3557108,Sable,node/6913857608,,-4.0658826,0
5.3407344,Complexe Sportif de Yopougon,node/6913857611,,-4.0646331,0
5.3424009,Mairie de Yopougon,node/6913857612,,-4.0665987,0
5.3443401,La Marine,node/6913929664,,-4.0375561,0
5.3278599,Sitarail,node/6913929665,,-4.0262003,0
5.3146272,Gare Sud,node/6913929666,,-4.0182404,0
5.3441859,La Marine,node/6913929668,,-4.0376761,0
5.3295615,Gare Yopougon Kouté,node/6913929669,,-4.0737128,0
5.3367091,Gendarmerie,node/6913931703,,-4.0216157,0
5.3369705,Gendarmerie,node/6913974340,,-4.0217222,0
5.400545,Soleil 2,node/6915341517,,-3.9728972,0
5.4035247,Arrêt,node/6915341518,,-3.9837323,0
5.4062326,Arrêt,node/6915341519,,-3.9906836,0
5.4297269,Arrêt,node/6915341520,,-3.9894234,0
5.4313416,Arrêt,node/6915341521,,-3.9891222,0
5.4564179,Abobo Biabou,node/6915341523,,-3.9725804,0
5.4564283,Abobo Biabou,node/6915341525,,-3.9726482,0
5.4454571,Arrêt,node/6915341526,,-3.978184,0
5.4430187,Arrêt,node/6915341527,,-3.9810371,0
5.441543,Arrêt,node/6915341528,,-3.9831075,0
5.4403681,Arrêt,node/6915341529,,-3.9847859,0
5.4391313,Arrêt,node/6915341530,,-3.9859783,0
5.4368688,Arrêt,node/6915341531,,-3.9875153,0
5.4356843,Arrêt,node/6915341532,,-3.987991,0
5.434457,Arrêt,node/6915341533,,-3.9883619,0
5.4327625,Arrêt,node/6915341534,,-3.9887503,0
5.4312302,Arrêt,node/6915341535,,-3.9889419,0
5.4293215,Arrêt,node/6915341536,,-3.9892581,0
5.4264243,Arrêt,node/6915341537,,-3.9896961,0
5.4229496,Arrêt,node/6915341538,,-3.9902515,0
5.4208149,Arrêt,node/6915341539,,-3.9905681,0
5.4195345,Arrêt,node/6915341540,,-3.9907254,0
5.4182159,Arrêt,node/6915341541,,-3.9909298,0
5.4158878,Arrêt,node/6915341542,,-3.9922122,0
5.4154923,Arrêt,node/6915341543,,-3.9928597,0
5.4148205,Arrêt,node/6915341544,,-3.9947036,0
5.4141247,Arrêt,node/6915341545,,-3.9952879,0
5.409531,Arrêt,node/6915341546,,-3.9932262,0
5.4050885,Petro Ivoire Angré,node/6915341547,,-3.990564,0
5.403643,Arrêt,node/6915341548,,-3.9829561,0
5.4033522,Arrêt,node/6915341549,,-3.9807645,0
5.3585446,9 Kilo,node/6915487638,,-3.96346,0
5.360974,Rond-Point de la Palmeraie,node/6915487639,,-3.9586683,0
5.3606149,Carrefour de la Gendarmerie,node/6915487640,,-3.9598948,0
5.3568703,Cap Nord,node/6915487641,,-3.9665508,0
5.3532599,Riviera 2,node/6915487642,,-3.9779824,0
5.3502292,École de Police,node/6915487643,,-3.9881887,0
5.3492233,École de la Gendarmerie,node/6915487644,,-3.9943092,0
5.3485522,Carrefour de la Vie,node/6915487645,,-4.0018322,0
5.4217637,Mairie d'ABOBO,node/6915647682,,-4.0185375,0
5.4270593,Arrêt,node/6915647683,,-4.0212736,0
5.4303911,Arrêt,node/6915647684,,-4.0241622,0
5.3587403,9 Kilo,node/6915696792,,-3.9635319,0
5.3596047,Chic Shop,node/6915696795,,-3.9620358,0
5.3574857,Cap Nord,node/6915696796,,-3.9657802,0
5.3504609,École de Police,node/6915696797,,-3.9881605,0
5.3494956,Carrefour CHU,node/6915696798,,-3.9916044,0
5.3493834,École de la Gendarmerie,node/6915696799,,-3.994457,0
5.3485982,Carrefour de la Vie,node/6915696800,,-4.0029649,0
5.4333404,Arrêt,node/6915722685,,-4.0266778,0
5.4390733,Anokoi,node/6915722686,,-4.0446977,0
5.4434752,PK 18 Agripac,node/6915722687,,-4.0485036,0
5.4482915,Arrêt,node/6915722688,,-4.0512502,0
5.4503535,Arrêt,node/6915722689,,-4.0529903,0
5.4565524,Arrêt,node/6915722690,,-4.0545715,0
5.4574448,Arrêt,node/6915722691,,-4.054497,0
5.465098,Arrêt,node/6915722692,,-4.0544278,0
5.4662168,Arrêt,node/6915722693,,-4.0540279,0
5.4680953,Arrêt,node/6915722694,,-4.0530974,0
5.4794949,Arrêt,node/6915722695,,-4.0538658,0
5.4828953,Arrêt,node/6915722696,,-4.0513358,0
5.4837187,Arrêt,node/6915722697,,-4.0513476,0
5.4866626,Arrêt,node/6915722698,,-4.05146,0
5.4890597,Arrêt,node/6915722699,,-4.0515593,0
5.4904279,Arrêt,node/6915722700,,-4.0516047,0
5.490915,Arrêt,node/6915722701,,-4.0516233,0
5.4914503,Arrêt,node/6915722702,,-4.051639,0
5.4928779,Arrêt,node/6915722703,,-4.0516636,0
5.4940805,Arrêt,node/6915722704,,-4.0517658,0
5.495095,Arrêt,node/6915722705,,-4.0517794,0
5.4960474,Arrêt,node/6915722706,,-4.0516644,0
5.4970767,Arrêt,node/6915722707,,-4.0515036,0
5.497669,Arrêt,node/6915722708,,-4.051438,0
5.4979794,Arrêt,node/6915722709,,-4.0513918,0
5.4995751,Arrêt,node/6915722710,,-4.0516497,0
5.500507,Arrêt,node/6915722711,,-4.0519247,0
5.5011338,Arrêt,node/6915722712,,-4.0520934,0
5.5015989,Arrêt,node/6915722713,,-4.0522125,0
5.5026911,Arrêt,node/6915722714,,-4.0525268,0
5.5045432,Arrêt,node/6915722715,,-4.0530594,0
5.5053444,Arrêt,node/6915722716,,-4.0532829,0
5.5064599,Mairie d'Anyama,node/6915722717,,-4.0531365,0
5.5064064,Mairie d'Anyama,node/6915722719,,-4.0530408,0
5.4976427,Arrêt,node/6915722720,,-4.0513828,0
5.5027177,Arrêt,node/6915722721,,-4.0523687,0
5.4994894,Arrêt,node/6915722722,,-4.0514357,0
5.4949787,Arrêt,node/6915722723,,-4.0516383,0
5.4888603,Arrêt,node/6915722724,,-4.051407,0
5.4863031,Arrêt,node/6915722725,,-4.0513417,0
5.4825896,Arrêt,node/6915722726,,-4.0512201,0
5.479955,Arrêt,node/6915722727,,-4.0531887,0
5.4757466,Arrêt A l'Ecole,node/6915722728,,-4.0552147,0
5.470731,Arrêt Contrôle,node/6915722729,,-4.0531044,0
5.4669354,Arrêt,node/6915722730,,-4.0534141,0
5.4611068,Arrêt Ancienne Gendarmerie,node/6915722731,,-4.053759,0
5.4526174,Arrêt,node/6915722732,,-4.0544875,0
5.4503748,Arrêt Ancien Marché,node/6915722733,,-4.0526523,0
5.4483606,Arrêt Terminus,node/6915722734,,-4.0510764,0
5.4449974,Arrêt Agripac,node/6915722735,,-4.0491425,0
5.4436482,Arrêt,node/6915722736,,-4.0484067,0
5.28758,Terminus dépôt SOTRA,node/6916152424,,-4.0057551,0
5.2890666,Pharmacie du Port,node/6916152425,,-4.0084018,0
5.2961604,Arrêt du CHU,node/6916152426,,-4.0033572,0
5.2991407,Gare de Bassam,node/6916152427,,-4.0024808,0
5.3478959,Arrêt,node/6916181080,,-4.0026565,0
5.3700062,Grande Pharmacie /Terminus 300FCFA,node/6916181081,,-3.9983308,0
5.4157357,Arrêt,node/6916280433,,-3.9930971,0
5.4149921,Terminus Abobo Baoulé,node/6916280434,,-3.9940399,0
5.4129627,Pharmacie Actuelle,node/6916280435,,-3.9948875,0
5.4103431,Arrêt,node/6916280436,,-3.9939447,0
5.4085794,Arrêt,node/6916280437,,-3.9923863,0
5.4071215,Saint Ambroise,node/6916280438,,-3.9910921,0
5.4055233,Arrêt,node/6916280439,,-3.990494,0
5.4011787,Arrêt,node/6916280440,,-3.9910264,0
5.3991513,Carrefour 22ème,node/6916280441,,-3.9912618,0
5.3973362,SODECI,node/6916280442,,-3.991524,0
5.3945043,Paris Baguette,node/6916280443,,-3.9918311,0
5.3875127,Arrêt,node/6916280444,,-3.9927256,0
5.3797969,Arrêt,node/6916280445,,-3.9952144,0
5.3737207,NSIA,node/6916280446,,-3.9983542,0
5.3700155,SGBGI,node/6916280447,,-3.9981216,0
5.3465781,Cité BAD,node/6916280448,,-4.002571,0
5.3386878,CIE,node/6916280449,,-4.0035403,0
5.3065218,Commissariat du 9 ème,node/6917146061,,-3.9865047,0
5.3061086,Commissariat du 9 ème,node/6917146062,,-3.9857063,0
5.3034179,King Cash,node/6917146063,,-3.9807831,0
5.3015677,Cabinet Médical du 3ème pont,node/6917146064,,-3.9776047,0
5.3005869,Marché de Marcory,node/6917146065,,-3.9757915,0
5.2986259,Paroisse Sainte Bernadette,node/6917146066,,-3.9722389,0
5.2982013,Pharmacie Bagoué,node/6917146067,,-3.9714765,0
5.2968312,Bank of Africa,node/6917146068,,-3.9688084,0
5.2965895,Arrêt,node/6917146069,,-3.9650103,0
5.2975636,Arrêt,node/6917146070,,-3.9608221,0
5.2983628,Place Inchallah,node/6917146071,,-3.9572333,0
5.299281,Koumassi Prodomo,node/6917146072,,-3.9531506,0
5.3001329,Gare Mesano,node/6917146073,,-3.9494388,0
5.3008577,Koumassi Mesano,node/6917146074,,-3.9476752,0
5.3002935,Koumassi Mesano,node/6917146075,,-3.9483867,0
5.2998074,Station Petro Ivoire,node/6917146076,,-3.9505841,0
5.2989496,Place Inchallah,node/6917146077,,-3.9543702,0
5.2980163,Arrêt,node/6917146078,,-3.9585451,0
5.2972737,Arrêt,node/6917146079,,-3.9619419,0
5.2962808,Arrêt,node/6917146080,,-3.9660523,0
5.296728,Bank of Africa,node/6917146081,,-3.9687629,0
5.2980069,Pharmacie Bagoué,node/6917146082,,-3.9712863,0
5.3006211,Marché de Marcory,node/6917146083,,-3.9759814,0
5.3016585,Cabinet Médical du 3ème pont,node/6917146084,,-3.9778785,0
5.3044464,Arrêt,node/6917151685,,-3.9828404,0
5.3062161,Commissariat du 9 ème,node/6917151686,,-3.9860886,0
5.3077309,Arrêt,node/6917151687,,-3.988849,0
5.3084636,Yan Auto Ecole,node/6917151688,,-3.9904413,0
5.3106101,Gare Abobo-Doumé,node/6919194336,,-4.0352896,0
5.3270854,Cité Bracodi Rte Cité verte,node/6919312942,,-4.0923844,0
5.332209,Cité Verte,node/6919312943,,-4.1119954,0
5.3316148,Collège Sebaco,node/6919312945,,-4.109973,0
5.3306787,Cité Bracodi Rte Cité verte,node/6919312946,,-4.1058974,0
5.3296893,Banque BNI,node/6919312947,,-4.1035223,0
5.3284241,Le repère,node/6919312948,,-4.100539,0
5.3278005,Carrefour de Niangon,node/6919312949,,-4.0976201,0
5.3241547,Akadjoba,node/6919312950,,-4.0812954,0
5.3103655,Gare Abobo-Doumé,node/6919312951,,-4.0351267,0
5.322126,Le petit soleil,node/6919327587,,-4.053652,0
5.3235388,Blé Doré,node/6919327588,,-4.0573213,0
5.3241224,Marché Kouté,node/6919327589,,-4.0669544,0
5.3251706,Carrefour Kouté,node/6919327590,,-4.0710314,0
5.325455,Marejea,node/6919327591,,-4.0761933,0
5.3238646,Akadjoba,node/6919327593,,-4.0818366,0
5.3264405,Arrêt,node/6919327594,,-4.0914322,0
5.327729,Carrefour de Niangon,node/6919327595,,-4.0976496,0
5.3283566,Le repère,node/6919327596,,-4.1005786,0
5.3295851,Top Qualitée,node/6919327597,,-4.1035169,0
5.3307695,Cité Bracodi Rte Cité verte,node/6919327598,,-4.1063239,0
5.2982594,Arrêt,node/6919758025,,-3.9831407,0
5.2961308,Arrêt,node/6919758026,,-3.9792079,0
5.2945624,Arrêt,node/6919758027,,-3.9763809,0
5.293456,Arrêt,node/6919758028,,-3.9743974,0
5.2927669,Arrêt,node/6919758029,,-3.9712223,0
5.2932236,Arrêt,node/6919758030,,-3.9690283,0
5.2940469,Arrêt,node/6919758031,,-3.965347,0
5.2951953,Arrêt,node/6919758032,,-3.9603108,0
5.2961324,Arrêt,node/6919758033,,-3.9565101,0
5.297599,Sogefia,node/6919758034,,-3.9526269,0
5.2987064,Arrêt,node/6919758035,,-3.9478318,0
5.3015424,Station Petro Ivoire,node/6919758036,,-3.9469644,0
5.3043266,Arrêt,node/6919758037,,-3.9453759,0
5.3080062,Bon Samaritain,node/6919758038,,-3.946713,0
5.3099762,Pharmacie Fanny,node/6919758039,,-3.9473403,0
5.3109106,Patisserie MC,node/6919758040,,-3.9466942,0
5.311165,Terminus 05 Lycée Municipal de Koumassi,node/6919758041,,-3.9450346,0
5.3023303,"Avenue 19, Rue 12, Treichville",node/6924851825,,-4.0106387,0
5.3047639,FIESTA,node/6924851826,,-4.0115547,0
5.3028704,Treichville Entente,node/6924851828,,-4.0006757,0
5.3015791,Nostalgie,node/6924851829,,-4.0016802,0
5.300882,Banque Bicici,node/6924851830,,-4.003555,0
5.2999593,[Arret sans nom],node/6924851831,,-4.0062869,0
5.3586294,Gare Nord,node/6924851833,,-4.0277536,0
5.3025272,"Avenue 19, Rue 12, Treichville",node/6924979791,,-4.0106307,0
5.3029946,Pharmacie de l'Avenue 27,node/6924979792,,-4.0062426,0
5.3032777,Treichville Entente,node/6924979794,,-4.0008245,0
5.3296238,[Arret sans nom],node/6926746685,,-4.0208888,0
5.3309876,Cité Administrative,node/6926746686,,-4.0236032,0
5.3149603,Terminus Gare Sud,node/6926746688,,-4.018979,0
5.3018048,Station Total,node/6926746689,,-4.0096436,0
5.4538834,Arrêt,node/6926746749,,-3.9737989,0
5.4385456,Arrêt,node/6926746750,,-3.9864522,0
5.4222388,Arrêt,node/6926746751,,-3.9903197,0
5.4154549,Arrêt,node/6926746752,,-3.9996626,0
5.4154484,Arrêt,node/6926746753,,-4.0016378,0
5.4155231,Arrêt,node/6926746754,,-4.0054049,0
5.4152696,Samaké,node/6926746755,,-4.0071858,0
5.3590439,Gare Nord,node/6926746757,,-4.0280449,0
5.4155963,Arrêt,node/6926746758,,-4.0019605,0
5.4156232,Arrêt,node/6926746759,,-3.9928882,0
5.4196603,Sotra,node/6926746760,,-3.9908193,0
5.422222,Arrêt,node/6926746761,,-3.9904401,0
5.426491,Arrêt,node/6926746762,,-3.9898022,0
5.43368,Arrêt,node/6926746763,,-3.9886816,0
5.4374054,Arrêt,node/6926746764,,-3.9873449,0
5.4402786,Arrêt,node/6926746765,,-3.9850082,0
5.443381,Arrêt,node/6926746766,,-3.9807703,0
5.4451883,Arrêt,node/6926746767,,-3.9785569,0
5.3079127,Bon Samaritain,node/6926943107,,-3.946597,0
5.3050831,Pharmacie Campement,node/6926943108,,-3.9451392,0
5.3011838,Hôpital Général de Marcory,node/6926943109,,-3.9835873,0
5.3034579,Pharmacie Notre-Dame,node/6926943110,,-4.0046641,0
5.3146776,Gare Sud,node/6926943111,,-4.0185633,0
5.3311928,Cité Administrative,node/6926943112,,-4.0236086,0
5.3051694,[Arret sans nom],node/6927022357,,-3.9840318,0
5.4159386,Arrêt,node/6927037611,,-3.9930649,0
5.408251,Arrêt,node/6927037612,,-4.0063405,0
5.4057129,Arrêt,node/6927037613,,-4.0063848,0
5.4013897,Arrêt,node/6927037614,,-4.0064518,0
5.3930717,Arrêt,node/6927037615,,-4.0057893,0
5.3875774,Arrêt,node/6927037616,,-4.0056726,0
5.3801858,Arrêt,node/6927037617,,-4.0066168,0
5.3625903,Arrêt,node/6927037618,,-4.0168427,0
5.3503578,Pharmacie le Belier,node/6927037619,,-4.0169801,0
5.3456673,Fraternité Matin,node/6927037620,,-4.0178358,0
5.3411247,Arrêt,node/6927037621,,-4.0237561,0
5.3372751,Arrêt,node/6927037622,,-4.0237963,0
5.3339228,Arrêt,node/6927037623,,-4.0238252,0
5.3310139,Cité Administrative,node/6927037625,,-4.0238251,0
5.3339515,Arrêt,node/6927037626,,-4.0238861,0
5.3377117,Ministère de la défense,node/6927037627,,-4.0238741,0
5.3557539,Arrêt,node/6927037628,,-4.0161668,0
5.379605,Arrêt,node/6927037629,,-4.0068716,0
5.386285,Arrêt,node/6927037630,,-4.0059958,0
5.4018603,Arrêt,node/6927037631,,-4.0065437,0
5.4158855,Abobo Belleville,node/6927037633,,-3.9933257,0
5.3434193,Arrêt,node/6927327302,,-4.0125125,0
5.346265,Arrêt,node/6927327303,,-4.0103402,0
5.3494085,Arrêt,node/6927327304,,-4.0088409,0
5.3529759,Arrêt,node/6927327305,,-4.0044479,0
5.4043844,Arrêt,node/6927327306,,-3.989773,0
5.4048944,Arrêt,node/6927327307,,-3.9851483,0
5.4082838,Arrêt,node/6927327308,,-3.9867901,0
5.407261,Arrêt,node/6927327309,,-3.9890592,0
5.3528041,Arrêt,node/6927327310,,-4.0043218,0
5.3493597,Arrêt,node/6927327311,,-4.0085859,0
5.3461658,Arrêt,node/6927327312,,-4.0102683,0
5.3433536,Polyclinique,node/6927327313,,-4.0124663,0
5.3147983,Gare Sud,node/6927327314,,-4.0186967,0
5.3022414,Campement,node/6927330411,,-3.9464354,0
5.3120389,Terminus 05 Lycée Municipal de Koumassi,node/6927330412,,-3.9450815,0
5.3099838,Pharmacie Fanny,node/6927330413,,-3.9472561,0
5.3362229,Arrêt,node/6927330414,,-4.0047298,0
5.3462362,Gare Campus Cocody,node/6927330416,,-3.9938503,0
5.3463523,INSAAC,node/6927544633,,-3.9972169,0
5.3359628,Saint Jean,node/6927544634,,-4.0030417,0
5.3358129,Saint Jean,node/6927544636,,-4.0029552,0
5.3482687,Gendarmerie,node/6927544637,,-3.9970998,0
5.3536864,Arrêt,node/6927600976,,-4.0175371,0
5.3567305,Mirador,node/6927600977,,-4.0250561,0
5.3566458,Arrêt SICOGI,node/6927631763,,-4.0241115,0
5.3592856,Gare Nord,node/6927694921,,-4.0275494,0
5.3470894,Arrêt,node/6927701716,,-3.9971908,0
5.3534453,Terminus Riviera 2,node/6928179123,,-3.9700449,0
5.3533983,Cité étudiante Riviera 2,node/6928179124,,-3.9736351,0
5.3525929,Riviera 2,node/6928179125,,-3.9780678,0
5.3512739,Petite Mosquée Riviéra Jardin,node/6928179126,,-3.9805625,0
5.3516026,Petite Mosquée Riviéra Jardin,node/6928250859,,-3.9803499,0
5.3526374,Riviera 2,node/6928250860,,-3.9781867,0
5.3530707,Arrêt,node/6928250861,,-3.9761267,0
5.3534857,Terminus Riviera 2,node/6928250862,,-3.9702004,0
5.2563753,Terminus Vridi-Iran,node/6928681599,,-3.9975737,0
5.2947326,Arrêt Cuirasse Ciment,node/6928681601,,-4.0101948,0
5.3588804,Gare Nord,node/6928681602,,-4.0279685,0
5.3050571,Terminus 32,node/6928704112,,-4.0228924,0
5.3002851,[Arret sans nom],node/6928704113,,-4.0170398,0
5.29778,"Etablissements Rey, Port",node/6928704114,,-4.0140854,0
5.264595,Arrêt Bolloré logistique,node/6928704115,,-3.9995223,0
5.2562337,Terminus Vridi-Iran,node/6928704117,,-3.9975522,0
5.3143818,Gare Sud,node/6929796960,,-4.0182207,0
5.314962,Terminus Gare Sud,node/6929849943,,-4.0189046,0
5.3078566,Arrêt,node/6930487819,,-3.9888954,0
5.3612016,Station Corlay Bingerville,node/6930917942,,-3.8943455,0
5.3618466,Après barrage,node/6930917943,,-3.9581935,0
5.364055,Dalia,node/6930917944,,-3.9537437,0
5.3653603,Église Apostolique de Côte d'Ivoire,node/6930917945,,-3.9497378,0
5.3673945,Camp Militaire d'Akouédo,node/6930917946,,-3.94563,0
5.370105,Carrefour Faya,node/6930917947,,-3.9389929,0
5.3712573,Résidence Genie 2000,node/6930917948,,-3.9347483,0
5.3725084,Optic 2000,node/6930917949,,-3.9301188,0
5.3741413,Jules Verne,node/6930917950,,-3.9237472,0
5.3718715,Pharmacie Saint Sylvestre,node/6930917951,,-3.9108525,0
5.3645064,Cité Hévéas,node/6930917952,,-3.9083956,0
5.3606115,Université de Cocody Pole Scientifique,node/6930917953,,-3.9031767,0
5.360275,CIE,node/6930917954,,-3.8979524,0
5.360916,[Arret sans nom],node/6930917955,,-3.8963887,0
5.3577634,Lycée Garçon de Bingerville,node/6930917956,,-3.8909747,0
5.3574363,Carrefour Marché,node/6930917957,,-3.8866322,0
5.3583363,Espace Orange,node/6930917958,,-3.8843503,0
5.360674,Hôpital Mère-Enfant de Bingerville,node/6930917959,,-3.8841063,0
5.3573589,Carrefour Marché,node/6930917961,,-3.886655,0
5.3576746,Lycée Garçon de Bingerville,node/6930917962,,-3.8908299,0
5.3601255,CIE,node/6930917963,,-3.8980114,0
5.360215,Université de Cocody Pole Scientifique,node/6930917964,,-3.9020951,0
5.3643261,Cité Hévéas,node/6930917965,,-3.9084667,0
5.368265,Cité Marina,node/6930917966,,-3.9097783,0
5.3714883,Arrêt,node/6930917967,,-3.9108391,0
5.3740098,Jules Verne,node/6930917968,,-3.9233838,0
5.3716378,Coris Bank,node/6930917969,,-3.9324215,0
5.3701704,Arrêt,node/6930917970,,-3.9379911,0
5.3671088,Camp Militaire d'Akouédo,node/6930917971,,-3.9456984,0
5.3640882,Arrêt,node/6930917972,,-3.9528454,0
5.3617224,Après barrage,node/6930917973,,-3.9579964,0
5.2993777,Arrêt,node/6931151021,,-3.94723,0
5.2975523,Sogefia,node/6931151022,,-3.9523798,0
5.2958991,Arrêt,node/6931151023,,-3.9571428,0
5.2952895,Pharmacie Saint François,node/6931151024,,-3.9596352,0
5.2941237,Grande Pharmacie Iroko,node/6931151025,,-3.9646348,0
5.2929966,Arrêt,node/6931151026,,-3.9695299,0
5.2924858,Pharmacie Du Boulevard Du Gabon,node/6931151027,,-3.971683,0
5.2940696,Polyclinique La Madone,node/6931151028,,-3.9757097,0
5.2965781,Arrêt,node/6931151029,,-3.9801776,0
5.298031,Arrêt,node/6931151030,,-3.9828604,0
5.3590066,Gare Nord,node/6931151031,,-4.027668,0
5.2873212,Koumassi Sicogi - Dépôt SOTRA,node/6931273195,,-3.9540428,0
5.2849829,[Arret sans nom],node/6931273196,,-3.964256,0
5.2875055,[Arret sans nom],node/6931273197,,-3.9651793,0
5.2873493,Arrêt,node/6931273198,,-3.9684516,0
5.2883388,[Arret sans nom],node/6931273199,,-3.9694119,0
5.293018,Sicomex,node/6931273200,,-3.9762314,0
5.3148159,Gare Sud,node/6931273203,,-4.0184375,0
5.3074119,Pharmacie du Rond-point,node/6931792543,,-4.0117713,0
5.3090558,[Arret sans nom],node/6931792544,,-4.0071049,0
5.2889971,Centre Commercial Koumassi,node/6931792545,,-3.9672808,0
5.2839293,Arrêt,node/6931792546,,-3.9622262,0
5.2847439,Pharmacie Bethanie,node/6931792547,,-3.9586401,0
5.2857761,Arrêt,node/6931792548,,-3.9543311,0
5.2884523,Koumassi Sicogi - Dépôt SOTRA,node/6931792550,,-3.9538698,0
5.2870688,Grand Carrefour de Koumassi,node/6931985671,,-3.970533,0
5.2985627,Ivosep Treichville,node/6931985672,,-4.001299,0
5.3266769,Arrêt,node/6932152400,,-4.060057,0
5.3250076,Ghandi,node/6932152402,,-4.0598402,0
5.3253408,Ghandi,node/6932152404,,-4.0599193,0
5.3600658,Arrêt,node/6932152405,,-4.0669167,0
5.314853,Gare Sud,node/6932152407,,-4.0182858,0
5.3286224,CIAD,node/6932239010,,-3.9502595,0
5.3291271,Arrêt,node/6932239011,,-3.951901,0
5.338314,Arrêt,node/6932239012,,-3.9522216,0
5.3443655,Carrefour Mel Theodore,node/6932239013,,-3.9526011,0
5.348653,Pharmacie Riviera III,node/6932239014,,-3.9535043,0
5.3509724,Collège l'Ardoise,node/6932239015,,-3.9545015,0
5.3550168,Arrêt,node/6932239016,,-3.9606719,0
5.3569209,Arrêt,node/6932239017,,-3.9637336,0
5.3149333,Gare Sud,node/6932239019,,-4.0185761,0
5.4127978,Angré Château,node/6932253478,,-3.9808642,0
5.4102497,Arrêt,node/6932253479,,-3.984559,0
5.3866094,Arrêt,node/6932253480,,-3.9930569,0
5.4076842,Arrêt,node/6932253481,,-3.9885655,0
5.4128518,Angré Château,node/6932253483,,-3.9809279,0
5.3569409,Arrêt,node/6932323632,,-3.9635029,0
5.3517214,Collège Ardoise,node/6932323633,,-3.9543647,0
5.3485048,Pharmacie Riviera III,node/6932323634,,-3.9531872,0
5.3446873,Carrefour Mel Theodore,node/6932323635,,-3.9524998,0
5.3284521,École libanaise Al Ghadir,node/6932323636,,-3.9448656,0
5.3228845,Terminus Yopougon Camp Militaire,node/6933043352,,-4.0617429,0
5.3245991,Ghandi,node/6933043354,,-4.0599163,0
5.3278586,Arrêt,node/6933043355,,-4.0607049,0
5.3300685,Arrêt,node/6933043356,,-4.0581514,0
5.3314439,[Arret sans nom],node/6933043357,,-4.0559573,0
5.3145591,Gare Sud,node/6933043359,,-4.018425,0
5.3283246,Arrêt,node/6933080250,,-3.9428298,0
5.3282992,École libanaise Al Ghadir,node/6933080251,,-3.9447637,0
5.3283286,Arrêt,node/6933080252,,-3.9460498,0
5.328364,Pharmacie M'pouto,node/6933080253,,-3.9479502,0
5.3380122,Beverly,node/6933080254,,-3.9527768,0
5.3311481,Carrefour Sol Béni,node/6933080255,,-3.9578046,0
5.329493,Arrêt,node/6933080256,,-3.980421,0
5.3353723,SIB,node/6933080257,,-3.9996752,0
5.3284154,Mosquée Cité Eden,node/6933080258,,-3.9401878,0
5.3283646,Mosquée Cité Eden,node/6933080260,,-3.9401855,0
5.3461454,Arrêt,node/6933080262,,-4.0026096,0
5.3391939,Mosquée Golf,node/6933080263,,-3.9789297,0
5.3325809,Arrêt,node/6933080264,,-3.9812806,0
5.3297881,Arrêt,node/6933080265,,-3.9790913,0
5.3380134,Beverly,node/6933080266,,-3.9529652,0
5.3312516,[Arret sans nom],node/6933128807,,-4.0560298,0
5.3299817,Arrêt,node/6933128808,,-4.0580978,0
5.3222556,Terminus Yopougon Camp Militaire,node/6933128810,,-4.0623571,0
5.3017767,Station Total,node/6933231056,,-4.0094478,0
5.3029158,Pharmacie de l'Avenue 27,node/6933231057,,-4.0061849,0
5.3589712,Gare Nord,node/6933291484,,-4.0272913,0
5.3591995,Gare Nord,node/6933302185,,-4.0277539,0
5.4266332,Arrêt,node/6934648710,,-4.0210558,0
5.4438112,Arrêt,node/6934648711,,-4.0538116,0
5.4435976,Arrêt,node/6934648712,,-4.0603428,0
5.4434975,Arrêt,node/6934648713,,-4.0647738,0
5.4433733,Arrêt,node/6934648714,,-4.0679455,0
5.442806,Arrêt,node/6934648715,,-4.0693985,0
5.4392747,Arrêt,node/6934648716,,-4.0686147,0
5.4321434,Arrêt,node/6934648717,,-4.068663,0
5.428223,Arrêt,node/6934648718,,-4.0699659,0
5.413004,Arrêt,node/6934648719,,-4.0783779,0
5.4036687,Arrêt,node/6934648720,,-4.0834808,0
5.4009224,Arrêt,node/6934648721,,-4.0842761,0
5.3935763,Arrêt,node/6934648722,,-4.0810159,0
5.3892384,Arrêt,node/6934648723,,-4.078453,0
5.3836466,Arrêt,node/6934648724,,-4.0757427,0
5.3747704,Arrêt,node/6934648725,,-4.0773951,0
5.3762544,Arrêt,node/6934648726,,-4.0820444,0
5.3838941,Arrêt,node/6934648728,,-4.0759718,0
5.389032,Arrêt,node/6934648729,,-4.0784458,0
5.3928929,Arrêt,node/6934648730,,-4.0806236,0
5.4014804,Arrêt,node/6934648731,,-4.0842976,0
5.4130749,Arrêt,node/6934648732,,-4.0784144,0
5.4279813,Arrêt,node/6934648733,,-4.070195,0
5.4326393,Arrêt,node/6934648734,,-4.0686617,0
5.4427909,Arrêt,node/6934648735,,-4.069498,0
5.4435987,Arrêt,node/6934648736,,-4.0650186,0
5.4437261,Arrêt,node/6934648737,,-4.0602688,0
5.4438909,Arrêt,node/6934648738,,-4.0536714,0
5.4432611,Arrêt,node/6934648739,,-4.0481434,0
5.4392603,Arrêt,node/6934648740,,-4.0438735,0
5.3480962,220 logements,node/6934657650,,-4.0169741,0
5.2690497,Carrefour Akwaba,node/6934657651,,-3.9618933,0
5.2629137,Hôpital de Port-Bouët,node/6934657652,,-3.9633662,0
5.2574343,Nouveau Marché Port-Bouët,node/6934657653,,-3.9637684,0
5.2567198,Océan Espadon,node/6934657654,,-3.961553,0
5.2542438,Église Méthodiste Unie Port-Bouët,node/6934657655,,-3.9621216,0
5.2530566,Wharf Port-Bouët,node/6934657656,,-3.9607128,0
5.2510654,Terminus Port-Bouët Phare,node/6934657657,,-3.9560196,0
5.400118,Arrêt,node/6934749721,,-4.0201934,0
5.3970398,Centre Commercial du Dokui,node/6934798183,,-4.0027148,0
5.3997114,Sainte Monique,node/6934798184,,-4.0014133,0
5.3994163,Superette Akwaba,node/6934815685,,-3.9960703,0
5.3979557,22ème,node/6934815686,,-3.9916306,0
5.3992227,Superette Akwaba,node/6934815687,,-3.9959845,0
5.3994417,Pharmacie Sainte Monique,node/6934815688,,-3.9972693,0
5.3997942,Station Petro Ivoire,node/6934815689,,-4.0008152,0
5.3994657,Sainte Monique,node/6934815690,,-4.0013301,0
5.3970104,Centre Commercial du Dokui,node/6934815692,,-4.0026122,0
5.3221354,Yopougon Kowëit,node/6934872150,,-4.0506908,0
5.3218817,Sideci Matignon,node/6934872151,,-4.0802555,0
5.4604925,Abobo Akeikoi Village,node/6934922723,,-4.0109827,0
5.4554315,Destin,node/6934922724,,-4.0111108,0
5.4531085,André Bar,node/6934922725,,-4.0126598,0
5.4493063,Arrêt,node/6934922726,,-4.0136415,0
5.4446991,Arrêt,node/6934922727,,-4.0143429,0
5.4400103,Arrêt,node/6934922728,,-4.0141618,0
5.4327535,Arrêt,node/6934922731,,-4.0137548,0
5.4336247,Arrêt,node/6934922732,,-4.0124023,0
5.4393221,Arrêt,node/6934922733,,-4.0143033,0
5.4445716,Arrêt,node/6934922734,,-4.0145279,0
5.4493357,Arrêt,node/6934922735,,-4.0137662,0
5.4531566,André Bar,node/6934922736,,-4.0127617,0
5.4554448,Destin,node/6934922737,,-4.0112489,0
5.4604068,Abobo Akeikoi Village,node/6934922738,,-4.0110518,0
5.3102833,Gare Abobo-Doumé,node/6934970640,,-4.0352396,0
5.4306528,Arrêt,node/6935113685,,-4.0240914,0
5.3314011,Cité Administrative,node/6935113687,,-4.0236072,0
5.3591731,Gare Nord,node/6935117220,,-4.0273828,0
5.3610508,Woodin,node/6935117222,,-3.9897309,0
5.3653222,[Arret sans nom],node/6935117223,,-3.9897537,0
5.3685842,NSIA Banque,node/6935117224,,-3.9898489,0
5.372732,Leader Price,node/6935117225,,-3.9904759,0
5.3770534,Carrefour Sainte Cécile - Terminus 35,node/6935117227,,-3.9926612,0
5.3771843,Carrefour Sainte Cécile - Terminus 35,node/6935251104,,-3.9926425,0
5.3742722,Sococé Vallon,node/6935251105,,-3.9904471,0
5.3686002,NSIA Banque,node/6935251106,,-3.9897873,0
5.364963,[Arret sans nom],node/6935251107,,-3.9897014,0
5.3606736,Woodin,node/6935251108,,-3.9896753,0
5.3576192,Versus Bank,node/6935251109,,-3.9907542,0
5.3522302,École de Police,node/6935251110,,-3.9912866,0
5.3387479,Mermoz,node/6935251111,,-3.99993,0
5.3591581,Gare Nord,node/6935251112,,-4.0278565,0
5.2627714,Groupe Scolaire Kouamé Konan,node/6935274791,,-3.9831166,0
5.2569108,Groupe Scolaire Petit Bassam,node/6935274792,,-3.9774759,0
5.2576259,Arrêt,node/6935274793,,-3.9696513,0
5.2585828,Marché,node/6935274794,,-3.965703,0
5.2568159,Pharmacie Océan,node/6935274796,,-3.9608596,0
5.256199,Lycée Moderne de Port-Bouët,node/6935274797,,-3.9581761,0
5.2658583,Carrefour Akwaba,node/6935274798,,-3.9610527,0
5.2758153,Digue de Koumassi,node/6935274799,,-3.9661886,0
5.2813533,CIE Bia Sud,node/6935274800,,-3.9692871,0
5.2900094,Arrêt,node/6935274801,,-3.962945,0
5.2907532,Arrêt,node/6935274802,,-3.9596587,0
5.294113,Gare Koumassi,node/6935274803,,-3.9555147,0
5.298266,Pharmacie Regina,node/6935274804,,-3.9498116,0
5.2982253,Pharmacie Regina,node/6935274805,,-3.9495504,0
5.2909815,Ajavon,node/6935274806,,-3.9582726,0
5.2902818,Foyer des Jeunes,node/6935274807,,-3.9612938,0
5.2889304,Centre Commercial Koumassi,node/6935274808,,-3.9668678,0
5.2768282,Carrefour Ancien Koumassi,node/6935274809,,-3.9667035,0
5.2576733,43ème Bima,node/6935274810,,-3.9577992,0
5.2560567,Lycée Moderne de Port-Bouët,node/6935274811,,-3.9579253,0
5.2574824,Nouveau Marché Port-Bouët,node/6935274812,,-3.9642432,0
5.2584759,District de Port-Bouet,node/6935274813,,-3.965754,0
5.2576319,Arrêt,node/6935274814,,-3.9693877,0
5.2572754,Arrêt,node/6935274815,,-3.9790309,0
5.2569161,Stade de la SIR,node/6935274816,,-3.9893487,0
5.3852315,Arrêt,node/6935401276,,-4.006142,0
5.3852595,Arrêt,node/6935401277,,-4.0060079,0
5.3984537,Arrêt,node/6935401278,,-4.0064532,0
5.4022949,Arrêt,node/6935401279,,-4.0064304,0
5.4087036,Arrêt,node/6935401280,,-4.0063405,0
5.4109493,Arrêt,node/6935401281,,-4.0062828,0
5.4143906,Arrêt,node/6935401282,,-4.0062493,0
5.420498,Arrêt,node/6935401283,,-4.0170009,0
5.4189547,Arrêt,node/6935401284,,-4.0141176,0
5.4179854,Arrêt,node/6935407385,,-4.0123071,0
5.4164927,Arrêt,node/6935407386,,-4.0094626,0
5.2983706,"Parc des Sports, Boulevard Valéry Giscard d'Estaing",node/6935488165,,-4.0041834,0
5.2470403,Carrefour Aéroport,node/6935488166,,-3.9445075,0
5.2446806,Arrêt,node/6935488167,,-3.9295542,0
5.2440381,Arrêt,node/6935488168,,-3.925598,0
5.2434545,Arrêt,node/6935488169,,-3.922044,0
5.2426599,Casier,node/6935488170,,-3.9170243,0
5.2417851,Arrêt,node/6935488171,,-3.9115848,0
5.2407648,Mosquée,node/6935488172,,-3.9051327,0
5.260825,Arrêt,node/6935494486,,-3.9593026,0
5.2976825,Avenue de la Côte d'Ivoire / Boulevard V.G.E.,node/6935494487,,-3.984569,0
5.2402774,Terminus Gonzagueville,node/6935494488,,-3.9005903,0
5.2405691,Mosquée,node/6935494499,,-3.9050053,0
5.2414058,Arrêt,node/6935494500,,-3.9104489,0
5.2422365,Arrêt,node/6935494501,,-3.9156765,0
5.243186,Arrêt,node/6935494502,,-3.9216458,0
5.2437256,Arrêt,node/6935494503,,-3.9251152,0
5.2444775,Arrêt,node/6935494504,,-3.9298091,0
5.2456701,Arrêt,node/6935494505,,-3.9372025,0
5.2467051,Arrêt,node/6935494506,,-3.94366,0
5.2492829,Arrêt,node/6935494507,,-3.9541537,0
5.2573475,43ème Bima,node/6935494508,,-3.9579213,0
5.299118,Palais des Sports,node/6935494509,,-4.0065188,0
5.3101948,Avenue Christiani,node/6935494511,,-4.0149692,0
5.3002327,Arrêt,node/6937770645,,-4.0082087,0
5.2618319,Arrêt,node/6937770646,,-3.9594314,0
5.2467278,33é Arrondissement,node/6937770647,,-3.9424717,0
5.2400864,Terminus Gonzagueville,node/6937770648,,-3.9007735,0
5.2395482,Corridor,node/6937770649,,-3.8973275,0
5.2389973,Carrefour Chien,node/6937770650,,-3.893671,0
5.2375957,Pharmacie Bénediction,node/6937770652,,-3.8845293,0
5.2369286,Terminus Anani,node/6937770653,,-3.8802069,0
5.2368898,Terminus Anani,node/6937770654,,-3.8798529,0
5.2369172,Anani - Rond-point,node/6937770655,,-3.8749894,0
5.2372444,Arrêt,node/6937770656,,-3.8833565,0
5.2380744,Collège privé les Cartésiens d'Abidjan,node/6937770657,,-3.888965,0
5.2386868,Carrefour Chien,node/6937770658,,-3.8928086,0
5.2391862,Corridor,node/6937770659,,-3.8962466,0
5.2399789,Terminus Gonzagueville,node/6937770660,,-3.9013763,0
5.256211,Arrêt,node/6937789671,,-3.9649889,0
5.4354794,Gare Abobo Sogephia,node/6938095648,,-4.01522,0
5.4251869,Arrêt,node/6938222040,,-4.0222809,0
5.4191963,Arrêt,node/6938222041,,-4.0239143,0
5.4148659,Arrêt,node/6938222042,,-4.0240283,0
5.4147991,Arrêt,node/6938222043,,-4.0292727,0
5.5005578,Ebimpé Village,node/6938324861,,-4.0807772,0
5.5031942,Arrêt,node/6938324862,,-4.0807946,0
5.5033771,Arrêt,node/6938324863,,-4.0801696,0
5.5031182,Arrêt,node/6938324864,,-4.0769751,0
5.5007033,Arrêt,node/6938324865,,-4.0770207,0
5.5002134,Arrêt,node/6938324866,,-4.0762322,0
5.5002334,Arrêt,node/6938324867,,-4.07344,0
5.5000185,Arrêt,node/6938324868,,-4.0699397,0
5.4982283,Arrêt,node/6938324869,,-4.066591,0
5.4912933,Arrêt,node/6938324870,,-4.0678543,0
5.4869787,Arrêt,node/6938324871,,-4.0690076,0
5.4842033,Arrêt,node/6938324872,,-4.0697157,0
5.4791892,Arrêt,node/6938324873,,-4.0709844,0
5.4769371,Arrêt,node/6938324874,,-4.0715718,0
5.4724328,Arrêt,node/6938324875,,-4.072693,0
5.4679499,Arrêt,node/6938324876,,-4.0737471,0
5.4644949,Arrêt,node/6938324877,,-4.0739322,0
5.4606874,Arrêt,node/6938324878,,-4.0733501,0
5.4565342,Arrêt,node/6938324879,,-4.0724757,0
5.4517454,Arrêt,node/6938324880,,-4.0713693,0
5.4485133,Arrêt,node/6938324881,,-4.0706693,0
5.4441757,Arrêt,node/6938324882,,-4.0696567,0
5.4435135,Arrêt,node/6938324883,,-4.0681963,0
5.443862,Arrêt,node/6938324884,,-4.056062,0
5.4440736,Agripac,node/6938343085,,-4.0494295,0
5.2608437,Hotel Communal Port-Bouët,node/6938407500,,-3.9639542,0
5.2629757,Hôpital Géneral de Port-Bouët,node/6938407501,,-3.9635653,0
5.293872,Arrêt,node/6938407503,,-3.9564407,0
5.2382227,Collège privé les Cartésiens d'Abidjan,node/6938407504,,-3.8886204,0
5.3640511,Farandole,node/6938756997,,-3.9975952,0
5.4036801,Arrêt,node/6938792077,,-3.9845087,0
5.3829263,Arrêt,node/6938792078,,-3.993252,0
5.3147389,Gare Sud,node/6938792079,,-4.0186301,0
5.3010837,Arrêt,node/6939014886,,-3.9887345,0
5.3023803,Pharmacie Sainte Aghate,node/6939014887,,-3.9663789,0
5.3029659,Terminus Remblais 03,node/6939014888,,-3.9640502,0
5.302855,Terminus Remblais 03,node/6939014890,,-3.9638825,0
5.3018088,Arrêt,node/6939014891,,-3.9684999,0
5.2984764,Arrêt,node/6939014892,,-3.9714879,0
5.3022895,Arrêt,node/6939014894,,-3.9848064,0
5.359076,Gare Nord,node/6939014895,,-4.0274686,0
5.2875728,Terminus dépôt SOTRA,node/6939076692,,-4.0059154,0
5.3314425,Sideci Pharmacie Lem,node/6944816371,,-4.0768933,0
5.3305385,Sideci Lem,node/6944816372,,-4.0798317,0
5.3270574,[Arret sans nom],node/6944816373,,-4.0813807,0
5.3246445,Akadjoba,node/6944816374,,-4.0806283,0
5.3310827,Cité Administrative,node/6944887181,,-4.0237293,0
5.4253525,Arrêt,node/6944887182,,-4.0220542,0
5.4193151,Arrêt,node/6944887183,,-4.0240122,0
5.4150828,Arrêt,node/6944887184,,-4.0241008,0
5.4148679,Arrêt,node/6944920985,,-4.0292533,0
5.4148038,Terminus bus 51/52,node/6944920986,,-4.0334697,0
5.3274379,Arrêt,node/6944934858,,-4.0817052,0
5.330154,Sideci Lem - Carrefour Sgbci,node/6944934859,,-4.080812,0
5.3314305,Sideci Pharmacie Lem,node/6944934860,,-4.0773064,0
5.3521541,École de Police,node/6945017053,,-3.99141,0
5.3569943,Arrêt,node/6945017054,,-3.9914516,0
5.2865574,Siège SOTRA,node/6945458783,,-4.0082677,0
5.2569502,Station Oilibya,node/6945659474,,-3.9722067,0
5.2566851,Arrêt,node/6945659475,,-3.9647529,0
5.2546846,Pharmacie Atlantique,node/6945659476,,-3.9643009,0
5.2511255,Port-Bouët Phare,node/6945659477,,-3.9565238,0
5.2531341,Vridi canal - Terminus 23,node/6945864857,,-4.0047848,0
5.2531701,Vridi canal - Terminus 23,node/6945864858,,-4.0046923,0
5.2657115,[Arret sans nom],node/6945864859,,-4.0087358,0
5.2957541,Arrêt du CHU,node/6945864860,,-4.0033337,0
5.260642,Ciprel,node/6945966271,,-4.0134249,0
5.2649101,[Arret sans nom],node/6945966272,,-4.0138507,0
5.265254,[Arret sans nom],node/6945966273,,-4.011446,0
5.2660346,[Arret sans nom],node/6945966274,,-4.0086137,0
5.2688363,[Arret sans nom],node/6945966275,,-4.0060763,0
5.3539352,Arrêt,node/6948222228,,-3.9581171,0
5.3417576,Arrêt,node/6948222230,,-3.9522725,0
5.3392567,Arrêt,node/6948222231,,-3.9521505,0
5.3384929,Arrêt,node/6948222232,,-3.952243,0
5.334941,Carrefour Ambassade de Chine,node/6948222233,,-3.943904,0
5.3392333,Antenne,node/6948222234,,-3.9452136,0
5.3385917,Akwaba,node/6948222235,,-3.9428439,0
5.3355172,Pharmacie,node/6948222236,,-3.9393644,0
5.3328633,Arrêt,node/6948222237,,-3.9368539,0
5.3307248,Centre de santé Municipal de M'Badon,node/6948222238,,-3.9348771,0
5.3286344,Teminus M'Badon,node/6948222239,,-3.9323347,0
5.3285142,Teminus M'Badon,node/6948270620,,-3.9322612,0
5.3305385,Centre de santé Municipal de M'Badon,node/6948270621,,-3.9347577,0
5.3357956,Pharmacie,node/6948270622,,-3.9397017,0
5.339027,Arrêt,node/6948270623,,-3.9451191,0
5.3329114,Ambassade de Chine,node/6948270624,,-3.9418454,0
5.3538285,Arrêt,node/6948270625,,-3.9568537,0
5.3327177,Arrêt,node/6948290580,,-3.9368337,0
5.3385823,Bureau Bad,node/6948290581,,-3.9429814,0
5.3350024,[Arret sans nom],node/6948290582,,-3.9438068,0
5.353946,Arrêt,node/6948466331,,-3.9767852,0
5.3560356,Arrêt,node/6948466332,,-3.9695473,0
5.3732347,Arrêt,node/6948466333,,-3.9273548,0
5.3744488,Arrêt,node/6948466334,,-3.9221262,0
5.3738883,Kessé,node/6948466335,,-3.9116914,0
5.3664705,Syndicat,node/6948466336,,-3.9090387,0
5.3613312,Station TEXACO,node/6948466337,,-3.8946091,0
5.357652,La Poste,node/6948466338,,-3.8895766,0
5.357433,Pharmacie du Marché,node/6948466339,,-3.8879555,0
5.3576379,Sous-Prefecture de Bingerville,node/6948466341,,-3.8903531,0
5.372677,Nouveau Goudron,node/6948466343,,-3.9285967,0
5.3455151,Pharmacie les 7 Colonnes,node/6948466345,,-4.0026914,0
5.3346312,Arrêt,node/6948695731,,-3.9906777,0
5.3396564,Arrêt,node/6948695732,,-3.9758237,0
5.3414919,Arrêt,node/6948695733,,-3.9761442,0
5.3438403,Arrêt,node/6948695734,,-3.9751571,0
5.3470921,Arrêt,node/6948695735,,-3.975412,0
5.3520693,Arrêt,node/6948695736,,-3.9767209,0
5.3530066,Arrêt,node/6948695738,,-3.9760919,0
5.35209,Arrêt,node/6948695739,,-3.9766203,0
5.3468223,Arrêt,node/6948695740,,-3.9752188,0
5.343802,Arrêt,node/6948695741,,-3.9750874,0
5.3416148,Arrêt,node/6948695742,,-3.9760651,0
5.3397193,Arrêt,node/6948695743,,-3.9757586,0
5.3385022,Arrêt,node/6948695744,,-3.9754911,0
5.3344937,Arrêt,node/6948695745,,-3.9902714,0
5.3349056,Arrêt,node/6948695746,,-3.9957176,0
5.321664,Warafa Assurance,node/6948706680,,-4.0157926,0
5.3184017,Arrêt Résidence Nabil,node/6948706681,,-4.0152582,0
5.3044274,[Arret sans nom],node/6948706682,,-4.0092923,0
5.2949249,Terminus CHU Treichville,node/6948791226,,-4.0042001,0
5.3565604,Arrêt,node/6948855820,,-3.9679608,0
5.3599399,Arrêt,node/6948855821,,-3.9614752,0
5.3717967,Cité Millenium,node/6948855822,,-3.9289306,0
5.3584311,Arrêt,node/6948855823,,-3.9253854,0
5.3556661,Arrêt,node/6948855824,,-3.9247158,0
5.3532496,Arrêt,node/6948855825,,-3.924163,0
5.3498507,Collège Jeune Filles,node/6948855826,,-3.9233825,0
5.3397928,Oribat Cité Don Mello,node/6948855827,,-3.9225573,0
5.3329467,Arrêt,node/6948855828,,-3.9226348,0
5.3282217,Arrêt,node/6948855829,,-3.9191627,0
5.3283086,Paroisse,node/6948855830,,-3.9169304,0
5.3267112,EPP Abatta,node/6948855831,,-3.9161199,0
5.3342136,Arrêt,node/6948920956,,-3.923136,0
5.3262131,Arrêt,node/6948920957,,-3.9158679,0
5.3267028,EPP Abatta,node/6948920958,,-3.9161935,0
5.3282218,Paroisse,node/6948920959,,-3.9169358,0
5.3329487,Arrêt,node/6948920960,,-3.9227374,0
5.3417243,Arrêt,node/6948920961,,-3.9220896,0
5.3443775,Arrêt,node/6948920962,,-3.9222706,0
5.3471041,Arrêt,node/6948920963,,-3.9228521,0
5.3532917,Arrêt,node/6948920964,,-3.9242797,0
5.3583733,Arrêt,node/6948920965,,-3.9254397,0
5.359984,Sodeci Abatta,node/6948920966,,-3.9258534,0
5.3722754,Nouveau Goudron,node/6948920967,,-3.9301027,0
5.2579604,Arrêt,node/6951127812,,-3.968976,0
5.2597086,Mairie Port-Bouët,node/6951127813,,-3.9654422,0
5.2595919,[Arret sans nom],node/6951127815,,-3.9687383,0
5.3145654,Gare Sud,node/6951127816,,-4.0181731,0
5.3373639,Arrêt,node/6951182059,,-3.9533649,0
5.3344449,Arrêt,node/6951182060,,-3.9559445,0
5.3308416,Arrêt,node/6951182061,,-3.9570247,0
5.3295658,Arrêt,node/6951182062,,-3.9531144,0
5.3296352,Arrêt,node/6951182064,,-3.9535137,0
5.330835,Arrêt,node/6951182065,,-3.9572031,0
5.3414479,Arrêt,node/6951182066,,-3.952412,0
5.2921887,Arrêt,node/6951224049,,-3.9630926,0
5.2898905,Commissariat de Police du 6ᵉ,node/6951224050,,-3.9693582,0
5.3586694,Gare Nord,node/6951224051,,-4.0276527,0
5.2941431,Gare Koumassi,node/6951939383,,-3.9554248,0
5.3587923,Gare Nord,node/6951939384,,-4.0273499,0
5.3024324,Terminus 31 Remblais,node/6952071069,,-3.9635003,0
5.2975569,Trois Ampoules,node/6952071070,,-3.9623322,0
5.2988296,"BIAO, Treichville",node/6952132224,,-4.0109539,0
5.2884669,"Pizza, Marcory",node/6952132225,,-3.9883861,0
5.2853422,"Bernabé Parc à Fer, Boulevard de Marseille",node/6952132226,,-3.9855024,0
5.2786718,[Arret sans nom],node/6952132227,,-3.9824903,0
5.2734369,Église Notre-Dame d'Afrique,node/6952132228,,-3.9767262,0
5.2734089,Sept Villas,node/6952132229,,-3.9714865,0
5.276028,Arrêt,node/6952132230,,-3.9672503,0
5.2486135,Arrêt,node/6952132232,,-3.9434065,0
5.2544081,EPP Aéroport,node/6952132233,,-3.9386439,0
5.2536201,Aéroport,node/6952132234,,-3.934246,0
5.2469401,Carrefour Aéroport,node/6952132235,,-3.9450909,0
5.2544028,Cité ASECNA,node/6952132240,,-3.9409603,0
5.2508117,Arrêt,node/6952132241,,-3.9424355,0
5.2480679,Arrêt,node/6952132242,,-3.9435728,0
5.247278,Maquis 5 sur 5,node/6952132243,,-3.947171,0
5.2567618,Pharmacie Océan,node/6952132244,,-3.9610943,0
5.266498,Abattoir Port-Bouët,node/6952132245,,-3.9627318,0
5.2726637,Arrêt,node/6952132246,,-3.9751598,0
5.28785,Arrêt,node/6952132247,,-3.9878453,0
5.2895893,Arrêt,node/6952132248,,-3.9917104,0
5.2912033,Arrêt,node/6952132250,,-3.9954532,0
5.2984459,"BIAO, Treichville",node/6952132251,,-4.0104501,0
5.3144382,Gare Sud,node/6952132252,,-4.0182926,0
5.3091986,Arrêt,node/6952200468,,-3.9495367,0
5.3097742,Centre Médico-social,node/6952200469,,-3.9481486,0
5.3012025,Hôpital Général de Marcory,node/6952200470,,-3.9837456,0
5.3034286,Arrêt,node/6952200471,,-3.986865,0
5.3042605,Arrêt,node/6952200472,,-4.0094613,0
5.3052353,Arrêt,node/6952200475,,-4.007007,0
5.3027926,Arrêt,node/6952200476,,-3.9855715,0
5.3118954,Akromiambla-Terminus 32 Koumassi,node/6952200477,,-3.952005,0
5.441531,Arrêt,node/6952244517,,-4.0471624,0
5.4436978,Arrêt,node/6952566208,,-4.0559909,0
5.4448793,Arrêt,node/6952566209,,-4.0699545,0
5.4490874,Arrêt,node/6952566210,,-4.0708852,0
5.4522514,Arrêt,node/6952566211,,-4.0716147,0
5.4532246,Arrêt,node/6952566212,,-4.0718146,0
5.4567491,Arrêt,node/6952566213,,-4.0726206,0
5.4606701,Arrêt,node/6952566214,,-4.0734789,0
5.4636378,Arrêt,node/6952566215,,-4.0739724,0
5.4644695,Arrêt,node/6952566216,,-4.074022,0
5.4679793,Arrêt,node/6952566217,,-4.0738437,0
5.4724295,Arrêt,node/6952566218,,-4.0727828,0
5.4769985,Arrêt,node/6952566219,,-4.0716872,0
5.4793881,Arrêt,node/6952566220,,-4.0710461,0
5.4821955,Arrêt,node/6952566221,,-4.0703045,0
5.4839777,Arrêt,node/6952566222,,-4.0699115,0
5.486354,Arrêt,node/6952566223,,-4.0692893,0
5.4911611,Arrêt,node/6952566224,,-4.0680795,0
5.4982644,Arrêt,node/6952566225,,-4.0667948,0
5.5001119,Arrêt,node/6952566226,,-4.0740864,0
5.5000518,Arrêt,node/6952566227,,-4.0767123,0
5.2862329,Petit Café,node/6954138437,,-3.9734097,0
5.2807083,Arrêt,node/6954138438,,-3.9775054,0
5.2823321,Arrêt,node/6954138439,,-3.9804116,0
5.300639,Arrêt,node/6954138440,,-4.0126625,0
5.28394,Agence Nationale de la Formation Professionnelle (AGEFOP),node/6954138442,,-3.9828832,0
5.2809293,Arrêt,node/6954138443,,-3.9776556,0
5.2870755,UTTb Université Loko,node/6954138444,,-3.973057,0
5.2892455,Marché DjeKonan,node/6954138445,,-3.9693475,0
5.3133129,Arrêt,node/6954138446,,-3.9518099,0
5.2834138,CIE Koumassi,node/6954511639,,-3.9679319,0
5.286559,Hôpital de Koumassi,node/6954511640,,-3.9686649,0
5.3583583,[Arret sans nom],node/6954926526,,-4.0989914,0
5.3615502,[Arret sans nom],node/6954926527,,-4.1000086,0
5.3641759,[Arret sans nom],node/6954926528,,-4.0967993,0
5.2859504,Koumassi Soweto - Dépôt 5,node/6955038705,,-3.9531577,0
5.2847586,Pharmacie Bethanie,node/6955038706,,-3.9582532,0
5.2840528,Sation Lavage,node/6955038707,,-3.9611265,0
5.2836422,CIE Koumassi,node/6955038708,,-3.9680882,0
5.2870421,Hôpital de Koumassi,node/6955038709,,-3.9688808,0
5.2996014,Pharmacie Massarana,node/6955038710,,-3.984628,0
5.3587075,Gare Nord,node/6955038711,,-4.0275521,0
5.3331711,Cité Administrative,node/6955514933,,-4.0217512,0
5.3635931,Arrêt Pharmacie Palmeraie,node/6955514934,,-3.9597532,0
5.3710263,Arrêt,node/6955514935,,-3.9580205,0
5.3720811,Arrêt,node/6955514936,,-3.9587393,0
5.3808935,Cocody SCI Les Rosiers,node/6955514937,,-3.964382,0
5.3727874,Arrêt,node/6955514938,,-3.9598592,0
5.3685488,Arrêt,node/6955514939,,-3.9592516,0
5.3149553,Gare Sud,node/6955514940,,-4.0184346,0
5.253474,Aéroport,node/6958966895,,-3.9341971,0
5.2774525,Arrêt,node/6961370878,,-3.981805,0
5.2744205,Pharmacie de Bietry,node/6961370879,,-3.9788787,0
5.2516684,Arrêt Dr08,node/6961370880,,-3.9421921,0
5.2543801,Cité ASECNA,node/6961370881,,-3.9410589,0
5.3618139,Arrêt,node/6961643500,,-4.0725361,0
5.373881,[Arret sans nom],node/6961643501,,-4.0923724,0
5.3718154,[Arret sans nom],node/6961643502,,-4.0945986,0
5.3396466,Amondji,node/6963093974,,-4.0858988,0
5.3395998,Arrêt,node/6963093975,,-4.0810166,0
5.3382505,Pont Vagabond,node/6963093976,,-4.0792436,0
5.3403236,Arrêt,node/6963093977,,-4.0747274,0
5.3147296,Gare Sud,node/6963093979,,-4.0181436,0
5.3415106,Saint André lavage,node/6963093981,,-4.0732643,0
5.3395197,Amondji,node/6963093982,,-4.0859069,0
5.3883091,Aghien 2 plateaux,node/6964184463,,-3.9928235,0
5.3359625,[Arret sans nom],node/6964184464,,-4.0044791,0
5.3885302,Aghien 2 plateaux,node/6964184466,,-3.9923066,0
5.3502206,Carrefour la Vie,node/6964184467,,-4.0021368,0
5.3635871,Arrêt Pharmacie Palmeraie,node/6964502135,,-3.9596674,0
5.3609547,BAE,node/6966758103,,-4.0846449,0
5.3551851,Arrêt,node/6966758104,,-4.0882243,0
5.3549701,Carrefour Antenne Ananeraie,node/6966758105,,-4.0957546,0
5.354878,Oasis,node/6966758106,,-4.0988526,0
5.3502259,Sorbonne,node/6966758107,,-4.0993729,0
5.3462622,Arrêt,node/6966758108,,-4.0997625,0
5.333344,Arrêt,node/6966758109,,-4.1031267,0
5.3292232,Arrêt,node/6966758111,,-4.1044571,0
5.3441658,Arrêt,node/6966758112,,-4.1004723,0
5.3460138,Arrêt,node/6966758113,,-4.0999784,0
5.3500978,Sorbonne,node/6966758114,,-4.0994869,0
5.3529605,Arrêt,node/6966758115,,-4.0994742,0
5.3549421,Oasis,node/6966758116,,-4.0992308,0
5.3551971,Arrêt,node/6966758117,,-4.0918869,0
5.3233545,Arrêt,node/6966849451,,-4.016671,0
5.4486134,Arrêt,node/6966849452,,-4.0138976,0
5.2613392,Hotel Communal Port-Bouët,node/6966927285,,-3.9637296,0
5.2528723,Wharf Port-Bouët,node/6966927286,,-3.9605525,0
5.3027916,Arrêt,node/6966927287,,-4.0132633,0
5.4469386,Arrêt,node/6966942817,,-4.0140968,0
5.4381706,Arrêt,node/6966942818,,-4.0166429,0
5.4141149,Arrêt,node/6966942819,,-4.0159589,0
5.4069719,Arrêt,node/6966942820,,-4.0164229,0
5.2655592,Arrêt,node/6967070473,,-4.0007964,0
5.2772629,Arrêt,node/6967070474,,-4.0085238,0
5.279469,Arrêt,node/6967070475,,-4.0085185,0
5.3959876,Arrêt,node/6967070476,,-4.0210712,0
5.4118438,Arrêt,node/6967070477,,-4.016604,0
5.4197437,Arrêt,node/6967070478,,-4.0178807,0
5.4227157,Arrêt,node/6967070479,,-4.0187565,0
5.4356834,Arrêt,node/6967070480,,-4.0289891,0
5.4364023,Arrêt,node/6967070481,,-4.0302558,0
5.4370672,Arrêt,node/6967070482,,-4.0319341,0
5.4373075,Arrêt,node/6967070483,,-4.0332256,0
5.4377581,Arrêt,node/6967070484,,-4.0362847,0
5.4381539,Arrêt,node/6967074785,,-4.0391982,0
5.4435976,PK 18 Agripac,node/6967074787,,-4.0485819,0
5.4255661,Arrêt,node/6967158577,,-4.0197301,0
5.4195782,Arrêt,node/6967158578,,-4.017465,0
5.3053862,Arrêt,node/6967158579,,-4.0226068,0
5.2891307,Pharmacie du Port,node/6967158580,,-4.0082905,0
5.4269192,Abobo Gendarmerie,node/6968911549,,-4.0212006,0
5.4289586,Arrêt,node/6968911550,,-4.0229219,0
5.4078444,Arrêt,node/6968911551,,-4.0812264,0
5.3570551,CHU de Yopougon,node/6968911556,,-4.0851445,0
5.3698106,Arrêt,node/6968911557,,-4.080236,0
5.3746728,Arrêt,node/6968911558,,-4.0777087,0
5.4392253,Arrêt,node/6968911559,,-4.0687166,0
5.3423532,Arrêt,node/6969221528,,-4.0793476,0
5.3141434,Gare Sud,node/6969221530,,-4.0177429,0
5.3743039,Feh Kessé,node/6969371620,,-3.9117702,0
5.3472803,Clinique Providence,node/6969583471,,-4.0097992,0
5.3451973,Supermarché Casino,node/6969583472,,-4.0106696,0
5.3147951,Gare Sud,node/6969583474,,-4.0185824,0
5.3154387,Gare Sud,node/6969583476,,-4.01752,0
5.3161731,Novotel,node/6969583477,,-4.0166201,0
5.3172748,[Arret sans nom],node/6969583478,,-4.0151837,0
5.3202726,Arrêt,node/6969583479,,-4.015578,0
5.3209056,Arrêt,node/6969583480,,-4.0192916,0
5.3217388,Arrêt,node/6969583481,,-4.0207359,0
5.3233639,Hôtel de Ville,node/6969583482,,-4.0207185,0
5.3257514,Arrêt,node/6969583483,,-4.0207171,0
5.3278011,Arrêt,node/6969583484,,-4.0207332,0
5.3335937,Cité Administrative,node/6969620785,,-4.0217525,0
5.4031227,Termunis 81/82,node/6970095632,,-3.985249,0
5.3971746,Arrêt,node/6970095633,,-3.9859892,0
5.3841166,Pharmacie Les 7 Lys,node/6970095634,,-3.9875704,0
5.3643008,Arrêt,node/6970095635,,-3.979157,0
5.3542958,Riviera 2,node/6970095637,,-3.977256,0
5.3623286,Arrêt,node/6970095638,,-3.978931,0
5.3924174,DGI,node/6970095639,,-3.9866585,0
5.4031427,Termunis 81/82,node/6970095641,,-3.9853522,0
5.3554107,Arrêt,node/6970366278,,-3.9506122,0
5.3552038,Arrêt,node/6970366281,,-3.950804,0
5.3652007,Arrêt,node/6970366282,,-3.9482653,0
5.3643008,Arrêt,node/6970366283,,-3.9522095,0
5.403546,Arrêt,node/6979256984,,-4.0181825,0
5.4038146,Arrêt,node/6979431044,,-3.9848581,0
5.39671,Arrêt,node/6979431045,,-3.977142,0
5.3902524,Arrêt,node/6979431046,,-3.9754421,0
5.387788,Arrêt,node/6979431047,,-3.9747639,0
5.3839137,Arrêt,node/6979431048,,-3.9737651,0
5.3828575,Arrêt,node/6979431049,,-3.9734902,0
5.3749859,Arrêt,node/6979431051,,-3.9627425,0
5.4036825,Arrêt,node/6979431052,,-3.984727,0
5.3281463,Arrêt,node/6979712503,,-3.9195342,0
5.3318471,Arrêt,node/6979712504,,-3.9224169,0
5.3394623,Arrêt,node/6979712505,,-3.9227159,0
5.3479974,Arrêt,node/6979712506,,-3.923066,0
5.3497346,Arrêt,node/6979712507,,-3.9234415,0
5.3546363,Arrêt,node/6979712508,,-3.924564,0
5.3579717,Arrêt,node/6979712509,,-3.9253713,0
5.3614206,Arrêt,node/6979712510,,-3.9263014,0
5.3635464,Arrêt,node/6979712512,,-3.9268023,0
5.3687351,Arrêt,node/6979712513,,-3.928193,0
5.3703787,Arrêt,node/6979712514,,-3.9379911,0
5.3679286,Arrêt,node/6979712515,,-3.9279167,0
5.3470093,Arrêt,node/6979712516,,-3.9227716,0
5.3449917,Arrêt,node/6979712517,,-3.9223344,0
5.3428352,Arrêt,node/6979712518,,-3.9218402,0
5.3413324,Arrêt,node/6979712519,,-3.9221104,0
5.2452454,Arrêt,node/6980029236,,-3.9344399,0
5.2569228,Arrêt,node/6980029237,,-3.9723435,0
5.2684644,Bank Of Africa,node/6980029238,,-4.0062828,0
5.2646043,Arrêt,node/6980029239,,-4.0139727,0
5.2587043,[Arret sans nom],node/6980029241,,-4.0112543,0
5.2648347,[Arret sans nom],node/6980029242,,-4.0138916,0
5.2686721,[Arret sans nom],node/6980029243,,-4.006083,0
5.2509145,Terminus Port-Bouët Phare,node/6980258130,,-3.9560491,0
5.3433974,Arrêt,node/6980521688,,-4.0032211,0
5.3628414,Arrêt,node/6980521689,,-3.9976139,0
5.399921,Arrêt,node/6980521690,,-4.0057075,0
5.4015232,Arrêt,node/6980521691,,-4.0065511,0
5.4034191,Arrêt,node/6980521692,,-4.0065081,0
5.4241696,Abobo Gendarmerie,node/6980521695,,-4.0192406,0
5.4185708,Arrêt,node/6980521696,,-4.0134712,0
5.4155561,Arrêt,node/6980521697,,-4.0074744,0
5.4135434,Arrêt,node/6980521698,,-4.0062694,0
5.4035807,Arrêt,node/6980521699,,-4.0064277,0
5.3998663,Arrêt,node/6980521700,,-3.9990999,0
5.3987194,Arrêt,node/6980521701,,-3.992904,0
5.387006,Arrêt,node/6980521702,,-3.9927913,0
5.3819122,Arrêt,node/6980521703,,-3.9934525,0
5.2578469,Arrêt,node/7025968250,,-3.9718473,0
5.2642798,Arrêt,node/7025975082,,-3.9994057,0
5.2682835,Arrêt,node/7025975083,,-4.003783,0
5.3292373,Arrêt,node/7025992286,,-4.10439,0
5.2771214,[Arret sans nom],node/7026069662,,-4.0083388,0
5.341978,Arrêt,node/7026279881,,-4.0149826,0
5.2855772,Arrêt,node/7026364429,,-3.9547831,0
5.2850417,[Arret sans nom],node/7026390486,,-3.9641359,0
5.2566557,Océan Espadon,node/7028872830,,-3.9616643,0
5.3588917,Gare Nord,node/7028872831,,-4.0278525,0
5.3534289,Cité étudiante Riviera 2,node/7043603291,,-3.9736383,0
5.3550743,Carrefour Antenne Ananeraie,node/7043642288,,-4.0957761,0
5.3109066,Gare Lagunaire Yopougon STL,node/7044975088,,-4.0344058,0
5.3143858,Gare Lagunaire Plateau STL,node/7044975089,,-4.0170439,0
5.3135839,Gare Lagunaire Treichville STL,node/7044975090,,-4.0100701,0
5.315627,Gare Lagunaire Koumassi STL,node/7046900012,,-3.952125,0
5.3240676,Gare Lagunaire M'pouto STL,node/7046900013,,-3.9603245,0
5.3108107,Gare Lagunaire de Treichville Sotra,node/7046964142,,-4.015859,0
5.3107009,Gare Lagunaire d’Abobo-Doumé Sotra,node/7046964143,,-4.0347196,0
5.3140753,Gare Lagunaire du Plateau Sotra,node/7047063325,,-4.0176728,0
5.3212342,Gare lagunaire de Blockauss Sotra,node/7047101136,,-4.0021442,0
5.3562773,Arrêt,node/7047930662,,-4.0016118,0
5.4096636,Arrêt,node/7047930663,,-3.9856634,0
5.3665112,Syndicat,node/7048020780,,-3.9091802,0
5.3739184,Kessé,node/7048020781,,-3.9119428,0
5.3676562,Camp Millitaire d'Akouédo,node/7048020782,,-3.9446417,0
5.3652501,Église Apostolique de Côte d'Ivoire,node/7048020783,,-3.9495032,0
5.3672056,Yopougon Gesco - Terminus du bus 34,node/7049258139,,-4.1020069,0
5.365903,Arrêt,node/7049258140,,-4.0973914,0
5.3634963,Arrêt,node/7049258141,,-4.0976979,0
5.3608051,Arrêt,node/7049258142,,-4.1003995,0
5.3587021,Arrêt,node/7049258143,,-4.0998034,0
5.3582214,Mamie Adjoua,node/7049258144,,-4.0940326,0
5.3552799,Arrêt,node/7049258145,,-4.088628,0
5.3009034,Arrêt,node/7049730219,,-4.0120965,0
5.2545644,EPP Aéroport,node/7049730220,,-3.9392397,0
5.2734289,Sept Villas,node/7049730221,,-3.9712512,0
5.2844982,Arrêt,node/7049730222,,-3.9852691,0
5.3485715,Carrefour la Vie,node/7051810979,,-4.0031956,0
5.3528057,Terminus Liberté,node/7051810981,,-4.0128221,0
5.3503194,École de Police,node/7051810982,,-3.9885668,0
5.3530834,Riviera 2,node/7051810984,,-3.9797437,0
5.3529853,Station Total Riviera 2,node/7051811086,,-3.9788968,0
5.35446,Vallon,node/7051811087,,-3.9909077,0
5.3546991,Escalier,node/7051811088,,-4.0043946,0
5.3533605,Adjamé Liberté,node/7051811090,,-4.0146225,0
5.3498521,Gare Anono,node/7051905145,,-4.0228106,0
5.3495777,Station,node/7051905146,,-4.0223607,0
5.347757,Banfora,node/7051905147,,-4.0227932,0
5.3464705,Saint Michel,node/7051905148,,-4.0227107,0
5.3451372,Eglise Saint Michel,node/7051905149,,-4.0226899,0
5.343631,Eglise,node/7051905150,,-4.0234597,0
5.3490415,SODEFOR,node/7051905151,,-3.9993949,0
5.3494341,Carrefour CHU,node/7051905152,,-3.9919236,0
5.3505471,Arrêt,node/7051905153,,-3.9869374,0
5.3445751,Terminus Anono,node/7051905154,,-3.9724706,0
5.3452895,Marché,node/7051905155,,-3.9744008,0
5.34455,Terminus Anono,node/7051905157,,-3.9724521,0
5.3504075,Arrêt,node/7051905159,,-3.9769623,0
5.3500924,Au Lavage,node/7051905160,,-3.9778259,0
5.3510311,A la Mosquée,node/7051905161,,-3.9809205,0
5.349577,Carrefour CHU,node/7051905162,,-3.9905101,0
5.3497766,Gare Anono,node/7051905163,,-4.0228461,0
5.3501191,École de Police,node/7052162358,,-3.989405,0
5.3454176,Carrefour Saint Michel,node/7052162359,,-4.0226577,0
5.3418391,A La Caisse,node/7052162360,,-4.0216117,0
5.3673438,Akouédo,node/7052162361,,-3.9457347,0
5.3719142,Playce Palmeraie,node/7052162362,,-3.9324155,0
5.3728529,Nouveau Goudron,node/7052162363,,-3.9287925,0
5.3743603,Kessé,node/7052162364,,-3.9122875,0
5.3602229,CIE,node/7052162365,,-3.8981583,0
5.3613609,Station Texaco,node/7052162366,,-3.8947412,0
5.3575885,Collège Moderne,node/7052162367,,-3.8882764,0
5.3573081,Carrefour Bangui,node/7052162369,,-3.8845441,0
5.357718,Terminus Carrefour Bangui,node/7052162370,,-3.8843443,0
5.3571933,Carrefour Bangui,node/7052162371,,-3.8844985,0
5.3574283,Collège Moderne,node/7052162372,,-3.887693,0
5.3703106,Faya,node/7052162373,,-3.9374359,0
5.350286,Gare en haut,node/7052162375,,-4.0224532,0
5.3493033,Clinique Fraternité,node/7052340401,,-4.0218316,0
5.3548993,Escalier,node/7052340402,,-4.0042631,0
5.3546376,Vallon-1er Pont,node/7052340403,,-3.9904813,0
5.3504162,Gare en haut,node/7052340404,,-4.0227482,0
5.3271876,Terminus M'Pouto,node/7052340405,,-3.9542839,0
5.3271989,Terminus M'Pouto,node/7052340406,,-3.9543486,0
5.3310206,A l'Arrêt,node/7052340407,,-3.9579682,0
5.3347781,Banny,node/7052340408,,-3.9557567,0
5.337175,Maison Blanche,node/7052340409,,-3.9537035,0
5.3452694,Mel Théodore,node/7052340410,,-3.952691,0
5.3508856,Carrefour Lycée Français,node/7052340411,,-3.9545229,0
5.3564619,Cap Nord,node/7052340412,,-3.9676865,0
5.3503214,Gare en haut,node/7052340415,,-4.0226343,0
5.3543439,Adjamé Texaco,node/7052366500,,-4.0177533,0
