stop_lon,stop_name,stop_lat,stop_id,location_type,parent_station
-4.0207427,Université Nangui Abrogoua,5.392647,SAnode/6474137942,1,
-3.9610541,Boulangerie,5.292783,node/6906596970,0,SAnode/6906596970
-4.0948509,EPP SICOGI Niangon Sud,5.3172602,node/6913201909,0,SAnode/6913201909
-4.0934497,Arrêt,5.3150643,node/6913201908,0,SAnode/6913201908
-4.0440879,Rue K9,5.3166799,node/6913190445,0,SAnode/6913190445
-4.0141176,Arrêt,5.4189547,node/6935401284,0,SAnode/6910797791
-4.0468311,Rue K9,5.3221154,node/6913190447,0,SAnode/6913190447
-4.0441167,Maison blanche,5.3208014,node/6913190446,0,SAnode/6913190446
-4.0851103,Quincaillerie,5.3561104,SAnode/6909707233,1,
-4.0496448,Add a name to the stop with JungleBus app,5.323918,node/6913190448,0,SAnode/6912805217
-4.0875008,Grand Centre,5.3481316,SAnode/6909707231,1,
-4.0871836,Saint Pierre,5.3239194,node/6913201900,0,SAnode/6913201900
-4.0900334,Terminus 27,5.315995,node/6913201907,0,SAnode/6913201907
-4.0928994,Arrêt Yop 38,5.3152357,node/6913201904,0,SAnode/6913201904
-3.9348771,Centre de santé Municipal de M'Badon,5.3307248,node/6948222238,0,SAnode/6903347577
-4.060057,Arrêt,5.3266769,node/6932152400,0,SAnode/6932152400
-4.0817052,Meygi,5.3274379,node/6944934858,0,SAnode/6944816373
-4.0598402,Ghandi,5.3250076,node/6932152402,0,SAnode/6932152402
-4.0599193,Ghandi,5.3253408,node/6932152404,0,SAnode/6932152402
-4.0669167,Arrêt,5.3600658,node/6932152405,0,SAnode/6932152405
-4.0094478,Station Total,5.3017767,node/6933231056,0,SAnode/6926746689
-4.0182858,Gare Sud,5.314853,node/6932152407,0,SAnode/6474137967
-4.0102683,Arrêt,5.3461658,node/6927327312,0,SAnode/6927327302
-3.9976139,Arrêt,5.3628414,node/6980521689,0,SAnode/6980521689
-4.0032211,Arrêt,5.3433974,node/6980521688,0,SAnode/6912820418
-4.0697157,Arrêt,5.4842033,SAnode/6938324872,1,
-4.0709844,Arrêt,5.4791892,SAnode/6938324873,1,
-4.0021714,A Gauche,5.423623,SAnode/6903296481,1,
-4.0737471,Arrêt,5.4679499,SAnode/6938324876,1,
-4.072693,Arrêt,5.4724328,SAnode/6938324875,1,
-3.952243,Arrêt,5.3384929,node/6948222232,0,SAnode/6932239012
-4.0733501,Arrêt,5.4606874,SAnode/6938324878,1,
-4.0198488,Gendarmerie Abobo,5.4263959,node/6474137932,0,SAnode/6474137932
-4.0799806,Akadjoba,5.3243327,SAnode/6913201899,1,
-4.0757574,Kbine Bleu,5.3290163,SAnode/6913201898,1,
-4.073208,Figayo,5.3493427,node/5927302128,0,SAnode/3950172145
-4.0733126,Antenne,5.3335416,SAnode/6913201897,1,
-4.0544875,Arrêt,5.4526174,node/6915722732,0,SAnode/6915722690
-4.0526523,Arrêt Ancien Marché,5.4503748,node/6915722733,0,SAnode/6915722733
-4.0534141,Arrêt,5.4669354,node/6915722730,0,SAnode/6915722692
-4.053759,Arrêt Ancienne Gendarmerie,5.4611068,node/6915722731,0,SAnode/6915722731
-4.0484067,Arrêt,5.4436482,node/6915722736,0,SAnode/6915722736
-4.0168481,Boulangerie Top baquette,5.3528511,node/6907154300,0,SAnode/6907154300
-4.0510764,Arrêt Terminus,5.4483606,node/6915722734,0,SAnode/6915722734
-4.0491425,Arrêt Agripac,5.4449974,node/6915722735,0,SAnode/6915722735
-3.9780821,Arrêt,5.4011881,SAnode/6910797796,1,
-3.9792073,BICICI,5.4031254,SAnode/6910797795,1,
-3.9856156,Termunis 81/82,5.4038607,SAnode/6910797794,1,
-3.999584,Arrêt,5.4155902,SAnode/6910797793,1,
-3.9686649,Hôpital de Koumassi,5.286559,SAnode/6954511640,1,
-4.0128435,Arrêt,5.4182684,SAnode/6910797791,1,
-4.01971,Arrêt,5.4258812,SAnode/6910797790,1,
-4.0029137,2ème pont,5.3547793,SAnode/6903544089,1,
-4.0159589,Arrêt,5.4141149,node/6966942819,0,SAnode/6966942819
-4.0187446,Terminus Gendarmerie Abobo,5.4234101,node/6474137934,0,SAnode/6474137934
-4.056062,Arrêt,5.443862,node/6938324884,0,SAnode/6934648711
-3.9737989,Arrêt,5.4538834,SAnode/6926746749,1,
-4.0140968,Arrêt,5.4469386,node/6966942817,0,SAnode/6934922726
-4.0180948,Maternité,5.3481387,SAnode/6903544087,1,
-4.043768,Santé Village,5.3087112,node/6913190444,0,SAnode/6910794085
-3.9559445,Arrêt,5.3344449,SAnode/6951182060,1,
-3.9933257,Abobo Belleville,5.4158855,SAnode/6927037633,1,
-4.016791,Station Total,5.358734,SAnode/6899264972,1,
-4.0083388,Sea Invest,5.2771214,SAnode/7026069662,1,
-4.0212174,Marché Gouro,5.349107,SAnode/6899264970,1,
-4.0947904,Arrêt,5.3163701,node/6913201903,0,SAnode/6913201902
-4.0025646,Cité BAD,5.3465272,node/6916280448,0,SAnode/6916280448
-4.0035403,CIE,5.3386878,node/6916280449,0,SAnode/6907141801
-4.0874934,Port-Bouët II,5.3540742,SAnode/6909707232,1,
-3.9927256,Arrêt,5.3875127,node/6916280444,0,SAnode/6916280444
-3.9983542,NSIA,5.3737207,node/6916280446,0,SAnode/6916280446
-3.9981216,SGBGI,5.3700155,node/6916280447,0,SAnode/6916280447
-3.9912806,Carrefour 22è,5.399202,node/6916280441,0,SAnode/5957239662
-4.10439,Arrêt,5.3292373,node/7025992286,0,SAnode/6966758109
-3.9918311,Paris Baguette,5.3945043,node/6916280443,0,SAnode/6916280443
-4.0892456,Résidence Hôtel Georges Colette,5.3450164,SAnode/6909707230,1,
-4.0439826,Iris 3,5.3171339,node/6910755183,0,SAnode/6910755183
-3.9527768,Beverly,5.3380122,node/6933080254,0,SAnode/6933080254
-3.9578046,Carrefour Sol Béni,5.3311481,node/6933080255,0,SAnode/6933080255
-3.980421,Arrêt,5.329493,node/6933080256,0,SAnode/6933080256
-3.9996752,SIB,5.3353723,node/6933080257,0,SAnode/6933080257
-3.9428298,Arrêt,5.3283246,node/6933080250,0,SAnode/6933080250
-3.9447637,École libanaise Al Ghadir,5.3282992,node/6933080251,0,SAnode/6932323636
-3.9460498,Arrêt,5.3283286,node/6933080252,0,SAnode/6933080250
-3.9479502,Pharmacie M'pouto,5.328364,node/6933080253,0,SAnode/6933080253
-4.0850901,Arrêt,5.3604209,SAnode/6909707234,1,
-3.9401878,Mosquée Cité Eden,5.3284154,node/6933080258,0,SAnode/6933080258
-4.0050058,Hotel Ivoire,5.328578,SAnode/5957239666,1,
-4.0167837,Pyramide,5.321624,node/6908914495,0,SAnode/6908914495
-4.0127537,Cité Universitaire Abobo,5.4350792,node/6474139031,0,SAnode/6474139031
-4.0154322,Quai 15,5.4354761,node/6474139033,0,SAnode/6474139033
-3.984559,Arrêt,5.4102497,node/6932253479,0,SAnode/6927327308
-3.9808642,Arrêt,5.4127978,node/6932253478,0,SAnode/6932253478
-4.0150871,Gare lagunaire Aqualines du Plateau,5.3160908,SAnode/1227889258,1,
-4.0515593,Arrêt,5.4890597,SAnode/6915722699,1,
-4.0014133,Sainte Monique,5.3997114,SAnode/6934798184,1,
-4.0544278,Arrêt,5.465098,SAnode/6915722692,1,
-4.0545715,Arrêt,5.4565524,SAnode/6915722690,1,
-4.0513476,Arrêt,5.4837187,SAnode/6915722697,1,
-4.0026151,Blockhauss,5.3222225,SAnode/5957239667,1,
-4.0205256,Terminus Hotel de Ville,5.3226907,node/6136858285,0,SAnode/6136858285
-3.9938503,Gare Campus Cocody,5.3462362,node/6927330416,0,SAnode/6908599212
-4.0439558,Santé Village,5.3095505,SAnode/6910794085,1,
-4.0738295,Saint André,5.3423254,node/3075945505,0,SAnode/3075945505
-3.9794498,Carrefour garage,5.3655779,SAnode/6903968408,1,
-4.0944323,Arrêt,5.3197171,node/6913201902,0,SAnode/6913201902
-4.0027148,Centre Commercial du Dokui,5.3970398,SAnode/6934798183,1,
-4.0151837,Arrêt,5.3172748,SAnode/6969583478,1,
-3.9657399,Arrêt,5.3991713,SAnode/6910797809,1,
-4.0438735,Arrêt,5.4392603,node/6934648740,0,SAnode/6934648740
-3.9592423,Arrêt,5.4003923,SAnode/6910797807,1,
-3.9570893,CHU Angré,5.399963,SAnode/6910797804,1,
-3.9621642,SOCIAM,5.4025338,SAnode/6910797802,1,
-3.9649835,Cité Diaspora,5.4000986,SAnode/6910797801,1,
-3.971504,Arrêt,5.3946558,SAnode/6910797800,1,
-4.0925668,EPP Niangon,5.3233739,node/6913201901,0,SAnode/6913201901
-3.8973275,Arrêt,5.2395482,node/6937770649,0,SAnode/6937770649
-4.0160152,Anador,5.4089746,node/6474137940,0,SAnode/6474137940
-3.9987874,Marché Belleville,5.3056574,SAnode/6909521617,1,
-4.0034158,Paroisse Notre Dame,5.3040254,SAnode/6909521616,1,
-4.0111588,"Avenue 15, Rue 12, Treichville",5.3039938,SAnode/6909521615,1,
-4.0117363,"Avenue 11, Rue 12, Treichville",5.305655,SAnode/6909521614,1,
-4.0179278,Hôpital du Pont,5.3088247,SAnode/6909521613,1,
-4.0211629,Grand Moulin Abidjan,5.3069377,SAnode/6909521612,1,
-4.0231458,Terminus 32,5.305037,SAnode/6909521611,1,
-4.0175241,Sicodis,5.3005436,SAnode/6909521610,1,
-3.9904401,Arrêt,5.422222,node/6926746761,0,SAnode/6915341538
-3.9908193,Arrêt,5.4196603,node/6926746760,0,SAnode/6915341538
-3.9886816,Arrêt,5.43368,node/6926746763,0,SAnode/6915341520
-3.9898619,Arrêt,5.4265157,node/6926746762,0,SAnode/6915341520
-3.9850082,Arrêt,5.4402786,node/6926746765,0,SAnode/6915341528
-3.9873449,Arrêt,5.4374054,node/6926746764,0,SAnode/6915341531
-3.9785569,Arrêt,5.4451883,node/6926746767,0,SAnode/6915341526
-3.9837456,Hôpital Général de Marcory,5.3012025,node/6952200470,0,SAnode/6926943109
-4.0111108,Destin,5.4554315,node/6934922724,0,SAnode/6902975750
-4.0738295,Saint André,5.3423254,SAnode/3075945505,1,
-4.1003513,Arret de bus,5.3419897,node/5934409413,0,SAnode/5934409413
-4.0063152,Chaîne avion,5.4101483,SAnode/6906590692,1,
-4.007007,Arrêt,5.3052353,node/6952200475,0,SAnode/6952200475
-4.0061849,Pharmacie de l'Avenue 27,5.3029158,node/6933231057,0,SAnode/6924979792
-4.0988526,Arrêt,5.354878,node/6966758106,0,SAnode/6966758105
-4.0993729,Arrêt,5.3502259,node/6966758107,0,SAnode/6966758107
-3.9984268,Sococé 2 Plateaux,5.3718047,node/6912729880,0,SAnode/6912729880
-4.0957546,Arrêt,5.3549701,node/6966758105,0,SAnode/6966758105
-4.0846449,BAE,5.3609547,node/6966758103,0,SAnode/6966758103
-3.9943103,Las Palmas,5.3809527,node/6912729884,0,SAnode/6912729884
-3.9736383,Cité étudiante Riviera 2,5.3534289,node/7043603291,0,SAnode/6928179124
-4.0997625,Arrêt,5.3462622,node/6966758108,0,SAnode/6966758107
-4.1031267,Arrêt,5.333344,node/6966758109,0,SAnode/6966758109
-4.0059958,Arrêt,5.386285,node/6927037630,0,SAnode/6927037616
-4.002863,Arrêt,5.2972024,node/7025992285,0,SAnode/6931985672
-4.0560298,Hopital Toit Rouge,5.3312516,SAnode/6933128807,1,
-3.9904759,Leader price,5.372732,SAnode/6935117225,1,
-4.0646331,"Complexe Sportif, Yopougon",5.3407344,SAnode/6913857611,1,
-4.0015453,Au marché,5.4236156,SAnode/6903296480,1,
-3.9787018,Pharmacie de Bietry,5.2742845,SAnode/4107240891,1,
-4.0255438,Sitarail,5.3266074,node/6913011676,0,SAnode/6913011676
-4.0160705,Gare des gbakas d’Abobo par le zoo,5.3553627,SAnode/6902639012,1,
-4.0118134,Carrefour paillet,5.3721147,SAnode/6902639010,1,
-4.0157876,Carrefour 2 Plateaux,5.3653117,SAnode/6902639011,1,
-4.0064263,Samake,5.4148754,node/6906590689,0,SAnode/6903406997
-4.0679411,Newton,5.3446768,node/3137243386,0,SAnode/3137243386
-3.9975737,Terminus Vridi-Iran,5.2563753,SAnode/6928681599,1,
-3.9953287,Arrêt,5.4136035,node/6910797821,0,SAnode/6910797820
-3.9941237,Arrêt,5.4103992,node/6910797820,0,SAnode/6910797820
-4.0207447,Saint Paul Plateau,5.3247785,SAnode/6098848385,1,
-3.9538698,Koumassi Sicogi - Dépôt SOTRA,5.2884523,node/6931792550,0,SAnode/6931273195
-3.9943092,École de la Gendarmerie,5.3492233,SAnode/6915487644,1,
-3.952005,Akromiambla-Terminus 32 Koumassi,5.3118954,SAnode/6952200477,1,
-4.007007,Arrêt,5.3052353,SAnode/6952200475,1,
-4.0097992,Clinique Providence,5.3472803,SAnode/6969583471,1,
-4.0182926,Gare Sud,5.3144382,node/6952132252,0,SAnode/6474137967
-4.0166201,Novotel,5.3161731,SAnode/6969583477,1,
-3.9781867,Riviera 2,5.3526374,node/6928250860,0,SAnode/5958266392
-4.0082905,Pharmacie Port-Bouet,5.2891307,node/6967158580,0,SAnode/6916152425
-3.9702004,Terminus Riviera 2,5.3534857,node/6928250862,0,SAnode/6928179123
-3.940785,Terminus M'pouto - CIAD,5.328322,SAnode/5143730222,1,
-3.9700449,Terminus Riviera 2,5.3534453,node/6928179123,0,SAnode/6928179123
-4.0494295,Arrêt,5.4440736,node/6938343085,0,SAnode/6915722736
-3.970533,Grand Carrefour de Koumassi,5.2870688,node/6931985671,0,SAnode/6931985671
-4.001299,Arrêt,5.2985627,node/6931985672,0,SAnode/6931985672
-4.019718,Présidence,5.3179651,SAnode/6474137979,1,
-4.0092923,Pharmacie Alpha 16,5.3044274,node/6948706682,0,SAnode/6948706682
-4.0157926,Warafa Assurance,5.321664,node/6948706680,0,SAnode/6948706680
-4.0152582,Arrêt Résidence Nabil,5.3184017,node/6948706681,0,SAnode/6948706681
-3.9831075,Arrêt,5.441543,SAnode/6915341528,1,
-3.978184,Arrêt,5.4454571,SAnode/6915341526,1,
-3.9725804,Abobo Biabou,5.4564179,SAnode/6915341523,1,
-3.9894234,Arrêt,5.4297269,SAnode/6915341520,1,
-3.9813021,Terminus 202 Attoban,5.3701109,node/5958266388,0,SAnode/5958266388
-4.1020323,Terminus du bus 34,5.3671328,SAnode/5936892363,1,
-3.964494,Boulevard du Caire,5.2919737,node/6906596969,0,SAnode/6906596969
-4.0137548,Arrêt,5.4327535,SAnode/6934922731,1,
-3.9881326,Délices de France,5.301827,SAnode/6909237622,1,
-3.9788787,Pharmacie de Bietry,5.2744205,node/6961370879,0,SAnode/4107240891
-4.0751928,Patisserie,5.3379928,node/6913190459,0,SAnode/6912805208
-4.0044435,Karwil,5.3054677,node/6906596962,0,SAnode/6906596962
-4.0678006,Newton,5.3447353,node/6913190457,0,SAnode/3137243386
-4.015528,Adjamé Liberté,5.35345,node/6906596960,0,SAnode/6899241577
-4.0060884,Nanan Yamousso,5.3100359,node/6906596961,0,SAnode/6899053348
-3.9859637,Cap Sud,5.2987234,node/6906596966,0,SAnode/6832290086
-4.055093,Pharmacie Sacré-cœur,5.3369773,node/6913190453,0,SAnode/6913190453
-4.0026404,Gare de Bassam,5.3003893,node/6906596964,0,SAnode/6906463293
-4.0519957,Offoumou Yapo,5.3313998,node/6913190451,0,SAnode/6912805214
-4.1004632,Pharmacie Cité Maroc,5.3404237,SAnode/6909707228,1,
-4.0892462,CIE,5.3407014,SAnode/6909707229,1,
-4.1059349,Caféier,5.325714,SAnode/6909707224,1,
-4.0926667,EPP Niangon,5.3233885,node/6913201911,0,SAnode/6913201901
-4.1029765,2ème arrêt ANADOR,5.3338915,SAnode/6909707226,1,
-4.1014047,Carrefour Anador,5.3358784,SAnode/6909707227,1,
-4.0762905,Arrêt de bus,5.3287702,node/6913201914,0,SAnode/6913201914
-4.0184952,Gare Sud,5.3146172,node/6913201915,0,SAnode/6474137967
-4.1057378,Carrefour Académie,5.3233679,SAnode/6909707223,1,
-3.9898489,NSIA Banque,5.3685842,node/6935117224,0,SAnode/6935117224
-3.990781,"SIYOA, Boulevard de Marseille",5.2895393,SAnode/6909208700,1,
-3.9926612,Cocody Gobelet - Terminus 35,5.3770534,node/6935117227,0,SAnode/6935117227
-4.0273828,Gare Nord,5.3591731,node/6935117220,0,SAnode/6474137946
-3.9897309,Woodin,5.3610508,node/6935117222,0,SAnode/6935117222
-3.9897537,Arc en ciel,5.3653222,node/6935117223,0,SAnode/6935117223
-3.977036,Arrêt,5.3963428,SAnode/6910797798,1,
-3.9692871,CIE Bia Sud,5.2813533,node/6935274800,0,SAnode/6935274800
-4.0192406,Terminus Gendarmerie Abobo,5.4241696,node/6980521695,0,SAnode/6474137934
-4.0134712,Arrêt,5.4185708,node/6980521696,0,SAnode/6910797791
-3.962945,Arrêt,5.2900094,node/6935274801,0,SAnode/6935274801
-3.9767155,Ambassade des USA,5.335819,SAnode/6820855646,1,
-3.9728877,Hotel du Golf,5.3309825,SAnode/6820855647,1,
-4.0065081,Arrêt,5.4034191,node/6980521692,0,SAnode/6927037614
-3.9725319,Groupe Scolaire St Marc,5.383206,node/6815808846,0,SAnode/6815808846
-3.9579229,Ex Terminus Sotra;Carrefour Sol Beni,5.3312498,SAnode/6820855649,1,
-4.0062694,Arrêt,5.4135434,node/6980521698,0,SAnode/6910797792
-4.0064277,Arrêt,5.4035807,node/6980521699,0,SAnode/6927037614
-3.9860303,Pharmacie Les Laureades,5.3975314,node/5958266385,0,SAnode/5958266385
-3.8879555,Pharmacie Du Marché,5.357433,node/6948466339,0,SAnode/6948466339
-3.8895766,La Poste,5.357652,node/6948466338,0,SAnode/6948466338
-3.9881294,Petro Ivoire 7è Tranche,5.3806539,node/5958266386,0,SAnode/5958266386
-3.9767852,Arrêt,5.353946,node/6948466331,0,SAnode/6928250861
-3.9273548,Arrêt,5.3732347,node/6948466333,0,SAnode/6948466333
-3.9695473,Arrêt,5.3560356,node/6948466332,0,SAnode/6948466332
-3.9116914,Késsé,5.3738883,node/6948466335,0,SAnode/6948466335
-3.9221262,Arrêt,5.3744488,node/6948466334,0,SAnode/6948466334
-3.8946091,Station TEXACO,5.3613312,node/6948466337,0,SAnode/6948466337
-3.9090387,Arrêt,5.3664705,node/6948466336,0,SAnode/6948466336
-3.988849,Arrêt,5.3077309,SAnode/6917151687,1,
-3.9694119,Holy Pressing,5.2883388,SAnode/6931273199,1,
-3.9684516,Rue H11,5.2873493,SAnode/6931273198,1,
-3.9651793,Rue Raoul Follereau,5.2875055,SAnode/6931273197,1,
-3.964256,Caritas de la Sainte Trinité de Koumassi,5.2849829,SAnode/6931273196,1,
-3.9904413,Yan Auto Ecole,5.3084636,SAnode/6917151688,1,
-4.0812264,Arrêt,5.4078444,SAnode/6968911551,1,
-4.0013186,ISTC,5.343718,node/6908599213,0,SAnode/6908599213
-3.9946557,Gare Campus Cocody,5.3464621,node/6908599212,0,SAnode/6908599212
-4.0334697,Terminus bus 51/52,5.4148038,node/6944920986,0,SAnode/6281030720
-4.0153091,Gare Abobo Sogephia,5.4354972,node/6908599215,0,SAnode/6474137921
-4.004071,Terminus CHU de Treichville,5.2948647,node/4999458824,0,SAnode/4999458824
-3.9339759,Marché,5.3301187,SAnode/6903544090,1,
-4.0166429,Arrêt,5.4381706,node/6966942818,0,SAnode/6934922728
-4.0211629,Grand Moulin Abidjan,5.3069377,node/6909521612,0,SAnode/6909521612
-4.058547,Pharmacie Béatitude,5.3401473,node/6913190454,0,SAnode/6913190454
-4.0161668,Arrêt,5.3557539,SAnode/6927037628,1,
-4.0957761,Arrêt,5.3550743,node/7043642288,0,SAnode/6966758105
-3.9975522,Terminus Vridi-Iran,5.2562337,node/6928704117,0,SAnode/6928681599
-4.0140854,"Etablissements Rey, Port",5.29778,node/6928704114,0,SAnode/6909521609
-3.9995223,Arrêt Bolloré logistique,5.264595,node/6928704115,0,SAnode/6928704115
-4.0228924,Terminus 32,5.3050571,node/6928704112,0,SAnode/6909521611
-4.0170398,Quai Ouest (Q6-Q14),5.3002851,node/6928704113,0,SAnode/6928704113
-4.0608235,Nouveau quartier,5.3407362,node/6913190455,0,SAnode/6910703476
-3.9959845,Superette Akwaba,5.3992227,node/6934815687,0,SAnode/6934815685
-3.9960703,Superette Akwaba,5.3994163,node/6934815685,0,SAnode/6934815685
-4.0240122,Arrêt,5.4193151,node/6944887183,0,SAnode/6938222041
-4.0220542,Arrêt,5.4253525,node/6944887182,0,SAnode/6910797790
-4.0237293,Terminus tours Administratives,5.3310827,node/6944887181,0,SAnode/6474137956
-3.9401855,Mosquée Cité Eden,5.3283646,node/6933080260,0,SAnode/6933080258
-3.9789297,Mosquée Golf,5.3391939,node/6933080263,0,SAnode/6933080263
-4.0026096,Arrêt,5.3461454,node/6933080262,0,SAnode/6912820418
-4.0515593,Arrêt,5.4890597,node/6915722699,0,SAnode/6915722699
-4.05146,Arrêt,5.4866626,node/6915722698,0,SAnode/6915722697
-3.9529652,Beverly,5.3380134,node/6933080266,0,SAnode/6933080254
-4.0538658,Arrêt,5.4794949,node/6915722695,0,SAnode/6915722695
-4.0859069,Amondji,5.3395197,node/6963093982,0,SAnode/6963093974
-4.0732643,Saint André lavage,5.3415106,node/6963093981,0,SAnode/2460519991
-4.0375561,La Marine,5.3443401,SAnode/6913929664,1,
-4.054497,Arrêt,5.4574448,node/6915722691,0,SAnode/6915722690
-4.0545715,Arrêt,5.4565524,node/6915722690,0,SAnode/6915722690
-4.0540279,Arrêt,5.4662168,node/6915722693,0,SAnode/6915722692
-4.0544278,Arrêt,5.465098,node/6915722692,0,SAnode/6915722692
-4.0550937,La Poste,5.3337753,node/6913190452,0,SAnode/6913190452
-4.0126625,Avenue Ouézzin Coulibaly,5.300639,node/6954138440,0,SAnode/6954138440
-3.9379911,Arrêt,5.3703787,SAnode/6979712514,1,
-3.9828832,Agence Nationale de la Formation Professionnelle (AGEFOP),5.28394,node/6954138442,0,SAnode/6954138442
-3.973057,UTTb Université Loko,5.2870755,node/6954138444,0,SAnode/6954138444
-3.9693475,Marché DjeKonan,5.2892455,node/6954138445,0,SAnode/6954138445
-3.9518099,Arrêt,5.3133129,node/6954138446,0,SAnode/6954138446
-4.0512502,Arrêt,5.4482915,SAnode/6915722688,1,
-4.0485036,PK 18 Agripac,5.4434752,SAnode/6915722687,1,
-4.0709484,2 poteaux,5.3436761,SAnode/3137217828,1,
-4.0007635,Marché de Cocody,5.3355267,node/6907141800,0,SAnode/6907141797
-4.0038072,CIE,5.3384172,node/6907141801,0,SAnode/6907141801
-4.0033954,C.H.U. Treichville,5.2948194,node/6909237619,0,SAnode/6909237619
-4.0274511,Gare Nord,5.3587491,node/6907141803,0,SAnode/6474137946
-4.0177429,Gare Sud,5.3141434,node/6969221530,0,SAnode/6474137967
-4.0798317,Sideci Lem,5.3305385,node/6944816372,0,SAnode/6944816372
-4.0813807,Meygi,5.3270574,node/6944816373,0,SAnode/6944816373
-4.0768933,Sideci Pharmacie Lem,5.3314425,node/6944816371,0,SAnode/6944816371
-4.0806283,Akadjoba,5.3246445,node/6944816374,0,SAnode/6913201899
-3.9898295,Arrêt,5.4042516,SAnode/6910797818,1,
-3.9911934,Saint Ambroise,5.4070126,SAnode/6910797819,1,
-4.0205256,Terminus Hotel de Ville,5.3226907,SAnode/6136858285,1,
-4.0364602,Terminus 02 Cité Fairmont,5.3582206,SAnode/6909237633,1,
-4.0319963,Station Petro Ivoire,5.358876,SAnode/6909237632,1,
-3.9654422,Mairie Port-Bouët,5.2597086,SAnode/6951127813,1,
-3.9834323,Groupe Scolaire N'Sikan,5.2632614,SAnode/6909521604,1,
-3.9687383,Pharmacie Baltique,5.2595919,SAnode/6951127815,1,
-3.9956283,arrêt,5.2558751,SAnode/6909521606,1,
-3.9989162,Gestoci,5.26373,SAnode/6909521607,1,
-4.0062621,Pont de Vridi,5.2704314,SAnode/6909521608,1,
-4.0143099,"Etablissements Rey, Port",5.2978357,SAnode/6909521609,1,
-4.0206447,Complexe,5.3489387,SAnode/6903535584,1,
-3.9051327,Mosquée,5.2407648,node/6935488172,0,SAnode/6935488172
-3.9115848,Add a name to the stop with JungleBus app,5.2417851,node/6935488171,0,SAnode/6935488171
-3.9170243,Add a name to the stop with JungleBus app,5.2426599,node/6935488170,0,SAnode/6935488170
-4.0207171,Arrêt,5.3257514,SAnode/6969583483,1,
-4.0235066,Gare Williamsville,5.3670874,node/6908914500,0,SAnode/6907121506
-4.0147115,Add a name to the stop with JungleBus app,5.43182,SAnode/6908782549,1,
-4.0173344,Saint-Joseph 2ème Arrêt,5.4183764,node/6474138992,0,SAnode/6474138992
-4.0203886,DGI Abobo,5.4363436,node/6474138995,0,SAnode/6474138995
-4.020231,Bar Ivoire Abobo,5.4315506,node/6474138994,0,SAnode/6474138994
-4.0138587,Carrefour Akeïkoi,5.4383936,node/6474138997,0,SAnode/6474138997
-3.9952144,Arrêt,5.3797969,node/6916280445,0,SAnode/6916280445
-4.0190673,Terminus Gare Sud,5.3149589,node/6474138999,0,SAnode/6474138999
-4.0258452,Marché Forum,5.3459921,node/6474137984,0,SAnode/6474137984
-4.0164004,Adjamé Liberté,5.3543459,SAnode/6899241577,1,
-4.0214171,Lavage,5.3845867,SAnode/6899241575,1,
-4.0159966,Mobil,5.4142627,SAnode/6899241574,1,
-4.0174383,Abobo Gare Mairie,5.4200067,SAnode/6899241573,1,
-3.9117702,Feh Kessé,5.3743039,node/6969371620,0,SAnode/6969371620
-4.0155634,Carrefour 2 plateaux,5.3659384,node/6906590694,0,SAnode/6906575631
-4.0162927,Adajmé Liberté,5.3546002,node/6906590695,0,SAnode/6906590695
-4.0063152,Chaîne avion,5.4101483,node/6906590692,0,SAnode/6906590692
-4.0063867,1ere Boutique,5.4073533,node/6906590693,0,SAnode/6906590693
-4.0068417,Samake,5.41527,node/6906590691,0,SAnode/6903406997
-3.9767155,Ambassade des USA,5.335819,node/6820855646,0,SAnode/6820855646
-3.9728877,Hotel du Golf,5.3309825,node/6820855647,0,SAnode/6820855647
-3.9730064,Hotel du Golf,5.3310297,node/6820855648,0,SAnode/6820855647
-3.9579229,Ex Terminus Sotra;Carrefour Sol Beni,5.3312498,node/6820855649,0,SAnode/6820855649
-4.0375583,Terminus Cité Fairmont,5.3585383,SAnode/6909108442,1,
-4.0884501,Pharmacie Port-Bouët II,5.3470567,node/3666057101,0,SAnode/3666057101
-3.9543311,Arrêt,5.2857761,node/6931792548,0,SAnode/6931792548
-4.0117713,Pharmacie du Rond-point,5.3074119,node/6931792543,0,SAnode/6905719610
-4.0071049,ETS SR,5.3090558,node/6931792544,0,SAnode/6905719611
-3.9672808,Centre comercial Koumassi,5.2889971,node/6931792545,0,SAnode/6931792545
-3.9622262,Arrêt,5.2839293,node/6931792546,0,SAnode/6931792546
-3.9586401,Pharmacie Bethanie,5.2847439,node/6931792547,0,SAnode/6931792547
-4.0033565,Arrêt du CHU,5.295662,node/6945864860,0,SAnode/6916152426
-4.0438735,Arrêt,5.4392603,SAnode/6934648740,1,
-3.9803499,Petite Mosquée Riviéra Jardin,5.3516026,node/6928250859,0,SAnode/6928179126
-3.979568,Riviéra 2,5.3531115,node/3145728412,0,SAnode/3145728412
-4.01577883717,Gare Lagunaire de Treichville,5.31052310396,SAway/336759026,1,
-4.0007588,Monastère,5.4156503,SAnode/6903504059,1,
-3.9837323,Arrêt,5.4035247,SAnode/6915341518,1,
-3.9421921,Arrêt Dr08,5.2516684,node/6961370880,0,SAnode/6961370880
-3.9410589,Cité ASECNA,5.2543801,node/6961370881,0,SAnode/6952132240
-4.0217525,Cité Administrative,5.3335937,node/6969620785,0,SAnode/6909812227
-4.0849641,Carrefour Zone,5.3572641,SAnode/6909812228,1,
-4.0239378,Cité Administrative,5.3309411,SAnode/6909812227,1,
-3.9481486,Centre Médico-social,5.3097742,SAnode/6952200469,1,
-4.0039817,Arrêt de bus 94;Carrefour St Jean,5.3369029,SAnode/5057297311,1,
-4.0085859,Arrêt,5.3493597,node/6927327311,0,SAnode/6927327304
-3.9393644,Pharmacie,5.3355172,node/6948222236,0,SAnode/6903347579
-4.0136415,Arrêt,5.4493063,SAnode/6934922726,1,
-4.0143429,Arrêt,5.4446991,SAnode/6934922727,1,
-4.0109827,Abobo Akeikoi Village,5.4604925,SAnode/6934922723,1,
-4.0141618,Arrêt,5.4400103,SAnode/6934922728,1,
-4.0912463,Arret du Maroc,5.3396157,node/3067761599,0,SAnode/3067761599
-3.9368539,Arrêt,5.3328633,node/6948222237,0,SAnode/6948222237
-3.9643623,Station Shell Riviera 3,5.3582581,node/5953580668,0,SAnode/5953580668
-3.9593077,Carrefour Palmeraie,5.3618751,node/5953580667,0,SAnode/5953580667
-3.967352,Pharmacie Val de Grace,5.3802448,node/5953580661,0,SAnode/5953580661
-4.0171632,Cours socio éducatif,5.3491257,SAnode/6908914486,1,
-4.0160582,Add a name to the stop with JungleBus app,5.357415,SAnode/6908914485,1,
-3.9897184,Chimtec Grand carrefour Marcory,5.3008419,node/6819329285,0,SAnode/6819329285
-3.9494388,Gare Mesano,5.3001329,node/6917146073,0,SAnode/6917146073
-3.9902179,Boulevard de France,5.3347766,SAnode/5954541439,1,
-3.9971908,Arrêt,5.3470894,SAnode/6927701716,1,
-4.0250561,Mirador,5.3567305,SAnode/6927600977,1,
-3.9498433,CIAD,5.3286164,SAnode/5954541435,1,
-3.9608221,Arrêt,5.2975636,node/6917146070,0,SAnode/6917146069
-3.9611265,Sation Lavage,5.2840528,SAnode/6955038707,1,
-3.9531577,Koumassi Soweto - Dépôt 5,5.2859504,SAnode/6955038705,1,
-3.9428439,Akwaba,5.3385917,node/6948222235,0,SAnode/6948222235
-4.0734252,Côte d'Ivoire-Telecom,5.3344863,SAnode/6910224906,1,
-3.9867521,Cap Sud,5.2988832,SAnode/6832290086,1,
-4.0205671,Église Méthodiste Unie de Côte d'Ivoire,5.3299678,node/6831076678,0,SAnode/6831076678
-4.0026914,Pharmacie les 7 Colonnes,5.3455151,SAnode/6948466345,1,
-3.9285967,Nouveau Goudron,5.372677,SAnode/6948466343,1,
-3.8903531,Sous-Prefecture de Bingerville,5.3576379,SAnode/6948466341,1,
-3.9668678,Centre Commercial Koumassi,5.2889304,node/6935274808,0,SAnode/6935274808
-4.0043772,Lycée Classique d'Abidjan,5.3317315,SAnode/6912410269,1,
-3.9973538,Maison du Parti,5.3350719,SAnode/6913703799,1,
-3.9970399,UCAO,5.3310059,SAnode/6913703798,1,
-3.9854582,CIE,5.2577882,node/6910272312,0,SAnode/6909521605
-3.9781939,Marché COCOVICO,5.4010482,node/6815808844,0,SAnode/6815808844
-3.9587098,Pharmacie du bonheur,5.3698807,node/6815808845,0,SAnode/6815808845
-3.9977011,CNTG-BNETD,5.329485,SAnode/6913703797,1,
-4.0082677,Siège SOTRA,5.2865574,node/6945458783,0,SAnode/6909546912
-3.9618581,Quick Market,5.3737728,node/6815808840,0,SAnode/6815808839
-3.9635563,Commissariat 35è Art.,5.3776142,node/6815808842,0,SAnode/6815808842
-3.9745308,CNPS 9ème Tranche,5.3866021,node/6815808843,0,SAnode/6815808833
-4.0066168,Arrêt,5.3801858,SAnode/6927037617,1,
-4.0056726,Arrêt,5.3875774,SAnode/6927037616,1,
-4.0057893,Arrêt,5.3930717,SAnode/6927037615,1,
-4.0064518,Arrêt,5.4013897,SAnode/6927037614,1,
-4.0063405,Arrêt,5.408251,SAnode/6927037612,1,
-3.9667035,Carrefour Ancien Koumassi,5.2768282,node/6935274809,0,SAnode/6935274809
-3.9253854,Arrêt,5.3584311,SAnode/6948855823,1,
-4.0168427,Arrêt,5.3625903,SAnode/6927037618,1,
-3.9289306,Cité Millenium,5.3717967,SAnode/6948855822,1,
-4.0236072,Terminus tours Administratives,5.3314011,node/6935113687,0,SAnode/6474137956
-4.0240914,Arrêt,5.4306528,node/6935113685,0,SAnode/6905344267
-3.9482653,Arrêt,5.3652007,SAnode/6970366282,1,
-3.981013,Échangeur Marcory,5.2959351,node/6906596967,0,SAnode/6906596967
-3.9940546,Las Palmas,5.3809502,node/6912820409,0,SAnode/6912729884
-3.9225573,Oribat Cité Don Mello,5.3397928,SAnode/6948855827,1,
-4.1035223,Banque BNI,5.3296893,SAnode/6919312947,1,
-4.0439746,Pharmacie Chenain,5.3198693,node/6910755182,0,SAnode/6910755182
-4.0512502,Arrêt,5.4482915,node/6915722688,0,SAnode/6915722688
-4.0529903,Arrêt,5.4503535,node/6915722689,0,SAnode/6915722688
-4.0538658,Arrêt,5.4794949,SAnode/6915722695,1,
-3.9226348,Arrêt,5.3329467,SAnode/6948855828,1,
-4.0446977,Anokoi,5.4390733,node/6915722686,0,SAnode/6903525054
-4.0485036,PK 18 Agripac,5.4434752,node/6915722687,0,SAnode/6915722687
-4.0266778,Arrêt,5.4333404,node/6915722685,0,SAnode/6905344267
-3.9829561,Arrêt,5.403643,node/6915341548,0,SAnode/6915341518
-3.9807645,Arrêt,5.4033522,node/6915341549,0,SAnode/6910797796
-3.9932262,Arrêt,5.409531,node/6915341546,0,SAnode/6910797820
-3.990564,Petro Ivoire,5.4050885,node/6915341547,0,SAnode/6912820391
-3.9947036,Arrêt,5.4148205,node/6915341544,0,SAnode/6910797820
-3.9952879,Arrêt,5.4141247,node/6915341545,0,SAnode/6910797820
-3.9922122,Arrêt,5.4158878,node/6915341542,0,SAnode/6915341541
-3.9928597,Arrêt,5.4154923,node/6915341543,0,SAnode/6915341541
-3.9907254,Arrêt,5.4195345,node/6915341540,0,SAnode/6915341538
-3.9909298,Arrêt,5.4182159,node/6915341541,0,SAnode/6915341541
-3.9251152,Add a name to the stop with JungleBus app,5.2437256,node/6935494503,0,SAnode/6935488169
-3.9216458,Add a name to the stop with JungleBus app,5.243186,node/6935494502,0,SAnode/6935488169
-3.9156765,Pharmacie Santé Pour Tous,5.2422365,node/6935494501,0,SAnode/6935494501
-3.9104489,Add a name to the stop with JungleBus app,5.2414058,node/6935494500,0,SAnode/6935488171
-3.9541125,Add a name to the stop with JungleBus app,5.2492331,node/6935494507,0,SAnode/6935494507
-3.9372025,Rue K73,5.2456701,node/6935494505,0,SAnode/6935494505
-3.9298091,NO FLY ZONE,5.2444775,node/6935494504,0,SAnode/6935494504
-4.0065188,Palais des Sports,5.299118,node/6935494509,0,SAnode/6935494509
-3.9579213,43ème Bima,5.2573475,node/6935494508,0,SAnode/6935274810
-3.9820156,Chateau d'eau d'Angré,5.4121523,SAnode/5957239660,1,
-3.9908227,Petro Ivoire Angré,5.4046007,SAnode/5957239661,1,
-3.8841063,Hôpital Mère-Enfant de Bingerville,5.360674,SAnode/6930917959,1,
-4.0706693,Arrêt,5.4485133,node/6938324881,0,SAnode/6938324880
-4.0713693,Arrêt,5.4517454,node/6938324880,0,SAnode/6938324880
-4.0681963,Arrêt,5.4435135,node/6938324883,0,SAnode/6934648714
-4.0696567,Arrêt,5.4441757,node/6938324882,0,SAnode/6934648714
-4.0217286,Siège Port Autonome Abidjan,5.3033621,SAnode/6909737825,1,
-3.986865,Arrêt,5.3034286,node/6952200471,0,SAnode/6917151685
-4.0063867,1ere Boutique,5.4073533,SAnode/6906590693,1,
-4.0162927,Adajmé Liberté,5.3546002,SAnode/6906590695,1,
-3.9855715,Arrêt,5.3027926,node/6952200476,0,SAnode/6917151685
-3.9972693,Pharmacie Sainte Monique,5.3994417,SAnode/6934815688,1,
-4.0008152,Station Petro Ivoire,5.3997942,SAnode/6934815689,1,
-4.0095509,Port Autonome Abidjan,5.2945614,SAnode/6909737826,1,
-4.0212547,Port Autonome Abidjan,5.3029759,node/6909546915,0,SAnode/6909546915
-3.9960703,Superette Akwaba,5.3994163,SAnode/6934815685,1,
-3.9916373,22ème,5.3979664,SAnode/6934815686,1,
-4.0120606,"Avenue 10, Rue 12, Treichville",5.3062141,SAnode/6909737822,1,
-4.0141223,Quincaillerie Générale,5.3023437,SAnode/6909237625,1,
-4.0150089,Arrêt,5.3049356,SAnode/6909237626,1,
-4.0106347,Pain chaud,5.4169293,node/6906699469,0,SAnode/6906699469
-4.0062842,ANADER,5.4121402,node/6906699468,0,SAnode/6906575638
-4.0063445,Arrêt Dokui,5.3968689,node/6906699467,0,SAnode/6902639005
-4.0065122,Arrêt Dokui,5.3967647,node/6906699466,0,SAnode/6902639005
-4.0054621,Carrefour Église,5.3898979,node/6906699465,0,SAnode/6906575635
-4.0116794,Paillet,5.3723989,node/6906699464,0,SAnode/6906575633
-4.0065336,1ere Boutique,5.4074152,node/6906699463,0,SAnode/6906590693
-4.0069936,ZOO,5.3790616,node/6906699462,0,SAnode/6902868242
-4.0168128,Willy Agban,5.3633371,SAnode/6902868239,1,
-4.0041834,"Parc des Sports, Boulevard Valéry Giscard d'Estaing",5.2983706,node/6935488165,0,SAnode/6935488165
-3.9445075,Carrefour Aéroport,5.2470403,node/6935488166,0,SAnode/6935488166
-3.9295542,Add a name to the stop with JungleBus app,5.2446806,node/6935488167,0,SAnode/6935488167
-3.9379911,Supermarché Carrefour Faya,5.3701704,SAnode/6930917970,1,
-4.0263861,Macaci,5.3765774,node/6474138988,0,SAnode/6474137944
-4.021035,Filtisac,5.3906844,node/6474138989,0,SAnode/6474138989
-4.0259071,Grande Mosquée Adjamé,5.3534527,node/6474138986,0,SAnode/6474137950
-4.028099,Gare Nord,5.3586829,node/6474138987,0,SAnode/6474137946
-4.0255664,Pharmacie du Banco,5.3503682,node/6474138985,0,SAnode/6474138985
-3.925598,Add a name to the stop with JungleBus app,5.2440381,node/6935488168,0,SAnode/6935488167
-3.922044,Add a name to the stop with JungleBus app,5.2434545,node/6935488169,0,SAnode/6935488169
-4.014638,Q 58,5.429723,SAnode/6908782550,1,
-3.9978676,Cité des Arts,5.3450487,SAnode/6908782552,1,
-3.993895,université méthodiste de Côte D'Ivoire,5.3466283,SAnode/6908782553,1,
-4.0087358,AMI sn,5.2657115,node/6945864859,0,SAnode/6945864859
-4.0260496,Mairie d'Adjamé,5.343713,node/6474137983,0,SAnode/6474137954
-4.026107,Institut National de la Santé Publique,5.3386571,node/6474137982,0,SAnode/6474137982
-4.0247204,Camp Galliéni,5.3339569,node/6474137981,0,SAnode/6474137981
-4.0197472,Galerie du Parc,5.3225013,node/6474137980,0,SAnode/6474137980
-4.080812,Sideci Lem - Carrefour Sgbci,5.330154,SAnode/6944934859,1,
-4.0411411,Nouvelle Gare,5.4382834,SAnode/6903602221,1,
-4.0678543,Arrêt,5.4912933,SAnode/6938324870,1,
-4.0041632,Terminus CHU de Treichville,5.2949229,node/6948791226,0,SAnode/4999458824
-3.9456984,Camp Millitaire d'Akouédo,5.3671088,node/6930917971,0,SAnode/6930917946
-4.0013589,Banque Mondiale,5.3278237,node/6907141799,0,SAnode/6907141799
-4.0441328,Bon choix,5.3134744,node/6913190443,0,SAnode/6910755184
-3.9761267,Arrêt,5.3530707,node/6928250861,0,SAnode/6928250861
-3.9808642,Arrêt,5.4127978,SAnode/6932253478,1,
-3.9657399,Arrêt,5.3991713,node/6910797809,0,SAnode/6910797809
-3.960527,Arrêt,5.4011774,node/6910797808,0,SAnode/6910797807
-4.0149536,arrêt,5.305135,SAnode/6909108450,1,
-3.9902017,Services Techniques du District,5.29123,SAnode/6909108451,1,
-3.9649835,Cité Diaspora,5.4000986,node/6910797801,0,SAnode/6910797801
-3.971504,Arrêt,5.3946558,node/6910797800,0,SAnode/6910797800
-3.9620463,SOCIAM,5.4022965,node/6910797803,0,SAnode/6910797802
-3.9621642,SOCIAM,5.4025338,node/6910797802,0,SAnode/6910797802
-4.0022783,Arrêt,5.4154527,node/6910797805,0,SAnode/6910797792
-3.9570893,CHU Angré,5.399963,node/6910797804,0,SAnode/6910797804
-3.9592423,Arrêt,5.4003923,node/6910797807,0,SAnode/6910797807
-3.9570173,CHU Angré,5.3997812,node/6910797806,0,SAnode/6910797804
-4.0725361,Add a name to the stop with JungleBus app,5.3618139,node/6961643500,0,SAnode/6909225529
-4.0747274,Arrêt,5.3403236,SAnode/6963093977,1,
-4.0050815,Collège Bosco,5.3059215,SAnode/6909546917,1,
-4.0739322,Arrêt,5.4644949,node/6938324877,0,SAnode/6938324876
-4.0212547,Port Autonome Abidjan,5.3029759,SAnode/6909546915,1,
-4.0131528,Ciment Bélier,5.296841,SAnode/6909546914,1,
-4.008424,Arrêt,5.292271,SAnode/6909546913,1,
-4.008455,Siège SOTRA,5.2864977,SAnode/6909546912,1,
-4.0084685,Bolloré,5.2821643,SAnode/6909546911,1,
-4.0085496,PALM-CI,5.277976,SAnode/6909546910,1,
-3.9953781,Hyundai,5.2911365,SAnode/6952132250,1,
-4.0181436,Gare Sud,5.3147296,node/6963093979,0,SAnode/6474137967
-4.0737135,Gare Yopougon Kouté,5.3295615,node/6913929669,0,SAnode/6909923477
-4.0376761,La Marine,5.3441859,node/6913929668,0,SAnode/6913929664
-3.9606719,Arrêt,5.3550168,SAnode/6932239016,1,
-4.0262003,Sitarail,5.3278599,node/6913929665,0,SAnode/6913011676
-4.0375561,La Marine,5.3443401,node/6913929664,0,SAnode/6913929664
-4.0182404,Gare Sud,5.3146272,node/6913929666,0,SAnode/6474137967
-3.9957435,Pharmacie Santé Publique,5.2914467,SAnode/6909039471,1,
-3.9984496,PTT Km4,5.2927793,SAnode/6909039470,1,
-4.1051263,T27,5.3273952,SAnode/6909812236,1,
-4.0239746,Immeuble Sogephia Hévéa,5.3282245,SAnode/6905772460,1,
-4.0245113,Musée du Plateau,5.3337809,SAnode/6905772461,1,
-4.0147611,Lycée Moderne d'Abobo,5.4286546,SAnode/6908618078,1,
-3.9813021,Terminus 202 Attoban,5.3701109,SAnode/5958266388,1,
-4.0016802,Nostalgie,5.3015791,SAnode/6924851829,1,
-4.0006757,Treichville Entente,5.3028704,SAnode/6924851828,1,
-4.0115547,FIESTA,5.3047639,SAnode/6924851826,1,
-4.0106321,"Avenue 19, Rue 12, Treichville",5.3023336,SAnode/6924851825,1,
-3.9975737,Terminus Vridi-Iran,5.2563753,node/6928681599,0,SAnode/6928681599
-4.0503167,Commissariat de Police du 19ᵉ Arrondissement,5.3270841,node/6913190449,0,SAnode/6913190449
-4.0217619,Cité Administrative,5.3331177,node/6955514933,0,SAnode/6909812227
-3.9596674,Arrêt Pharmacie Palmeraie,5.3635871,node/6964502135,0,SAnode/6955514934
-3.9718473,Station Service Oilibya Petit Bassam,5.2578469,SAnode/7025968250,1,
-4.0039185,Makan Traoré,5.4213432,SAnode/6903296479,1,
-3.984628,Pharmacie Massarana,5.2996014,SAnode/6955038710,1,
-4.011717,Mosquée,5.4221255,SAnode/6903296476,1,
-4.0060106,Carrefour Kennedy,5.4186623,SAnode/6903296477,1,
-4.0741883,Siporex après le feu,5.3540928,SAnode/6910224910,1,
-4.0038072,CIE,5.3384172,SAnode/6907141801,1,
-4.016671,Arrêt,5.3233545,SAnode/6966849451,1,
-4.0207447,Saint Paul Plateau,5.3247785,node/6098848385,0,SAnode/6098848385
-4.018979,Terminus Gare Sud,5.3149603,node/6926746688,0,SAnode/6474138999
-4.0842976,Arrêt,5.4014804,node/6934648731,0,SAnode/6934648720
-4.0157926,Warafa Assurance,5.321664,SAnode/6948706680,1,
-4.0152582,Arrêt Résidence Nabil,5.3184017,SAnode/6948706681,1,
-4.0092923,Pharmacie Alpha 16,5.3044274,SAnode/6948706682,1,
-3.9968976,INSAAC,5.3456864,SAnode/6908618074,1,
-4.006092,Biafra,5.3126563,node/6904171080,0,SAnode/6904171080
-3.9933399,Banque Atlantique,5.3076251,node/6904171081,0,SAnode/6904171081
-4.0047695,Hotel Ivoire 2,5.3286968,SAnode/6912410270,1,
-3.9897537,Arc en ciel,5.3653222,SAnode/6935117223,1,
-3.9858381,Commissariat du 9 ème,5.3064581,node/6904171084,0,SAnode/6904171084
-4.0732432,Saint André lavage,5.3423485,node/2460519991,0,SAnode/2460519991
-4.0884501,Pharmacie Port-Bouët II,5.3470567,SAnode/3666057101,1,
-3.9897184,Chimtec Grand carrefour Marcory,5.3008419,SAnode/6819329285,1,
-3.9807703,Arrêt,5.443381,node/6926746766,0,SAnode/6915341526
-3.964494,Boulevard du Caire,5.2919737,SAnode/6906596969,1,
-3.981013,Échangeur Marcory,5.2959351,SAnode/6906596967,1,
-4.0044435,Karwil,5.3054677,SAnode/6906596962,1,
-4.0678369,Lycée Moderne Yopougon Andokoi,5.3621938,node/6909430721,0,SAnode/6909225542
-3.9005903,Terminus Gonzagueville,5.2402774,node/6935494488,0,SAnode/6935494488
-4.0094613,Arrêt,5.3042605,node/6952200472,0,SAnode/6937770645
-3.9905681,Arrêt,5.4208149,node/6915341539,0,SAnode/6915341538
-3.9902515,Arrêt,5.4229496,node/6915341538,0,SAnode/6915341538
-3.9883619,Arrêt,5.434457,node/6915341533,0,SAnode/6915341531
-3.987991,Arrêt,5.4356843,node/6915341532,0,SAnode/6915341531
-3.9875153,Arrêt,5.4368688,node/6915341531,0,SAnode/6915341531
-3.9859783,Arrêt,5.4391313,node/6915341530,0,SAnode/6915341528
-3.9896961,Arrêt,5.4264243,node/6915341537,0,SAnode/6915341520
-3.9892581,Arrêt,5.4293215,node/6915341536,0,SAnode/6915341520
-3.9889419,Arrêt,5.4312302,node/6915341535,0,SAnode/6915341520
-3.9887503,Arrêt,5.4327625,node/6915341534,0,SAnode/6915341520
-4.0149692,Avenue Christiani,5.3101948,node/6935494511,0,SAnode/6935494511
-4.0532829,Arrêt,5.5053444,node/6915722716,0,SAnode/6915722715
-4.0170398,Quai Ouest (Q6-Q14),5.3002851,SAnode/6928704113,1,
-3.9694119,Holy Pressing,5.2883388,node/6931273199,0,SAnode/6931273199
-3.9684516,Rue H11,5.2873493,node/6931273198,0,SAnode/6931273198
-3.9651793,Rue Raoul Follereau,5.2875055,node/6931273197,0,SAnode/6931273197
-3.964256,Caritas de la Sainte Trinité de Koumassi,5.2849829,node/6931273196,0,SAnode/6931273196
-4.0116929,Pharmacie du Rond-point,5.3073425,node/6905719610,0,SAnode/6905719610
-4.0279602,Gare Nord,5.3591167,node/6909237631,0,SAnode/6474137946
-4.0364602,Terminus 02 Cité Fairmont,5.3582206,node/6909237633,0,SAnode/6909237633
-4.0069793,ETS SR,5.3090218,node/6905719611,0,SAnode/6905719611
-4.0160546,Cours Sociaux,5.4383593,node/6905772466,0,SAnode/6474137925
-4.0245113,Musée du Plateau,5.3337809,node/6905772461,0,SAnode/6905772461
-3.9495367,Arrêt,5.3091986,node/6952200468,0,SAnode/6952200468
-3.9809279,Angré Château,5.4128518,SAnode/6932253483,1,
-4.0043543,Paroisse Notre-Dame de Treichville,5.3048828,node/6905719613,0,SAnode/6905719613
-3.952005,Akromiambla-Terminus 32 Koumassi,5.3118954,node/6952200477,0,SAnode/6952200477
-4.0623618,Complexe sportif de Yopougon,5.3415133,node/5739489700,0,SAnode/5739489700
-3.9220896,Arrêt,5.3417243,node/6948920961,0,SAnode/6948920961
-4.0175371,Arrêt,5.3536864,node/6927600976,0,SAnode/6927037628
-4.0250561,Mirador,5.3567305,node/6927600977,0,SAnode/6927600977
-3.9227374,Arrêt,5.3329487,node/6948920960,0,SAnode/6948855828
-3.9985338,SNEDAI,5.3755833,node/6912729882,0,SAnode/6912729882
-3.9931172,Banque Atlantique,5.3075214,node/6905719616,0,SAnode/6904171081
-3.9976312,Carrefour Duncan,5.3776569,node/6912729883,0,SAnode/5957239664
-3.9887868,Hôtel Hamanieh,5.3049722,node/6905719617,0,SAnode/6904171082
-4.0882243,Arrêt,5.3551851,node/6966758104,0,SAnode/6966758104
-3.9985198,BOA,5.3745478,node/6912729881,0,SAnode/6912729881
-3.9847286,Station Shell,5.308097,node/6905719619,0,SAnode/6905719619
-4.0039817,Arrêt de bus 94;Carrefour St Jean,5.3369029,node/5057297311,0,SAnode/5057297311
-4.0236086,Terminus tours Administratives,5.3311928,node/6926943112,0,SAnode/6474137956
-4.0046641,Pharmacie Notre-Dame,5.3034579,node/6926943110,0,SAnode/6926943110
-4.0159368,Abobo Mairie,5.4197017,node/6906699471,0,SAnode/6906699471
-4.0156192,Abobo Mairie,5.4197512,node/6906699472,0,SAnode/6906699471
-4.0059154,Terminus dépôt SOTRA,5.2875728,node/6939076692,0,SAnode/6916152424
-4.0804794,Ben,5.3237979,SAnode/6910755171,1,
-4.0718266,Iris3,5.3255738,SAnode/6910755173,1,
-4.0764964,Marejea,5.3255979,SAnode/6910755172,1,
-4.0802502,Yopougon Sideci - Terminus 42,5.3198733,SAnode/6910755174,1,
-4.0615042,L'usine du camp,5.3236042,SAnode/6910755177,1,
-4.0667291,Marché Kouté,5.3242746,SAnode/6910755176,1,
-4.0535085,Le petit soleil,5.3222355,SAnode/6910755179,1,
-4.0577316,Stenb,5.3236336,SAnode/6910755178,1,
-4.0049374,Feu du Collège Bosco,5.3058324,node/6909737821,0,SAnode/6909737821
-4.0761933,Marejea,5.325455,node/6919327591,0,SAnode/6910755172
-4.0710314,Carrefour Kouté,5.3251706,node/6919327590,0,SAnode/6919327590
-4.0818366,Akadjoba,5.3238646,node/6919327593,0,SAnode/6913201899
-4.0976496,Carrefour de Niangon,5.327729,node/6919327595,0,SAnode/6919312949
-4.0914322,Arrêt,5.3264405,node/6919327594,0,SAnode/6919327594
-4.1035169,Top Qualitée,5.3295851,node/6919327597,0,SAnode/6919327597
-4.1005786,Le repère,5.3283566,node/6919327596,0,SAnode/6919312948
-4.1063239,Cité Bracodi Rte Cité verte,5.3307695,node/6919327598,0,SAnode/6919312946
-4.0147611,Lycée Moderne d'Abobo,5.4286546,node/6908618078,0,SAnode/6908618078
-3.965754,District de Port-Bouet,5.2584759,SAnode/6935274813,1,
-3.9968976,INSAAC,5.3456864,node/6908618074,0,SAnode/6908618074
-4.016795,EPV Konaté,5.427395,node/6908618077,0,SAnode/6908618077
-4.0783779,Arrêt,5.413004,SAnode/6934648719,1,
-4.068663,Arrêt,5.4321434,SAnode/6934648717,1,
-4.0679455,Arrêt,5.4433733,SAnode/6934648714,1,
-4.0603428,Arrêt,5.4435976,SAnode/6934648712,1,
-4.0538116,Arrêt,5.4438112,SAnode/6934648711,1,
-4.0658437,Sable,5.3556761,node/6913857608,0,SAnode/6910743313
-4.0255438,Sitarail,5.3266074,SAnode/6913011676,1,
-3.9466942,Patisserie MC,5.3109106,SAnode/6919758040,1,
-4.0802555,Sideci Matignon,5.3218817,SAnode/6934872151,1,
-3.9793174,Garage,5.3658448,SAnode/6903639369,1,
-4.061373,Terminus 85,5.3296306,SAnode/4411562346,1,
-3.978471,Arrêt,5.4022415,node/6910797816,0,SAnode/6910797796
-3.9794534,BICICI,5.4029505,node/6910797817,0,SAnode/6910797795
-3.9772754,Arrêt,5.3963101,node/6910797814,0,SAnode/6910797798
-3.9781552,Arrêt,5.4003569,node/6910797815,0,SAnode/6910797796
-3.9754415,Arrêt,5.3929368,node/6910797812,0,SAnode/6910797798
-3.9769683,Arrêt,5.3954823,node/6910797813,0,SAnode/6910797798
-3.9689626,Arrêt,5.3964463,node/6910797810,0,SAnode/6910797800
-3.9736088,Arrêt,5.3933681,node/6910797811,0,SAnode/6910797800
-3.975412,Arrêt,5.3470921,SAnode/6948695735,1,
-3.9758237,Arrêt,5.3396564,SAnode/6948695732,1,
-3.9898295,Arrêt,5.4042516,node/6910797818,0,SAnode/6910797818
-3.9911934,Saint Ambroise,5.4070126,node/6910797819,0,SAnode/6910797819
-4.0806585,Terrain Sogefiha,5.3372711,SAnode/6913190461,1,
-3.9347483,Résidence Genie 2000,5.3712573,SAnode/6930917948,1,
-3.928193,Arrêt,5.3687351,node/6979712513,0,SAnode/6979712513
-3.9268023,Arrêt,5.3635464,node/6979712512,0,SAnode/6979712512
-3.9265072,Arrêt,5.3622665,node/6979712511,0,SAnode/6948855823
-3.9262769,Arrêt,5.361425,node/6979712510,0,SAnode/6948855823
-3.9223344,Arrêt,5.3449917,node/6979712517,0,SAnode/6948920961
-3.9227716,Arrêt,5.3470093,node/6979712516,0,SAnode/6948920963
-3.9279167,Arrêt,5.3679286,node/6979712515,0,SAnode/6979712513
-3.9379911,Arrêt,5.3703787,node/6979712514,0,SAnode/6979712514
-3.9221104,Arrêt,5.3413324,node/6979712519,0,SAnode/6948920961
-3.9218402,Arrêt,5.3428352,node/6979712518,0,SAnode/6948920961
-4.0008245,Treichville Entente,5.3032777,node/6924979794,0,SAnode/6924851828
-4.0062426,Pharmacie de l'Avenue 27,5.3029946,node/6924979792,0,SAnode/6924979792
-4.0106307,"Avenue 19, Rue 12, Treichville",5.3025272,node/6924979791,0,SAnode/6924851825
-3.9839517,Gare Marcory,5.3088083,node/6904188585,0,SAnode/6904188585
-3.9978983,Vridi-Iran,5.2588247,SAnode/6909546908,1,
-4.0031425,"CPMA, Vridi",5.2676512,SAnode/6909546909,1,
-3.9642432,Nouveau Marché Port-Bouët,5.2574824,SAnode/6935274812,1,
-3.945225,Terminus 05 Lycée Municipal de Koumassi,5.3121324,node/2760843854,0,SAnode/2760843854
-4.0737471,Arrêt,5.4679499,node/6938324876,0,SAnode/6938324876
-3.9818252,Pharmacie Vridi Port,5.259526,SAnode/6909546906,1,
-3.9892306,Stade de la SIR,5.2571616,SAnode/6909546907,1,
-3.9409603,Cité ASECNA,5.2544028,SAnode/6952132240,1,
-3.947171,Maquis 5 sur 5,5.247278,SAnode/6952132243,1,
-3.9627318,PN Silove,5.266498,SAnode/6952132245,1,
-3.9751598,Église Notre Dame d'Afrique,5.2726637,SAnode/6952132246,1,
-3.9878091,Paul,5.2879034,SAnode/6952132247,1,
-3.9914958,drocolor,5.2895653,SAnode/6952132248,1,
-3.9930183,Sacri,5.2899777,SAnode/6952132249,1,
-4.0106347,Pain chaud,5.4169293,SAnode/6906699469,1,
-4.0202491,Camp Commando,5.4355472,SAnode/6474137929,1,
-4.0697157,Arrêt,5.4842033,node/6938324872,0,SAnode/6938324872
-4.0125445,BICICI,5.4363696,SAnode/6474137923,1,
-4.0144508,Gare Abobo Sogephia,5.4351428,SAnode/6474137921,1,
-4.0709844,Arrêt,5.4791892,node/6938324873,0,SAnode/6938324873
-4.019424,Avenue Kaza,5.4381179,SAnode/6474137927,1,
-4.0147435,Cours Sociaux,5.4382745,SAnode/6474137925,1,
-4.0318263,Petro Ivoire,5.3589877,SAnode/6909039462,1,
-4.0203886,DGI Abobo,5.4363436,SAnode/6474138995,1,
-4.020231,Bar Ivoire Abobo,5.4315506,SAnode/6474138994,1,
-3.979157,Arrêt,5.3643008,SAnode/6970095635,1,
-4.0173344,Saint-Joseph 2ème Arrêt,5.4183764,SAnode/6474138992,1,
-4.0219475,Saint Paul,5.3251603,SAnode/6905772459,1,
-3.9451392,Pharmacie Campement,5.3050831,node/6926943108,0,SAnode/6926943108
-3.9866585,DGI,5.3924174,SAnode/6970095639,1,
-3.9858381,Commissariat du 9 ème,5.3064581,SAnode/6904171084,1,
-4.0046789,CHU,5.2958623,SAnode/6909039469,1,
-3.9888629,Hôtel Hamanieh,5.3052787,SAnode/6904171082,1,
-3.9869873,Sainte Thérèse,5.3043423,SAnode/6904171083,1,
-4.006092,Biafra,5.3126563,SAnode/6904171080,1,
-3.9933399,Banque Atlantique,5.3076251,SAnode/6904171081,1,
-4.0607049,Add a name to the stop with JungleBus app,5.3278586,SAnode/6933043355,1,
-4.003555,Banque Bicici,5.300882,SAnode/6924851830,1,
-4.0062869,Mikhalil Technologie,5.2999593,SAnode/6924851831,1,
-3.9787018,Pharmacie de Bietry,5.2742845,node/4107240891,0,SAnode/4107240891
-4.0207037,Mosquée,5.3658243,SAnode/6907121507,1,
-4.0235294,Gare Williamsville,5.3675641,SAnode/6907121506,1,
-4.0022742,Carrefour la Vie,5.3493692,node/6912820417,0,SAnode/6912820417
-4.0189161,Croix Bleue,5.3643529,SAnode/6907121508,1,
-4.0012391,Saint Jacques,5.3574699,node/6912820415,0,SAnode/6912820415
-3.9973648,MACACI,5.3654376,node/6912820414,0,SAnode/6912729878
-3.9981432,Mobil 2 Plateaux,5.3677225,node/6912820413,0,SAnode/6912729879
-3.9983399,Sococé 2 Plateaux,5.3725252,node/6912820412,0,SAnode/6912729880
-3.9983567,Le Roi du Pain,5.3753472,node/6912820411,0,SAnode/6912820411
-3.8942168,Station TEXACO,5.3611469,node/6948466340,0,SAnode/6948466337
-3.8903531,Sous-Prefecture de Bingerville,5.3576379,node/6948466341,0,SAnode/6948466341
-3.9285967,Nouveau Goudron,5.372677,node/6948466343,0,SAnode/6948466343
-4.0026914,Pharmacie les 7 Colonnes,5.3455151,node/6948466345,0,SAnode/6948466345
-3.9372025,Rue K73,5.2456701,SAnode/6935494505,1,
-3.9298091,NO FLY ZONE,5.2444775,SAnode/6935494504,1,
-3.9541125,Add a name to the stop with JungleBus app,5.2492331,SAnode/6935494507,1,
-4.0799806,Akadjoba,5.3243327,node/6913201899,0,SAnode/6913201899
-4.0757574,Kbine Bleu,5.3290163,node/6913201898,0,SAnode/6913201898
-4.0733126,Antenne,5.3335416,node/6913201897,0,SAnode/6913201897
-4.0275494,Gare Nord,5.3592856,node/6927694921,0,SAnode/6474137946
-4.0065188,Palais des Sports,5.299118,SAnode/6935494509,1,
-3.9533649,Arrêt,5.3373639,node/6951182059,0,SAnode/6932239012
-3.952412,Arrêt,5.3414479,node/6951182066,0,SAnode/6932239012
-3.9535137,Arrêt,5.3296352,node/6951182064,0,SAnode/6932239011
-3.9572031,Arrêt,5.330835,node/6951182065,0,SAnode/6951182060
-3.9531144,Arrêt,5.3295658,node/6951182062,0,SAnode/6932239011
-3.9559445,Arrêt,5.3344449,node/6951182060,0,SAnode/6951182060
-3.9570247,Arrêt,5.3308416,node/6951182061,0,SAnode/6951182060
-4.0154322,Quai 15,5.4354761,SAnode/6474139033,1,
-4.0127537,Cité Universitaire Abobo,5.4350792,SAnode/6474139031,1,
-4.0732898,William-Ponty,5.3448074,node/6909923473,0,SAnode/6909923473
-3.9973698,"ENA Cocody, Boulevard Latrille",5.3616481,node/4029208102,0,SAnode/4029208102
-4.0273499,Gare Nord,5.3587923,node/6951939384,0,SAnode/6474137946
-3.9554248,Gare Koumassi,5.2941431,node/6951939383,0,SAnode/2493730483
-4.0025646,Cité BAD,5.3465272,SAnode/6916280448,1,
-4.0665987,Mairie de Yopougon,5.3424009,SAnode/6913857612,1,
-3.991524,SODECI,5.3973362,SAnode/6916280442,1,
-3.9918311,Paris Baguette,5.3945043,SAnode/6916280443,1,
-3.9983542,NSIA,5.3737207,SAnode/6916280446,1,
-3.9981216,SGBGI,5.3700155,SAnode/6916280447,1,
-3.9927256,Arrêt,5.3875127,SAnode/6916280444,1,
-3.9952144,Arrêt,5.3797969,SAnode/6916280445,1,
-3.9831075,Arrêt,5.441543,node/6915341528,0,SAnode/6915341528
-3.9847859,Arrêt,5.4403681,node/6915341529,0,SAnode/6915341528
-4.0157829,Carrefour 2 plateaux,5.3658197,node/6906575631,0,SAnode/6906575631
-3.9894234,Arrêt,5.4297269,node/6915341520,0,SAnode/6915341520
-3.9891222,Arrêt,5.4313416,node/6915341521,0,SAnode/6915341520
-4.0261674,Glacier restaurant J.Colimar,5.4327155,node/6905553519,0,SAnode/6905553519
-3.9725804,Abobo Biabou,5.4564179,node/6915341523,0,SAnode/6915341523
-3.9726482,Abobo Biabou,5.4564283,node/6915341525,0,SAnode/6915341523
-3.978184,Arrêt,5.4454571,node/6915341526,0,SAnode/6915341526
-3.9810371,Arrêt,5.4430187,node/6915341527,0,SAnode/6915341526
-4.07344,Arrêt,5.5002334,node/6938324867,0,SAnode/6938324865
-4.0762322,Arrêt,5.5002134,node/6938324866,0,SAnode/6938324865
-4.0770207,Arrêt,5.5007033,node/6938324865,0,SAnode/6938324865
-4.0769751,Arrêt,5.5031182,node/6938324864,0,SAnode/6938324862
-4.0801696,Arrêt,5.5033771,node/6938324863,0,SAnode/6938324862
-4.0807946,Arrêt,5.5031942,node/6938324862,0,SAnode/6938324862
-4.0807772,Ebimpé Village,5.5005578,node/6938324861,0,SAnode/6938324861
-3.9237472,Jules Verne,5.3741413,SAnode/6930917950,1,
-4.066591,Arrêt,5.4982283,node/6938324869,0,SAnode/6938324868
-4.0699397,Arrêt,5.5000185,node/6938324868,0,SAnode/6938324868
-4.0178807,Arrêt,5.4197437,node/6967070478,0,SAnode/6935401283
-4.0187565,Arrêt,5.4227157,node/6967070479,0,SAnode/6910797790
-3.9881326,Délices de France,5.301827,node/6909237622,0,SAnode/6909237622
-3.9900511,Services Techniques du District,5.2913004,node/6909237623,0,SAnode/6909108451
-4.0150089,Arrêt,5.3049356,node/6909237626,0,SAnode/6909237626
-3.9718473,Station Service Oilibya Petit Bassam,5.2578469,node/7025968250,0,SAnode/7025968250
-3.9994307,PTT Km4,5.2931333,node/6909237624,0,SAnode/6909039470
-4.0141223,Quincaillerie Générale,5.3023437,node/6909237625,0,SAnode/6909237625
-4.0085238,Arrêt,5.2772629,node/6967070474,0,SAnode/6967070474
-3.9775054,Rue G 69,5.2807083,node/6954138438,0,SAnode/6954138438
-4.0226068,Arrêt,5.3053862,SAnode/6967158579,1,
-4.0440027,Bon choix,5.3137348,SAnode/6910755184,1,
-4.0507693,Yopougon Kowëit,5.3222275,SAnode/6910755180,1,
-4.0464583,La faveur,5.3222395,SAnode/6910755181,1,
-4.0439746,Pharmacie Chenain,5.3198693,SAnode/6910755182,1,
-4.0439826,Iris 3,5.3171339,SAnode/6910755183,1,
-3.9233825,Collège Jeune Filles,5.3498507,node/6948855826,0,SAnode/6948855826
-3.924163,Arrêt,5.3532496,node/6948855825,0,SAnode/6948855825
-3.9247158,Arrêt,5.3556661,node/6948855824,0,SAnode/6948855823
-3.9253854,Arrêt,5.3584311,node/6948855823,0,SAnode/6948855823
-3.9679608,Arrêt,5.3565604,node/6948855820,0,SAnode/6948466332
-3.9191627,Arrêt,5.3282217,node/6948855829,0,SAnode/6948855829
-3.946597,Bon Samaritain,5.3079127,node/6926943107,0,SAnode/6919758038
-4.078453,Arrêt,5.3892384,SAnode/6934648723,1,
-4.0810159,Arrêt,5.3935763,SAnode/6934648722,1,
-4.0834808,Arrêt,5.4036687,SAnode/6934648720,1,
-4.0149826,Arrêt,5.341978,node/7026279881,0,SAnode/6927327302
-4.0573213,Blé Doré,5.3235388,node/6919327588,0,SAnode/6919327588
-4.0669544,Marché Kouté,5.3241224,node/6919327589,0,SAnode/6910755176
-4.053652,Le petit soleil,5.322126,node/6919327587,0,SAnode/6910755179
-3.9684999,Arrêt,5.3018088,node/6939014891,0,SAnode/6939014891
-3.9845087,Arrêt,5.4036801,node/6938792077,0,SAnode/6915341518
-3.9638825,Terminus Remblais 03,5.302855,node/6939014890,0,SAnode/6939014888
-4.0186301,Gare Sud,5.3147389,node/6938792079,0,SAnode/6474137967
-3.993252,Arrêt,5.3829263,node/6938792078,0,SAnode/6916280445
-3.9424717,Arrêt,5.2467278,node/6937770647,0,SAnode/6937770647
-3.9734902,Arrêt,5.3828575,node/6979431049,0,SAnode/6979431048
-3.9737651,Arrêt,5.3839137,node/6979431048,0,SAnode/6979431048
-3.9747639,Arrêt,5.387788,node/6979431047,0,SAnode/6979431046
-3.9754421,Arrêt,5.3902524,node/6979431046,0,SAnode/6979431046
-3.977142,Arrêt,5.39671,node/6979431045,0,SAnode/6910797798
-3.9846965,Arrêt,5.4037879,node/6979431044,0,SAnode/6915341518
-3.9761992,Arrêt,5.3932466,node/6910797799,0,SAnode/6910797798
-3.977036,Arrêt,5.3963428,node/6910797798,0,SAnode/6910797798
-4.0128435,Arrêt,5.4182684,node/6910797791,0,SAnode/6910797791
-4.01971,Arrêt,5.4258812,node/6910797790,0,SAnode/6910797790
-3.999584,Arrêt,5.4155902,node/6910797793,0,SAnode/6910797793
-4.0054353,Arrêt,5.4156089,node/6910797792,0,SAnode/6910797792
-3.9792073,BICICI,5.4031254,node/6910797795,0,SAnode/6910797795
-3.9856156,Termunis 81/82,5.4038607,node/6910797794,0,SAnode/6910797794
-3.9776878,Arrêt,5.3988302,node/6910797797,0,SAnode/6910797796
-3.9780821,Arrêt,5.4011881,node/6910797796,0,SAnode/6910797796
-4.0274455,Gare Nord,5.3591608,node/6474137948,0,SAnode/6474137946
-4.0665987,Mairie de Yopougon,5.3424009,node/6913857612,0,SAnode/6913857612
-4.027655,Gare Nord,5.3592442,node/6474137946,0,SAnode/6474137946
-4.0255918,Macaci,5.3774907,node/6474137944,0,SAnode/6474137944
-4.0207427,Université Nangui Abrogoua,5.392647,node/6474137942,0,SAnode/6474137942
-3.945225,Terminus 05 Lycée Municipal de Koumassi,5.3121324,SAnode/2760843854,1,
-4.0021657,Palm Club,5.351632,SAnode/6907141802,1,
-4.0796923,Vulcanisateur,5.3703887,SAnode/6909225537,1,
-4.0781781,Arrêt,5.3745633,SAnode/6909225536,1,
-4.0152949,Feux du plateau,5.325075,SAnode/6899053347,1,
-4.0895635,Add a name to the stop with JungleBus app,5.3742257,SAnode/6909225534,1,
-4.0961792,kiosque,5.3727101,SAnode/6909225533,1,
-4.0745652,Mobil Money,5.3647534,SAnode/6909225530,1,
-4.0062493,Arrêt,5.4143906,node/6935401282,0,SAnode/6910797792
-4.0170009,Arrêt,5.420498,node/6935401283,0,SAnode/6935401283
-4.0063405,Arrêt,5.4087036,node/6935401280,0,SAnode/6927037612
-4.0062828,Arrêt,5.4109493,node/6935401281,0,SAnode/6927037612
-4.0061218,Nanan Yamousso,5.3101491,SAnode/6899053348,1,
-4.0761986,Direction de la Sotra,5.3670367,SAnode/6909225539,1,
-4.0786743,Coiffure Homme,5.3683786,SAnode/6909225538,1,
-3.9560491,Terminus Port-Bouët Phare,5.2509145,node/6980258130,0,SAnode/6934657657
-4.0181825,Arrêt,5.403546,node/6979256984,0,SAnode/6934749721
-3.9620358,Chic Shop,5.3596047,SAnode/6915696795,1,
-3.9916044,Carrefour CHU,5.3494956,SAnode/6915696798,1,
-4.0867444,Pharmacie Divine grace,5.3552565,node/6909812229,0,SAnode/6909812229
-4.0849641,Carrefour Zone,5.3572641,node/6909812228,0,SAnode/6909812228
-3.9195342,Arrêt,5.3281463,node/6979712503,0,SAnode/6948855829
-3.9224169,Arrêt,5.3318471,node/6979712504,0,SAnode/6948855828
-3.9227159,Arrêt,5.3394623,node/6979712505,0,SAnode/6948920961
-3.923066,Arrêt,5.3479974,node/6979712506,0,SAnode/6948920963
-3.9234415,Arrêt,5.3497346,node/6979712507,0,SAnode/6948855825
-3.924564,Arrêt,5.3546363,node/6979712508,0,SAnode/6948855823
-3.9253713,Arrêt,5.3579717,node/6979712509,0,SAnode/6948855823
-3.9831407,Arrêt,5.2982594,SAnode/6919758025,1,
-4.0239378,Cité Administrative,5.3309411,node/6909812227,0,SAnode/6909812227
-4.0028093,Arrêt,5.344562,SAnode/6912820418,1,
-3.9933257,Abobo Belleville,5.4158855,node/6927037633,0,SAnode/6927037633
-4.0065437,Arrêt,5.4018603,node/6927037631,0,SAnode/6927037614
-4.0607049,Add a name to the stop with JungleBus app,5.3278586,node/6933043355,0,SAnode/6933043355
-3.9983567,Le Roi du Pain,5.3753472,SAnode/6912820411,1,
-4.0012391,Saint Jacques,5.3574699,SAnode/6912820415,1,
-4.0520655,Offoumou Yapo,5.3316575,SAnode/6912805214,1,
-4.0022742,Carrefour la Vie,5.3493692,SAnode/6912820417,1,
-4.0497521,Tizra,5.3293394,SAnode/6912805215,1,
-4.0494691,Rue du collège Segbe,5.3264792,SAnode/6912805216,1,
-4.0104501,"BIAO, Treichville",5.2984459,node/6952132251,0,SAnode/6952132224
-3.9953781,Hyundai,5.2911365,node/6952132250,0,SAnode/6952132250
-3.9975952,Farandole,5.3640511,SAnode/6938756997,1,
-3.9598948,Carrefour de la Gendarmerie,5.3606149,SAnode/6915487640,1,
-3.9665508,Cap Nord,5.3568703,SAnode/6915487641,1,
-3.9881887,École de Police,5.3502292,SAnode/6915487643,1,
-4.0599974,Camp FRCI,5.3408189,SAnode/6912805210,1,
-3.934246,Aéroport,5.2536201,SAnode/6952132234,1,
-4.0110975,Ex-pharmacie Mockey,5.3018767,node/5057165424,0,SAnode/5057165424
-3.9672503,La pharmacie,5.276028,SAnode/6952132230,1,
-3.9386439,EPP Aéroport,5.2544081,SAnode/6952132233,1,
-3.9434065,Rue K63,5.2486135,SAnode/6952132232,1,
-4.015971,Banco,5.4131456,SAnode/6474137938,1,
-4.0187446,Terminus Gendarmerie Abobo,5.4234101,SAnode/6474137934,1,
-4.0166455,2ème Arrêt,5.4171616,SAnode/6474137936,1,
-4.0159368,Abobo Mairie,5.4197017,SAnode/6906699471,1,
-4.061373,Terminus 85,5.3296306,node/4411562346,0,SAnode/4411562346
-4.0200922,Station Shell,5.4306474,SAnode/6474137931,1,
-4.0198488,Gendarmerie Abobo,5.4263959,SAnode/6474137932,1,
-4.021035,Filtisac,5.3906844,SAnode/6474138989,1,
-3.9237472,Jules Verne,5.3741413,node/6930917950,0,SAnode/6930917950
-3.9820028,Temple des Vainqueurs,5.2600531,node/6910272314,0,SAnode/6910272314
-4.0255664,Pharmacie du Banco,5.3503682,SAnode/6474138985,1,
-3.9927913,Arrêt,5.387006,node/6980521702,0,SAnode/6916280444
-3.9934525,Arrêt,5.3819122,node/6980521703,0,SAnode/6916280445
-3.9990999,Arrêt,5.3998663,node/6980521700,0,SAnode/6980521700
-3.992904,Arrêt,5.3987194,node/6980521701,0,SAnode/6980521701
-4.0351267,Gare Abobodoumé,5.3103655,node/6919312951,0,SAnode/6910794088
-4.0812954,Akadjoba,5.3241547,node/6919312950,0,SAnode/6913201899
-4.094158,Maquis Restaurant,5.3765208,SAnode/6909430718,1,
-3.9888629,Hôtel Hamanieh,5.3052787,node/6904171082,0,SAnode/6904171082
-3.9438068,Rue F84,5.3350024,SAnode/6948290582,1,
-3.9429814,Bureau Bad,5.3385823,SAnode/6948290581,1,
-3.9869873,Sainte Thérèse,5.3043423,node/6904171083,0,SAnode/6904171083
-3.9996571,Piscine d’État de Treichville,5.3082112,SAnode/6908914487,1,
-3.971683,Pharmacie Du Boulevard Du Gabon,5.2924858,SAnode/6931151027,1,
-3.9596352,Pharmacie Saint François,5.2952895,SAnode/6931151024,1,
-3.9646348,Grande Pharmacie Iroko,5.2941237,SAnode/6931151025,1,
-4.0967993,Mobil Money,5.3641759,node/6954926528,0,SAnode/6954926528
-4.0183735,Gare Sud,5.3147518,node/6909707238,0,SAnode/6474137967
-4.0124238,BICICI,5.4365892,node/6906507833,0,SAnode/6474137923
-4.0850901,Arrêt,5.3604209,node/6909707234,0,SAnode/6909707234
-4.0989914,S95,5.3583583,node/6954926526,0,SAnode/6954926526
-4.1000086,Cabinet Juridique,5.3615502,node/6954926527,0,SAnode/6954926527
-4.0875008,Grand Centre,5.3481316,node/6909707231,0,SAnode/6909707231
-4.0892456,Résidence Hôtel Georges Colette,5.3450164,node/6909707230,0,SAnode/6909707230
-4.0851103,Quincaillerie,5.3561104,node/6909707233,0,SAnode/6909707233
-4.0874934,Port-Bouët II,5.3540742,node/6909707232,0,SAnode/6909707232
-4.018503,Mairie du Plateau,5.3220152,SAnode/6907121512,1,
-4.0170059,Institut Français,5.3219502,SAnode/6907121513,1,
-4.0169929,Pharmacie le Belier,5.3501391,SAnode/6907121510,1,
-4.0230855,Indenié,5.3417336,SAnode/6907121511,1,
-3.9930996,Opéra,5.3845481,node/6912820408,0,SAnode/6912820408
-3.9957435,Pharmacie Santé Publique,5.2914467,node/6909039471,0,SAnode/6909039471
-4.0144649,CNPS,5.3195012,SAnode/6907121514,1,
-3.9911377,Carrefour 22è,5.4002961,node/6912820404,0,SAnode/5957239662
-3.9915941,BHCI,5.3965825,node/6912820405,0,SAnode/6912820389
-3.9920934,Ambassade de Chine,5.3925854,node/6912820406,0,SAnode/6912820387
-3.9924668,Mahikari,5.3895654,node/6912820407,0,SAnode/6912820386
-3.9820585,FIRDA,5.4033208,node/6912820400,0,SAnode/6912820393
-3.9856793,Termunis 81/82,5.4037772,node/6912820401,0,SAnode/6910797794
-3.9887434,Notre Dame,5.4041375,node/6912820402,0,SAnode/6912820392
-3.9906882,Petro Ivoire,5.4037567,node/6912820403,0,SAnode/6912820391
-3.977256,Riviera 2,5.3542958,node/6970095637,0,SAnode/5958266392
-3.979157,Arrêt,5.3643008,node/6970095635,0,SAnode/6970095635
-3.9875704,Pharmacie Les 7 Lys,5.3841166,node/6970095634,0,SAnode/6970095634
-3.9859892,Arrêt,5.3971746,node/6970095633,0,SAnode/6970095633
-3.985249,Termunis 81/82,5.4031227,node/6970095632,0,SAnode/6910797794
-4.0149692,Avenue Christiani,5.3101948,SAnode/6935494511,1,
-3.9866585,DGI,5.3924174,node/6970095639,0,SAnode/6970095639
-3.978931,Arrêt,5.3623286,node/6970095638,0,SAnode/6970095635
-4.0144891,Mosquée,5.4429021,SAnode/6903193216,1,
-3.990494,Arrêt,5.4055233,node/6916280439,0,SAnode/6910797818
-3.9679319,CIE Koumassi,5.2834138,node/6954511639,0,SAnode/6954511639
-3.99993,Mermoz,5.3387479,SAnode/6935251111,1,
-4.0163197,Gare Abobo Kennedy-Marché/ Mosquée Ado,5.4223082,SAnode/6903268820,1,
-4.0100057,Station,5.4211585,SAnode/6903268821,1,
-4.0015221,Kennedy Marché,5.4236887,SAnode/6903268822,1,
-4.0272913,Gare Nord,5.3589712,node/6933291484,0,SAnode/6474137946
-4.0201163,60 logements Plateau,5.3251345,SAnode/6905719607,1,
-3.9675638,Auto-école,5.2912433,SAnode/6906596968,1,
-4.0148424,Maison du Congres,5.3097288,SAnode/6905719609,1,
-4.0177138,Hôpital du port,5.3087867,SAnode/6905719608,1,
-4.01522,Gare Abobo Sogephia,5.4354794,node/6938095648,0,SAnode/6474137921
-4.0120606,"Avenue 10, Rue 12, Treichville",5.3062141,node/6909737822,0,SAnode/6909737822
-3.9728972,Soleil 2,5.400545,node/6915341517,0,SAnode/6912820395
-4.0082981,Siège SOTRA,5.2878677,node/6909737827,0,SAnode/6909546912
-4.0095509,Port Autonome Abidjan,5.2945614,node/6909737826,0,SAnode/6909737826
-4.0217286,Siège Port Autonome Abidjan,5.3033621,node/6909737825,0,SAnode/6909737825
-4.0211598,Grand Moulin Abidjan,5.3067759,node/6909737824,0,SAnode/6909521612
-4.00841,MOVIS,5.2787,node/6909737829,0,SAnode/6909737829
-4.0083516,Bolloré,5.2820277,node/6909737828,0,SAnode/6909546911
-3.9906836,Arrêt,5.4062326,node/6915341519,0,SAnode/6910797818
-3.9837323,Arrêt,5.4035247,node/6915341518,0,SAnode/6915341518
-4.0973067,Mosquée du Maroc,5.3400629,SAnode/3067766555,1,
-4.0205671,Église Méthodiste Unie de Côte d'Ivoire,5.3299678,SAnode/6831076678,1,
-4.0715718,Arrêt,5.4769371,node/6938324874,0,SAnode/6938324873
-4.072693,Arrêt,5.4724328,node/6938324875,0,SAnode/6938324875
-3.9579253,Lycée moderne Port-bouët ,5.2560567,SAnode/6935274811,1,
-3.9577992,43ème Bima,5.2576733,SAnode/6935274810,1,
-4.0678543,Arrêt,5.4912933,node/6938324870,0,SAnode/6938324870
-4.0690076,Arrêt,5.4869787,node/6938324871,0,SAnode/6938324870
-3.9790309,Arrêt,5.2572754,SAnode/6935274815,1,
-4.0783779,Arrêt,5.413004,node/6934648719,0,SAnode/6934648719
-4.0733501,Arrêt,5.4606874,node/6938324878,0,SAnode/6938324878
-4.0724757,Arrêt,5.4565342,node/6938324879,0,SAnode/6938324878
-4.0059533,Samake,5.415578,SAnode/6903406997,1,
-4.0037419,Eglise,5.4156671,SAnode/6903406998,1,
-4.0735526,Gare Yopougon Kouté,5.3297734,node/6909923477,0,SAnode/6909923477
-4.0207037,Mosquée,5.3658243,node/6907121507,0,SAnode/6907121507
-4.0733247,Saguidiba,5.3326109,node/6909923475,0,SAnode/6909923475
-4.0732871,Yopougon 16ème Advans,5.3388868,node/6909923474,0,SAnode/6909923474
-3.9885655,Arrêt,5.4076842,node/6932253481,0,SAnode/6910797818
-4.0740046,Siporex avant le feu,5.3538004,node/6909923472,0,SAnode/6909923472
-4.0739979,Siporex-Sicomex,5.3568101,node/6909923471,0,SAnode/6909923471
-4.0119566,Monnaie,5.4542173,SAnode/6902975751,1,
-4.011446,Société de Prestation de Services et d'Import-Export en Côte d'Ivoire (Prestimex-CI) Sarl,5.265254,node/6945966273,0,SAnode/6945966273
-4.0183564,Gare Sud,5.3144986,node/6913291219,0,SAnode/6474137967
-4.0693985,Arrêt,5.442806,node/6934648715,0,SAnode/6934648714
-3.9169304,Paroisse,5.3283086,node/6948855830,0,SAnode/6948855830
-3.9160681,EPP Abatta,5.3266474,node/6948855831,0,SAnode/6948855831
-4.005186,Pharmacie Nanan Yamousso,5.3072484,SAnode/6899034708,1,
-4.0061407,Après le pont,5.3099574,SAnode/6899034709,1,
-3.9997862,Gendarmerie,5.3004143,SAnode/6899034706,1,
-4.0037983,Notre-dame,5.303315,SAnode/6899034707,1,
-4.0022393,Gare de bassam,5.2996481,SAnode/6899034705,1,
-4.0238801,Immeuble Sogefiha,5.3278045,node/6474137958,0,SAnode/6474137958
-4.0134249,Ciprel,5.260642,node/6945966271,0,SAnode/6945966271
-3.990781,"SIYOA, Boulevard de Marseille",5.2895393,node/6909208700,0,SAnode/6909208700
-3.9627425,Arrêt,5.3749859,node/6979431051,0,SAnode/6979431051
-3.9847072,Arrêt,5.4036674,node/6979431052,0,SAnode/6915341518
-4.0699659,Arrêt,5.428223,node/6934648718,0,SAnode/6934648717
-4.0893341,Terminus 27,5.3164439,SAnode/768587345,1,
-4.0210558,Arrêt,5.4266332,node/6934648710,0,SAnode/6910797790
-4.0538116,Arrêt,5.4438112,node/6934648711,0,SAnode/6934648711
-4.0603428,Arrêt,5.4435976,node/6934648712,0,SAnode/6934648712
-4.0647738,Arrêt,5.4434975,node/6934648713,0,SAnode/6934648712
-4.0679455,Arrêt,5.4433733,node/6934648714,0,SAnode/6934648714
-3.9763809,Arrêt,5.2945624,SAnode/6919758027,1,
-4.0686147,Arrêt,5.4392747,node/6934648716,0,SAnode/6934648714
-4.068663,Arrêt,5.4321434,node/6934648717,0,SAnode/6934648717
-3.9712223,Arrêt,5.2927669,SAnode/6919758029,1,
-4.0259753,Mairie d'Adjamé,5.3431984,node/6474137954,0,SAnode/6474137954
-4.0238205,Terminus tours Administratives,5.3312372,node/6474137956,0,SAnode/6474137956
-4.0257671,Grande Mosquée Adjamé,5.3533564,node/6474137950,0,SAnode/6474137950
-4.0256668,Foire de Chine,5.347769,node/6474137952,0,SAnode/6474137952
-3.9448656,École libanaise Al Ghadir,5.3284521,SAnode/6932323636,1,
-4.0060079,Arrêt,5.3852595,node/6935401277,0,SAnode/6927037616
-4.0724972,Add a name to the stop with JungleBus app,5.36188,SAnode/6909225529,1,
-3.9637296,Hotel Communal Port-Bouët,5.2613392,node/6966927285,0,SAnode/6938407500
-4.0064304,Arrêt,5.4022949,node/6935401279,0,SAnode/6927037614
-3.9605525,Wharf Port-Bouët,5.2528723,node/6966927286,0,SAnode/6934657656
-4.0189046,Terminus Gare Sud,5.314962,node/6929849943,0,SAnode/6474138999
-4.0468311,Rue K9,5.3221154,SAnode/6913190447,1,
-4.0441167,Maison blanche,5.3208014,SAnode/6913190446,1,
-3.9976804,CNTG-BNETD,5.3293836,node/6913703805,0,SAnode/6913703797
-3.9969162,UCAO,5.3310313,node/6913703804,0,SAnode/6913703798
-3.9975172,Maison du Parti,5.3353656,node/6913703803,0,SAnode/6913703799
-3.9837714,Gare Marcory,5.3086966,node/6913703802,0,SAnode/6904188585
-3.990551,NSIA,5.3074734,node/6913703801,0,SAnode/6913703801
-3.9997195,Piscine d’État de Treichville,5.3084936,node/6913703800,0,SAnode/6908914487
-4.0207185,Hotel de Ville,5.3233639,node/6969583482,0,SAnode/6136850509
-4.0207171,Arrêt,5.3257514,node/6969583483,0,SAnode/6969583483
-4.0192916,Arrêt,5.3209056,node/6969583480,0,SAnode/6966849451
-4.0207359,Arrêt,5.3217388,node/6969583481,0,SAnode/6966849451
-4.0207332,Arrêt,5.3278011,node/6969583484,0,SAnode/6969583483
-4.1051263,T27,5.3273952,node/6909812236,0,SAnode/6909812236
-4.1058531,Caféier,5.32569,node/6909812237,0,SAnode/6909707224
-4.1013081,Carrefour Anador,5.335861,node/6909812234,0,SAnode/6909707227
-4.103812,Lubafrique,5.3305492,node/6909812235,0,SAnode/6909707225
-4.0974297,Mosquée du Maroc,5.3400138,node/6909812232,0,SAnode/3067766555
-4.1003975,Pharmacie Cité Maroc,5.3401847,node/6909812233,0,SAnode/6909707228
-4.0880983,Pharmacie Port-Bouët II,5.3469666,node/6909812230,0,SAnode/3666057101
-3.9649889,Arrêt,5.256211,SAnode/6937789671,1,
-4.1045248,Niangon Sud à droite,5.3226401,node/6909812238,0,SAnode/6909707221
-4.0238251,Terminus tours Administratives,5.3310139,node/6927037625,0,SAnode/6474137956
-4.0238861,Arrêt,5.3339515,node/6927037626,0,SAnode/6927037623
-4.0238741,Arrêt,5.3377117,node/6927037627,0,SAnode/2493226931
-4.0178358,Fraternité Matin,5.3456673,node/6927037620,0,SAnode/2444131222
-4.0237561,Arrêt,5.3411247,node/6927037621,0,SAnode/2493226931
-4.0237963,Arrêt,5.3372751,node/6927037622,0,SAnode/2493226931
-4.0238252,Arrêt,5.3339228,node/6927037623,0,SAnode/6927037623
-4.0161668,Arrêt,5.3557539,node/6927037628,0,SAnode/6927037628
-4.0068716,Arrêt,5.379605,node/6927037629,0,SAnode/6927037617
-3.9751598,Église Notre Dame d'Afrique,5.2726637,node/6952132246,0,SAnode/6952132246
-3.9878091,Paul,5.2879034,node/6952132247,0,SAnode/6952132247
-3.9609347,Pharmacie Océan,5.2567131,node/6952132244,0,SAnode/6935274796
-3.9627318,PN Silove,5.266498,node/6952132245,0,SAnode/6952132245
-3.9435728,Rue K63,5.2480679,node/6952132242,0,SAnode/6952132232
-3.947171,Maquis 5 sur 5,5.247278,node/6952132243,0,SAnode/6952132243
-3.9409603,Cité ASECNA,5.2544028,node/6952132240,0,SAnode/6952132240
-3.9424355,Rue K63,5.2508117,node/6952132241,0,SAnode/6952132232
-3.9914958,drocolor,5.2895653,node/6952132248,0,SAnode/6952132248
-3.9930183,Sacri,5.2899777,node/6952132249,0,SAnode/6952132249
-4.0711802,2 poteaux,5.3437686,node/5281604034,0,SAnode/3137217828
-4.006142,Arrêt,5.3852315,node/6935401276,0,SAnode/6927037616
-4.0530974,Arrêt,5.4680953,node/6915722694,0,SAnode/6915722692
-3.9852865,Rue G39,5.2849322,SAnode/6952132226,1,
-3.9824903,Bank Of Africa,5.2786718,SAnode/6952132227,1,
-4.0109539,"BIAO, Treichville",5.2988296,SAnode/6952132224,1,
-3.9883868,"Pizza, Marcory",5.2884596,SAnode/6952132225,1,
-4.0029649,Carrefour de la Vie,5.3485982,node/6915696800,0,SAnode/5954541440
-4.0170009,Arrêt,5.420498,SAnode/6935401283,1,
-3.9767262,Église Notre-Dame d'Afrique,5.2734369,SAnode/6952132228,1,
-3.9714865,Sept Villas,5.2734089,SAnode/6952132229,1,
-4.0050058,Hotel Ivoire,5.328578,node/5957239666,0,SAnode/5957239666
-4.0734096,Yopougon 16ème Advans,5.338834,node/6910224907,0,SAnode/6909923474
-4.0734252,Côte d'Ivoire-Telecom,5.3344863,node/6910224906,0,SAnode/6910224906
-4.0738578,Gare Yopougon Kouté,5.3297134,node/6910224902,0,SAnode/6909923477
-3.9992242,Étage Noir,5.4157689,SAnode/6903397407,1,
-4.0513476,Arrêt,5.4837187,node/6915722697,0,SAnode/6915722697
-3.9979409,Add a name to the stop with JungleBus app,5.4198617,SAnode/6903397405,1,
-3.9978489,A l'école,5.4215774,SAnode/6903397404,1,
-3.9978515,Terminus mosquée Ado Kenedy,5.4234508,SAnode/6903397403,1,
-4.0734078,Saint André lavage,5.3418778,node/6910224908,0,SAnode/2460519991
-4.0044791,Carrefour Saint Jean,5.3359625,node/6964184464,0,SAnode/6964184464
-4.0745652,Mobil Money,5.3647534,node/6909225530,0,SAnode/6909225530
-3.9923066,Aghien 2 plateaux,5.3885302,node/6964184466,0,SAnode/6964184463
-4.0021368,Carrefour la Vie,5.3502206,node/6964184467,0,SAnode/6912820417
-4.0867558,Nestlé,5.372722,node/6909225535,0,SAnode/6909225535
-4.0895635,Add a name to the stop with JungleBus app,5.3742257,node/6909225534,0,SAnode/6909225534
-4.0796923,Vulcanisateur,5.3703887,node/6909225537,0,SAnode/6909225537
-4.0781781,Arrêt,5.3745633,node/6909225536,0,SAnode/6909225536
-4.0761986,Direction de la Sotra,5.3670367,node/6909225539,0,SAnode/6909225539
-4.0786743,Coiffure Homme,5.3683786,node/6909225538,0,SAnode/6909225538
-4.1058974,Cité Bracodi Rte Cité verte,5.3306787,node/6919312946,0,SAnode/6919312946
-4.1035223,Banque BNI,5.3296893,node/6919312947,0,SAnode/6919312947
-4.109973,Collège Sebaco,5.3316148,node/6919312945,0,SAnode/6919312945
-4.0923844,Cité Bracodi Rte Cité verte,5.3270854,node/6919312942,0,SAnode/6919312942
-4.1119954,Cité Verte,5.332209,node/6919312943,0,SAnode/6919312943
-3.9675638,Auto-école,5.2912433,node/6906596968,0,SAnode/6906596968
-4.100539,Le repère,5.3284241,node/6919312948,0,SAnode/6919312948
-4.0976201,Carrefour de Niangon,5.3278005,node/6919312949,0,SAnode/6919312949
-4.0123071,Arrêt,5.4179854,node/6935407385,0,SAnode/6910797791
-4.0094626,Arrêt,5.4164927,node/6935407386,0,SAnode/6910797791
-4.0132633,Arrêt,5.3027916,node/6966927287,0,SAnode/6909237626
-4.0064532,Arrêt,5.3984537,node/6935401278,0,SAnode/6927037614
-3.9734097,Petit Café,5.2862329,SAnode/6954138437,1,
-3.980944,Échangeur de Marcory,5.2956714,SAnode/6906463290,1,
-4.0026734,Gare de Bassam,5.2999823,SAnode/6906463293,1,
-3.9976917,Collège Moderne Autoroute,5.2998184,SAnode/6906463292,1,
-3.981805,Arrêt,5.2774525,node/6961370878,0,SAnode/6961370878
-3.9804116,Hassan,5.2823321,SAnode/6954138439,1,
-3.9775054,Rue G 69,5.2807083,SAnode/6954138438,1,
-4.0650474,Ex Chaine Avion Rue Princesse,5.3466167,node/6913190456,0,SAnode/6912805209
-4.1004632,Pharmacie Cité Maroc,5.3404237,node/6909707228,0,SAnode/6909707228
-4.0892462,CIE,5.3407014,node/6909707229,0,SAnode/6909707229
-3.9790913,Arrêt,5.3297881,node/6933080265,0,SAnode/6933080256
-4.0036369,Notre-dame,5.3031308,node/6906596963,0,SAnode/6899034707
-4.0170747,Liberté,5.3513262,SAnode/6908914490,1,
-4.1057378,Carrefour Académie,5.3233679,node/6909707223,0,SAnode/6909707223
-4.1045,Niangon Sud à droite,5.3226268,node/6909707221,0,SAnode/6909707221
-4.1029765,2ème arrêt ANADOR,5.3338915,node/6909707226,0,SAnode/6909707226
-4.1014047,Carrefour Anador,5.3358784,node/6909707227,0,SAnode/6909707227
-4.0145266,Siège Moov,5.3184312,SAnode/6908914496,1,
-4.1037342,Lubafrique,5.3311608,node/6909707225,0,SAnode/6909707225
-3.9890592,Arrêt,5.407261,node/6927327309,0,SAnode/6910797818
-3.9867901,Arrêt,5.4082838,node/6927327308,0,SAnode/6927327308
-4.0103402,Arrêt,5.346265,node/6927327303,0,SAnode/6927327302
-4.0125125,Arrêt,5.3434193,node/6927327302,0,SAnode/6927327302
-3.9851483,Arrêt,5.4048944,node/6927327307,0,SAnode/6915341518
-3.989773,Arrêt,5.4043844,node/6927327306,0,SAnode/6910797818
-4.0044479,Arrêt,5.3529759,node/6927327305,0,SAnode/6927327305
-4.0088409,Arrêt,5.3494085,node/6927327304,0,SAnode/6927327304
-4.0501732,Tizra,5.3295798,node/6913190450,0,SAnode/6912805215
-3.9581171,Arrêt,5.3539352,node/6948222228,0,SAnode/6932239016
-3.9983918,Collège Moderne Autoroute,5.2998444,node/6906596965,0,SAnode/6906463292
-4.0083388,Sea Invest,5.2771214,node/7026069662,0,SAnode/7026069662
-3.9995223,Arrêt Bolloré logistique,5.264595,SAnode/6928704115,1,
-4.0143033,Arrêt,5.4393221,node/6934922733,0,SAnode/6934922728
-4.0124023,Arrêt,5.4336247,node/6934922732,0,SAnode/6934922731
-4.0137548,Arrêt,5.4327535,node/6934922731,0,SAnode/6934922731
-4.0112489,Destin,5.4554448,node/6934922737,0,SAnode/6902975750
-4.0127617,André Bar,5.4531566,node/6934922736,0,SAnode/6902975752
-4.0137662,Arrêt,5.4493357,node/6934922735,0,SAnode/6934922726
-4.0145279,Arrêt,5.4445716,node/6934922734,0,SAnode/6934922727
-4.0110518,Abobo Akeikoi Village,5.4604068,node/6934922738,0,SAnode/6934922723
-4.0440879,Rue K9,5.3166799,SAnode/6913190445,1,
-4.0099697,Avenue Victor Biaka Boda,5.3109791,node/6904171079,0,SAnode/6904171079
-4.0142576,Marché Treichville,5.3094876,node/6904171078,0,SAnode/6904171078
-3.9641359,Rue Raoul Follereau,5.2850417,node/7026390486,0,SAnode/6931273197
-4.0292727,Arrêt,5.4147991,SAnode/6938222043,1,
-4.0261722,Adjamé Santé,5.3412757,node/6904171071,0,SAnode/6904171071
-4.0254169,Boulevard Nangui Abrogroua,5.3513557,node/6904171070,0,SAnode/6904171070
-4.0230192,Arrêts tours Administratives,5.3318344,node/6904171073,0,SAnode/6904171073
-4.025807,Institut National de la Santé Publique,5.3381159,node/6904171072,0,SAnode/6474137982
-4.0196512,SIB Alpha 2000,5.3237991,node/6904171075,0,SAnode/6904171075
-4.0206008,Cité financière Plateau,5.3266073,node/6904171074,0,SAnode/6904171074
-4.0157481,Résidence Cheick Yacouba Sylla,5.3089287,node/6904171077,0,SAnode/6904171077
-4.0196681,Primature,5.3206169,node/6904171076,0,SAnode/6904171076
-4.00118,Banque mondiale,5.3280617,SAnode/6907147650,1,
-4.0797694,Akadjoba,5.3247411,node/6913201913,0,SAnode/6913201899
-4.1045,Niangon Sud à droite,5.3226268,SAnode/6909707221,1,
-4.0015648,Pharmacie de l'Entente,5.3045623,SAnode/6905719614,1,
-3.998829,Marché de Belleville,5.3055251,SAnode/6905719615,1,
-4.0043543,Paroisse Notre-Dame de Treichville,5.3048828,SAnode/6905719613,1,
-4.0116929,Pharmacie du Rond-point,5.3073425,SAnode/6905719610,1,
-4.0069793,ETS SR,5.3090218,SAnode/6905719611,1,
-3.986118,Commissariat du 9éme,5.3055778,SAnode/6905719618,1,
-3.9847286,Station Shell,5.308097,SAnode/6905719619,1,
-4.0061063,Pont de Vridi,5.2705271,node/6909737830,0,SAnode/6909521608
-3.9971908,Arrêt,5.3470894,node/6927701716,0,SAnode/6927701716
-4.0792436,Pont Vagabond,5.3382505,node/6963093976,0,SAnode/6963093976
-4.0747274,Arrêt,5.3403236,node/6963093977,0,SAnode/6963093977
-4.0858988,Amondji,5.3396466,node/6963093974,0,SAnode/6963093974
-4.0810166,Arrêt,5.3395998,node/6963093975,0,SAnode/6963093975
-3.9661886,Digue de Koumassi,5.2758153,SAnode/6935274799,1,
-3.965703,Marché,5.2585828,SAnode/6935274794,1,
-3.9975968,ENA,5.3615936,node/5957239665,0,SAnode/5957239665
-4.0086137,AMI sn,5.2660346,node/6945966274,0,SAnode/6945864859
-4.0060763,Rue des Pétroliers,5.2688363,node/6945966275,0,SAnode/6945966275
-3.9831166,Groupe Scolaire Kouamé Konan,5.2627714,SAnode/6935274791,1,
-3.991548,Carrefour 22è,5.3989296,node/5957239662,0,SAnode/5957239662
-3.9498116,Pharmacie Regina,5.298266,SAnode/6935274804,1,
-3.9582726,Ajavon,5.2909815,SAnode/6935274806,1,
-3.9612938,Foyer des Jeunes,5.2902818,SAnode/6935274807,1,
-3.9692871,CIE Bia Sud,5.2813533,SAnode/6935274800,1,
-3.9904471,Sococé Vallon,5.3742722,SAnode/6935251105,1,
-3.9897873,Nsia Banque,5.3686002,SAnode/6935251106,1,
-3.9897014,La Automatic,5.364963,SAnode/6935251107,1,
-3.9907542,Versus Bank,5.3576192,SAnode/6935251109,1,
-3.9668678,Centre Commercial Koumassi,5.2889304,SAnode/6935274808,1,
-3.9667035,Carrefour Ancien Koumassi,5.2768282,SAnode/6935274809,1,
-4.0708852,Arrêt,5.4490874,node/6952566210,0,SAnode/6938324880
-3.9429814,Bureau Bad,5.3385823,node/6948290581,0,SAnode/6948290581
-3.9368337,Arrêt,5.3327177,node/6948290580,0,SAnode/6948222237
-4.0716147,Arrêt,5.4522514,node/6952566211,0,SAnode/6938324880
-3.9805625,Petite Mosquée Riviéra Jardin,5.3512739,node/6928179126,0,SAnode/6928179126
-4.0891591,Résidence Hôtel Georges Colette,5.3453455,node/6909812231,0,SAnode/6909707230
-3.9649889,Arrêt,5.256211,node/6937789671,0,SAnode/6937789671
-3.9936456,Gare Campus Cocody,5.3463096,node/6910224899,0,SAnode/6908599212
-4.061462,Terminus 85,5.3294751,node/6910743309,0,SAnode/4411562346
-3.9464354,Campement,5.3022414,SAnode/6927330411,1,
-4.0319963,Station Petro Ivoire,5.358876,node/6909237632,0,SAnode/6909237632
-4.0074744,Arrêt,5.4155561,node/6980521697,0,SAnode/6910797792
-4.0384581,A l'escalier,5.4380495,node/6903602220,0,SAnode/6903602211
-4.0057075,Arrêt,5.399921,node/6980521690,0,SAnode/6927037614
-4.0065511,Arrêt,5.4015232,node/6980521691,0,SAnode/6927037614
-4.0239746,Immeuble Sogephia Hévéa,5.3282245,node/6905772460,0,SAnode/6905772460
-3.9930996,Opéra,5.3845481,SAnode/6912820408,1,
-4.0374551,Gare lagunaire Aqualines Yopougon,5.308096,SAnode/5390465849,1,
-3.9481486,Centre Médico-social,5.3097742,node/6952200469,0,SAnode/6952200469
-4.0773951,Arrêt,5.3747704,node/6934648725,0,SAnode/6909225536
-4.0757427,Arrêt,5.3836466,node/6934648724,0,SAnode/6934648724
-4.0820444,Arrêt,5.3762544,node/6934648726,0,SAnode/6909225536
-4.0842761,Arrêt,5.4009224,node/6934648721,0,SAnode/6934648720
-4.0834808,Arrêt,5.4036687,node/6934648720,0,SAnode/6934648720
-4.078453,Arrêt,5.3892384,node/6934648723,0,SAnode/6934648723
-4.0810159,Arrêt,5.3935763,node/6934648722,0,SAnode/6934648722
-3.9779824,Riviéra 2,5.3532599,node/6915487642,0,SAnode/3145728412
-3.9881887,École de Police,5.3502292,node/6915487643,0,SAnode/6915487643
-3.9598948,Carrefour de la Gendarmerie,5.3606149,node/6915487640,0,SAnode/6915487640
-3.9665508,Cap Nord,5.3568703,node/6915487641,0,SAnode/6915487641
-4.0784458,Arrêt,5.389032,node/6934648729,0,SAnode/6934648723
-4.0759718,Arrêt,5.3838941,node/6934648728,0,SAnode/6934648724
-3.9943092,École de la Gendarmerie,5.3492233,node/6915487644,0,SAnode/6915487644
-4.0018322,Carrefour de la Vie,5.3485522,node/6915487645,0,SAnode/5954541440
-3.9957176,Arrêt,5.3349056,SAnode/6948695746,1,
-4.0184346,Gare Sud,5.3149553,node/6955514940,0,SAnode/6474137967
-3.946713,Bon Samaritain,5.3080062,SAnode/6919758038,1,
-3.9473403,Pharmacie Fanny,5.3099762,SAnode/6919758039,1,
-3.9453759,Arrêt,5.3043266,SAnode/6919758037,1,
-3.9526269,Sogefia,5.297599,SAnode/6919758034,1,
-3.9478318,Arrêt,5.2987064,SAnode/6919758035,1,
-4.0181049,Gare Sud,5.3145043,node/6474137967,0,SAnode/6474137967
-3.9547831,Arrêt,5.2855772,node/7026364429,0,SAnode/6931792548
-3.9790994,Jules ferry,5.3642087,SAnode/6903639371,1,
-4.003273,Ecobank,5.3018099,SAnode/6906463294,1,
-3.9630926,Rue H61,5.2921887,node/6951224049,0,SAnode/6951224049
-4.01752,Gare Sud,5.3154387,node/6969583476,0,SAnode/6474137967
-4.0082087,Arrêt,5.3002327,SAnode/6937770645,1,
-4.0185824,Gare Sud,5.3147951,node/6969583474,0,SAnode/6474137967
-4.0106696,Supermarché Casino,5.3451973,node/6969583472,0,SAnode/6969583472
-4.0097992,Clinique Providence,5.3472803,node/6969583471,0,SAnode/6969583471
-4.0550937,La Poste,5.3337753,SAnode/6913190452,1,
-4.055093,Pharmacie Sacré-cœur,5.3369773,SAnode/6913190453,1,
-4.058547,Pharmacie Béatitude,5.3401473,SAnode/6913190454,1,
-3.8973275,Arrêt,5.2395482,SAnode/6937770649,1,
-4.0151837,Arrêt,5.3172748,node/6969583478,0,SAnode/6969583478
-3.9930649,Arrêt,5.4159386,node/6927037611,0,SAnode/6915341541
-4.0063848,Arrêt,5.4057129,node/6927037613,0,SAnode/6927037612
-4.0063405,Arrêt,5.408251,node/6927037612,0,SAnode/6927037612
-4.0057893,Arrêt,5.3930717,node/6927037615,0,SAnode/6927037615
-4.0064518,Arrêt,5.4013897,node/6927037614,0,SAnode/6927037614
-4.0066168,Arrêt,5.3801858,node/6927037617,0,SAnode/6927037617
-4.0056726,Arrêt,5.3875774,node/6927037616,0,SAnode/6927037616
-4.0169801,Pharmacie le Belier,5.3503578,node/6927037619,0,SAnode/6907121510
-4.0168427,Arrêt,5.3625903,node/6927037618,0,SAnode/6927037618
-4.0024723,Carrefour de la Vie,5.3492831,node/5954541440,0,SAnode/5954541440
-3.9386439,EPP Aéroport,5.2544081,node/6952132233,0,SAnode/6952132233
-3.9434065,Rue K63,5.2486135,node/6952132232,0,SAnode/6952132232
-3.9672503,La pharmacie,5.276028,node/6952132230,0,SAnode/6952132230
-3.9450909,Carrefour Aéroport,5.2469401,node/6952132235,0,SAnode/6935488166
-3.934246,Aéroport,5.2536201,node/6952132234,0,SAnode/6952132234
-3.9619017,Carrefour Akwaba,5.2690687,node/6934657651,0,SAnode/6934657651
-4.0169741,220 logements,5.3480962,node/6934657650,0,SAnode/6907154301
-3.9637684,Nouveau marché Port-Bouët,5.2574343,node/6934657653,0,SAnode/6934657653
-3.9633662,Hôpital de Port-Bouët,5.2629137,node/6934657652,0,SAnode/6934657652
-3.9621216,Église Méthodiste Unie Port-Bouët,5.2542438,node/6934657655,0,SAnode/6934657655
-3.961553,Océan Espadon,5.2567198,node/6934657654,0,SAnode/6934657654
-3.9560196,Terminus Port-Bouët Phare,5.2510654,node/6934657657,0,SAnode/6934657657
-3.9607128,Wharf Port-Bouët,5.2530566,node/6934657656,0,SAnode/6934657656
-4.0549944,Carrefour Lama Fofana,5.3373205,node/6912805212,0,SAnode/6912805212
-3.9397017,Pharmacie,5.3357956,node/6948270622,0,SAnode/6903347579
-3.9451191,Arrêt,5.339027,node/6948270623,0,SAnode/6948270623
-3.9322612,Teminus M'Badon,5.3285142,node/6948270620,0,SAnode/6948222239
-4.0792393,Pharmacie du Marché,5.3388207,SAnode/6912805206,1,
-3.9418454,Ambassade de Chine,5.3329114,node/6948270624,0,SAnode/6948270624
-3.9568537,Arrêt,5.3538285,node/6948270625,0,SAnode/6932239016
-4.0652525,Ex Chaine Avion Rue Princesse,5.3467623,SAnode/6912805209,1,
-4.0752894,Patisserie,5.3384061,SAnode/6912805208,1,
-4.0741883,Siporex après le feu,5.3540928,node/6910224910,0,SAnode/6910224910
-4.0741772,Siporex-Sicomex,5.3566819,node/6910224911,0,SAnode/6909923471
-4.0724972,Add a name to the stop with JungleBus app,5.36188,node/6909225529,0,SAnode/6909225529
-4.0074831,Parc des Sports,5.2971256,SAnode/6909208699,1,
-3.9524998,Carrefour Mel Theodore,5.3446873,node/6932323635,0,SAnode/6932239013
-3.9531872,Pharmacie Riviera III,5.3485048,node/6932323634,0,SAnode/6932239014
-3.9448656,École libanaise Al Ghadir,5.3284521,node/6932323636,0,SAnode/6932323636
-3.9543647,Collège Ardoise,5.3517214,node/6932323633,0,SAnode/6932323633
-3.9635029,Arrêt,5.3569409,node/6932323632,0,SAnode/6932239016
-4.0024723,Carrefour de la Vie,5.3492831,SAnode/5954541440,1,
-4.0261674,Glacier restaurant J.Colimar,5.4327155,SAnode/6905553519,1,
-3.9828404,Arrêt,5.3044464,SAnode/6917151685,1,
-4.0660062,Sable,5.3556644,SAnode/6910743313,1,
-4.0185633,Gare Sud,5.3146776,node/6926943111,0,SAnode/6474137967
-3.990551,NSIA,5.3074734,SAnode/6913703801,1,
-4.0021679,Gare Blockauss,5.3232894,SAnode/6907141798,1,
-4.0013589,Banque Mondiale,5.3278237,SAnode/6907141799,1,
-4.0106159,Pain chaud,5.4170815,node/6906699470,0,SAnode/6906699469
-3.9602508,Pharmacie Ehilie,5.2928524,SAnode/6906463288,1,
-3.966735,Mosquée,5.2913568,SAnode/6906463289,1,
-4.0029046,Archibat,5.3459837,SAnode/6907141796,1,
-4.0238801,Immeuble Sogefiha,5.3278045,SAnode/6474137958,1,
-4.0033579,RTI,5.342209,SAnode/6907141795,1,
-4.0945986,Garbadrome,5.3718154,node/6961643502,0,SAnode/6961643502
-4.0668084,Maquis le Marlin Bleu,5.3427541,node/3137208051,0,SAnode/3137208051
-3.9323347,Teminus M'Badon,5.3286344,node/6948222239,0,SAnode/6948222239
-4.0043218,Arrêt,5.3528041,node/6927327310,0,SAnode/6927327305
-4.080812,Sideci Lem - Carrefour Sgbci,5.330154,node/6944934859,0,SAnode/6944934859
-3.9452136,Antenne,5.3392333,node/6948222234,0,SAnode/6903347581
-4.0124663,Polyclinique,5.3433536,node/6927327313,0,SAnode/6927327313
-4.0186967,Gare Sud,5.3147983,node/6927327314,0,SAnode/6474137967
-3.943904,Carrefour Ambassade de Chine,5.334941,node/6948222233,0,SAnode/6948222233
-3.9522725,Arrêt,5.3417576,node/6948222230,0,SAnode/6932239012
-3.9521505,Arrêt,5.3392567,node/6948222231,0,SAnode/6932239012
-4.0256668,Foire de Chine,5.347769,SAnode/6474137952,1,
-3.9540428,Koumassi Sicogi - Dépôt SOTRA,5.2873212,SAnode/6931273195,1,
-4.0205509,Hôtel de Ville,5.3238162,node/6136850508,0,SAnode/6136850508
-4.0205339,Hotel de Ville,5.3234932,node/6136850509,0,SAnode/6136850509
-3.9762314,Sicomex,5.293018,SAnode/6931273200,1,
-4.0699545,Arrêt,5.4448793,node/6952566209,0,SAnode/6934648714
-4.0559909,Arrêt,5.4436978,node/6952566208,0,SAnode/6934648711
-3.9618125,Quick Market,5.3738506,node/6815808839,0,SAnode/6815808839
-3.9857961,Terminus 81/82,5.4037729,node/6815808838,0,SAnode/6815808838
-3.9591336,Carrefour Palmeraie,5.3620442,node/6815808831,0,SAnode/5953580667
-3.9744202,CNPS 9ème Tranche,5.3865761,node/6815808833,0,SAnode/6815808833
-4.0109827,Abobo Akeikoi Village,5.4604925,node/6934922723,0,SAnode/6934922723
-4.0136415,Arrêt,5.4493063,node/6934922726,0,SAnode/6934922726
-4.0141618,Arrêt,5.4400103,node/6934922728,0,SAnode/6934922728
-4.0735191,Saguidiba,5.3315587,node/6910224905,0,SAnode/6909923475
-4.0292533,Arrêt,5.4148679,node/6944920985,0,SAnode/6938222043
-4.032333,Station Afriquia,5.3501257,node/6904171066,0,SAnode/6904171066
-4.0328135,Carrefour Attecoubé,5.3524283,node/6904171067,0,SAnode/6904171067
-4.0345467,Boulevard Felix Houphouët Boigny,5.346448,node/6904171064,0,SAnode/6904171064
-4.033957,Marché,5.3490624,node/6904171065,0,SAnode/6904171065
-4.0345833,Attécoubé Terminus 04,5.343795,node/6904171063,0,SAnode/6904171063
-4.0201934,Arrêt,5.400118,node/6934749721,0,SAnode/6934749721
-4.0309717,Add a name to the stop with JungleBus app,5.3574167,node/6904171068,0,SAnode/6904171068
-4.0958456,Dépôt Yopougon zone Industrielle,5.3741528,SAnode/6909430730,1,
-4.0038018,SODEMI,5.3442806,SAnode/6907147646,1,
-4.0033259,Sgbci,5.3404792,SAnode/6907147647,1,
-4.0180283,Texaco,5.3543681,SAnode/6907147644,1,
-4.0101289,Pont lycée technique,5.3478735,SAnode/6907147645,1,
-4.0003179,PMI,5.3334363,SAnode/6907147649,1,
-4.0351391,Arrêt Centre Bus,5.4378844,node/6905344265,0,SAnode/6905344263
-4.0390169,Terminus 45 À l'escalier,5.4384645,node/6905344264,0,SAnode/6905344264
-3.9980283,Dahico,5.4185867,SAnode/6903397406,1,
-4.03386,Banque Atlantique,5.3489601,SAnode/6905719623,1,
-4.0304951,Programme National d'Éradication du Ver de Guinée,5.357702,SAnode/6905719621,1,
-4.0344246,Commissariat du 10ᵉ arrondissement,5.3471108,SAnode/6905719624,1,
-4.0739979,Siporex-Sicomex,5.3568101,SAnode/6909923471,1,
-4.0732898,William-Ponty,5.3448074,SAnode/6909923473,1,
-4.0740046,Siporex avant le feu,5.3538004,SAnode/6909923472,1,
-4.0733247,Saguidiba,5.3326109,SAnode/6909923475,1,
-4.0732871,Yopougon 16ème Advans,5.3388868,SAnode/6909923474,1,
-4.0735526,Gare Yopougon Kouté,5.3297734,SAnode/6909923477,1,
-4.0238252,Arrêt,5.3339228,SAnode/6927037623,1,
-4.0734038,William-Ponty,5.345666,node/6910224909,0,SAnode/6909923473
-4.0439558,Santé Village,5.3095505,node/6910794085,0,SAnode/6910794085
-3.9700449,Terminus Riviera 2,5.3534453,SAnode/6928179123,1,
-4.0353389,Gare Abobodoumé,5.3101983,node/6910794088,0,SAnode/6910794088
-3.9805625,Petite Mosquée Riviéra Jardin,5.3512739,SAnode/6928179126,1,
-3.9736351,Cité étudiante Riviera 2,5.3533983,SAnode/6928179124,1,
-4.0961792,kiosque,5.3727101,node/6909225533,0,SAnode/6909225533
-3.9630926,Rue H61,5.2921887,SAnode/6951224049,1,
-4.0222108,Gendarmerie,5.4284112,node/6905344268,0,SAnode/6903602207
-3.9619419,Arrêt,5.2972737,node/6917146079,0,SAnode/6917146069
-3.9585451,Arrêt,5.2980163,node/6917146078,0,SAnode/6917146078
-4.0281877,Gare Nord,5.3589119,node/6905326498,0,SAnode/6474137946
-3.9531436,Koumassi Prodomo,5.2992706,node/6917146072,0,SAnode/6917146072
-3.9572333,Place Inchallah,5.2983628,node/6917146071,0,SAnode/6917146071
-3.9928235,Aghien 2 plateaux,5.3883091,node/6964184463,0,SAnode/6964184463
-3.9543702,Palce Inchallah,5.2989496,node/6917146077,0,SAnode/6917146077
-3.9505841,Station Petro Ivoire,5.2998074,node/6917146076,0,SAnode/6917146076
-3.9483867,Koumassi Mesano,5.3002935,node/6917146075,0,SAnode/6917146074
-4.0623826,Clinique les Oliviers,5.333826,node/6910743310,0,SAnode/6910703477
-4.0623477,Nouveau quartier,5.3375141,node/6910743311,0,SAnode/6910703476
-4.0634635,Bel Air,5.3460439,node/6910743312,0,SAnode/6910703474
-4.0660062,Sable,5.3556644,node/6910743313,0,SAnode/6910743313
-4.0634474,Institut des aveugles,5.3513983,node/6910743314,0,SAnode/6910703473
-3.9487208,Eglise Evangélique Internationnal Foursquare,5.3117096,SAnode/3218806159,1,
-4.0062426,Pharmacie de l'Avenue 27,5.3029946,SAnode/6924979792,1,
-4.0804016,Yopougon Sideci - Terminus 42,5.3198783,node/768587373,0,SAnode/6910755174
-4.0021679,Gare Blockauss,5.3232894,node/6907141798,0,SAnode/6907141798
-4.0768933,Sideci Pharmacie Lem,5.3314425,SAnode/6944816371,1,
-4.0798317,Sideci Lem,5.3305385,SAnode/6944816372,1,
-4.0813807,Meygi,5.3270574,SAnode/6944816373,1,
-4.0033579,RTI,5.342209,node/6907141795,0,SAnode/6907141795
-4.0029046,Archibat,5.3459837,node/6907141796,0,SAnode/6907141796
-4.0007897,Marché de Cocody,5.3356901,node/6907141797,0,SAnode/6907141797
-4.004071,Terminus CHU de Treichville,5.2948647,SAnode/4999458824,1,
-3.9820028,Temple des Vainqueurs,5.2600531,SAnode/6910272314,1,
-3.9874196,Terminus Cité Vridi,5.2666602,SAnode/6910272316,1,
-3.9932473,"SIR, Vridi",5.2565075,SAnode/6910272311,1,
-3.9824273,"Cité CIE, Vridi",5.2582659,SAnode/6910272313,1,
-3.9560196,Terminus Port-Bouët Phare,5.2510654,SAnode/6934657657,1,
-3.9607128,Wharf Port-Bouët,5.2530566,SAnode/6934657656,1,
-3.9621216,Église Méthodiste Unie Port-Bouët,5.2542438,SAnode/6934657655,1,
-3.961553,Océan Espadon,5.2567198,SAnode/6934657654,1,
-3.9637684,Nouveau marché Port-Bouët,5.2574343,SAnode/6934657653,1,
-3.9633662,Hôpital de Port-Bouët,5.2629137,SAnode/6934657652,1,
-3.9619017,Carrefour Akwaba,5.2690687,SAnode/6934657651,1,
-4.0784144,Arrêt,5.4130749,node/6934648732,0,SAnode/6934648719
-4.070195,Arrêt,5.4279813,node/6934648733,0,SAnode/6934648717
-4.0806236,Arrêt,5.3928929,node/6934648730,0,SAnode/6934648722
-4.0096436,Station Total,5.3018048,node/6926746689,0,SAnode/6926746689
-4.0650186,Arrêt,5.4435987,node/6934648736,0,SAnode/6934648714
-4.0602688,Arrêt,5.4437261,node/6934648737,0,SAnode/6934648712
-4.0686617,Arrêt,5.4326393,node/6934648734,0,SAnode/6934648717
-4.069498,Arrêt,5.4427909,node/6934648735,0,SAnode/6934648714
-4.0536714,Arrêt,5.4438909,node/6934648738,0,SAnode/6934648711
-4.0481434,Arrêt,5.4432611,node/6934648739,0,SAnode/6915722736
-4.0236032,Terminus tours Administratives,5.3309876,node/6926746686,0,SAnode/6474137956
-4.0208888,Avenue du Docteur Jamot,5.3296238,node/6926746685,0,SAnode/6926746685
-4.0623618,Complexe sportif de Yopougon,5.3415133,SAnode/5739489700,1,
-4.019718,Présidence,5.3179651,node/6474137979,0,SAnode/6474137979
-4.0016802,Nostalgie,5.3015791,node/6924851829,0,SAnode/6924851829
-4.0006757,Treichville Entente,5.3028704,node/6924851828,0,SAnode/6924851828
-4.0241008,Arrêt,5.4150828,node/6944887184,0,SAnode/6938222041
-4.0106321,"Avenue 19, Rue 12, Treichville",5.3023336,node/6924851825,0,SAnode/6924851825
-4.0115547,FIESTA,5.3047639,node/6924851826,0,SAnode/6924851826
-4.0138976,Arrêt,5.4486134,node/6966849452,0,SAnode/6934922726
-4.016671,Arrêt,5.3233545,node/6966849451,0,SAnode/6966849451
-4.0678704,Lycée Moderne Yopougon Andokoi,5.3623019,SAnode/6909225542,1,
-4.0667894,Centre Ivoire Couture,5.3615148,SAnode/6909225543,1,
-3.8928086,Arrêt,5.2386868,SAnode/6937770658,1,
-4.0185085,Gare Sud,5.3148704,node/6831076682,0,SAnode/6474137967
-3.9902179,Boulevard de France,5.3347766,node/5954541439,0,SAnode/5954541439
-3.9693582,Commissariat de Police du 6ᵉ,5.2898905,node/6951224050,0,SAnode/6951224050
-3.9498433,CIAD,5.3286164,node/5954541435,0,SAnode/5954541435
-3.8845293,Pharmacie Bénediction,5.2375957,SAnode/6937770652,1,
-3.8802069,Anani,5.2369286,SAnode/6937770653,1,
-3.8749894,Arrêt,5.2369172,SAnode/6937770655,1,
-3.8833565,Arrêt,5.2372444,SAnode/6937770656,1,
-3.888965,Collège privé les Cartésiens d'Abidjan,5.2380744,SAnode/6937770657,1,
-4.0167837,Pyramide,5.321624,SAnode/6908914495,1,
-3.9970998,Gendarmerie,5.3482687,node/6927544637,0,SAnode/6927544637
-4.0109539,"BIAO, Treichville",5.2988296,node/6952132224,0,SAnode/6952132224
-3.9883868,"Pizza, Marcory",5.2884596,node/6952132225,0,SAnode/6952132225
-3.9852865,Rue G39,5.2849322,node/6952132226,0,SAnode/6952132226
-3.9824903,Bank Of Africa,5.2786718,node/6952132227,0,SAnode/6952132227
-3.9767262,Église Notre-Dame d'Afrique,5.2734369,node/6952132228,0,SAnode/6952132228
-3.9714865,Sept Villas,5.2734089,node/6952132229,0,SAnode/6952132229
-4.0679411,Newton,5.3446768,SAnode/3137243386,1,
-3.9714879,Arrêt,5.2984764,node/6939014892,0,SAnode/6939014891
-4.0274686,Gare Nord,5.359076,node/6939014895,0,SAnode/6474137946
-3.9848064,Arrêt,5.3022895,node/6939014894,0,SAnode/6917151685
-3.9812806,Arrêt,5.3325809,node/6933080264,0,SAnode/6933080256
-3.98845,Grand carrefour Marcory,5.2998527,SAnode/6906463291,1,
-4.0239143,Arrêt,5.4191963,SAnode/6938222041,1,
-3.9580205,Arrêt,5.3710263,SAnode/6955514935,1,
-3.9598243,Arrêt Pharmacie Palmeraie,5.3635731,SAnode/6955514934,1,
-3.964382,Cocody SCI Les Rosiers,5.3808935,SAnode/6955514937,1,
-4.0374551,Gare lagunaire Aqualines Yopougon,5.308096,node/5390465849,0,SAnode/5390465849
-4.0832298,Terminus bus 47,5.3396167,SAnode/2948146673,1,
-4.0494999,Add a name to the stop with JungleBus app,5.3247299,SAnode/6912805217,1,
-4.0581514,Rue O130,5.3300685,node/6933043356,0,SAnode/6933043356
-4.0559573,Buvette,5.3314439,node/6933043357,0,SAnode/6933043357
-4.0549944,Carrefour Lama Fofana,5.3373205,SAnode/6912805212,1,
-4.0550186,Banque Atlantique,5.3337105,SAnode/6912805213,1,
-4.0617429,Terminus Yopougon Camp Militaire,5.3228845,node/6933043352,0,SAnode/6933043352
-4.0572314,Rue O130,5.3398829,SAnode/6912805211,1,
-4.018425,Gare Sud,5.3145591,node/6933043359,0,SAnode/6474137967
-4.0354465,Gare Abobo Doumé,5.3104606,SAnode/6912805219,1,
-3.9487208,Eglise Evangélique Internationnal Foursquare,5.3117096,node/3218806159,0,SAnode/3218806159
-4.0513358,Arrêt,5.4828953,node/6915722696,0,SAnode/6915722695
-4.0007964,Arrêt,5.2655592,SAnode/6967070473,1,
-4.0745628,Marche Sicogi,5.3395304,SAnode/6913190458,1,
-3.9819806,FIRDA,5.4034748,node/6912820393,0,SAnode/6912820393
-4.0258452,Marché Forum,5.3459921,SAnode/6474137984,1,
-4.0247204,Camp Galliéni,5.3339569,SAnode/6474137981,1,
-4.0197472,Galerie du Parc,5.3225013,SAnode/6474137980,1,
-4.026107,Institut National de la Santé Publique,5.3386571,SAnode/6474137982,1,
-3.9694727,Clinique Médicale Sainte Justine,5.3971939,node/6912820396,0,SAnode/6912820396
-3.9648829,Cité Diaspora,5.3998522,node/6912820397,0,SAnode/6910797801
-4.0257324,Pharmacie Sainte Marie,5.3468603,SAnode/6909039464,1,
-3.9927523,Mahikari,5.3888111,SAnode/6912820386,1,
-4.0202826,Infirmerie Sinikeya,5.3653249,SAnode/6908914499,1,
-3.9855963,"Bernabé Parc à Fer, Boulevard de Marseille",5.2854303,node/6954138441,0,SAnode/6954138441
-3.9635563,Commissariat 35è Art.,5.3776142,SAnode/6815808842,1,
-3.9725319,Groupe Scolaire St Marc,5.383206,SAnode/6815808846,1,
-4.012329,Pharmacie de la Sogefiha,5.4339703,SAnode/6908728765,1,
-3.9781939,Marché COCOVICO,5.4010482,SAnode/6815808844,1,
-3.9587098,Pharmacie du bonheur,5.3698807,SAnode/6815808845,1,
-3.940785,Terminus M'pouto - CIAD,5.328322,node/5143730222,0,SAnode/5143730222
-3.9776556,Rue G 69,5.2809293,node/6954138443,0,SAnode/6954138438
-4.0201934,Arrêt,5.400118,SAnode/6934749721,1,
-4.0727828,Arrêt,5.4724295,node/6952566218,0,SAnode/6938324875
-4.0716872,Arrêt,5.4769985,node/6952566219,0,SAnode/6938324873
-4.025647,Banque SIB,5.3421743,SAnode/6908914493,1,
