stop_lat,stop_name,location_type,parent_station,stop_lon,stop_id
5.3164439,Yopougon Niangon-Terminus 27,0,,-4.0893341,node/768587345
5.3198783,Yopougon Sideci - Terminus 42,0,,-4.0804016,node/768587373
5.3158647,Gare lagunaire Aqualines du Plateau,0,,-4.0148847,node/1227889258
5.3608351,Agban,0,,-4.0171229,node/2381298633
5.3438972,Fraternité Matin,0,,-4.018311,node/2444131222
5.3423485,Saint André lavage,0,,-4.0732432,node/2460519991
5.3413464,Arrêt,0,,-4.0238611,node/2493226931
5.2942027,Gare Koumassi,0,,-3.9551669,node/2493730483
5.3121324,Terminus 05 Lycée Municipal de Koumassi,0,,-3.945225,node/2760843854
5.3396167,Terminus bus 47,0,,-4.0832298,node/2948146673
5.3396157,Arrêt du Maroc,0,,-4.0912463,node/3067761599
5.3400629,Mosquée du Maroc,0,,-4.0973067,node/3067766555
5.3423254,Saint André,0,,-4.0738295,node/3075945505
5.3427541,[Arret sans nom],0,,-4.0668084,node/3137208051
5.3436761,2 poteaux,0,,-4.0709484,node/3137217828
5.3446768,Newton,0,,-4.0679411,node/3137243386
5.3531115,Riviéra 2,0,,-3.979568,node/3145728412
5.3117096,Eglise Evangélique Internationnal Foursquare,0,,-3.9487208,node/3218806159
5.3368705,Saint Jean,0,,-4.0037743,node/3326195828
5.3470567,Pharmacie Port-Bouët II,0,,-4.0884501,node/3666057101
5.3493507,Figayo,0,,-4.0734547,node/3950172145
5.3616481,"ENA Cocody, Boulevard Latrille",0,,-3.9973698,node/4029208102
5.2742845,Pharmacie de Bietry,0,,-3.9787018,node/4107240891
5.3296306,Terminus 85,0,,-4.061373,node/4411562346
5.2948647,Terminus CHU Treichville,0,,-4.004071,node/4999458824
5.30185,Ex-pharmacie Mockey,0,,-4.011123,node/5057165424
5.3369029,Carrefour St Jean,0,,-4.0039817,node/5057297311
5.4158258,Terminus 704 abobo Belleville,0,,-3.9933116,node/5068855021
5.328322,Terminus M'pouto - CIAD,0,,-3.940785,node/5143730222
5.3284442,Terminus M'pouto - CIAD,0,,-3.9410686,node/5143751833
5.3437686,[Arret sans nom],0,,-4.0711802,node/5281604034
5.3078259,Gare lagunaire Aqualines Yopougon,0,,-4.0374018,node/5390465849
5.3555889,Stif,0,,-4.0205264,node/5414376221
5.3415133,Complexe sportif de Yopougon,0,,-4.0623618,node/5739489700
5.3493427,Figayo,0,,-4.073208,node/5927302128
5.3419897,Arrêt,0,,-4.1003513,node/5934409413
5.3671401,Yopougon Gesco - Terminus du bus 34,0,,-4.1020437,node/5936892363
5.3802448,Pharmacie Val de Grace,0,,-3.967352,node/5953580661
5.3618751,Carrefour Palmeraie,0,,-3.9593077,node/5953580667
5.3582581,Station Shell Riviera 3,0,,-3.9643623,node/5953580668
5.3286164,CIAD,0,,-3.9498433,node/5954541435
5.3347766,Boulevard de France,0,,-3.9902179,node/5954541439
5.3492831,Carrefour de la Vie,0,,-4.0024723,node/5954541440
5.3989296,Carrefour 22ème,0,,-3.991548,node/5957239662
5.3855754,Carrefour Opéra,0,,-3.9931428,node/5957239663
5.3615936,ENA,0,,-3.9975968,node/5957239665
5.328578,Hotel Ivoire,0,,-4.0050058,node/5957239666
5.3975314,Pharmacie Les Laureades,0,,-3.9860303,node/5958266385
5.3806539,Petro Ivoire 7è Tranche,0,,-3.9881294,node/5958266386
5.373758,Commisariat 30è Art.,0,,-3.9845519,node/5958266387
5.3701109,Terminus 202 Attoban,0,,-3.9813021,node/5958266388
5.3673274,Parmacie St Bernard,0,,-3.9797109,node/5958266389
5.3573659,Pharmacie St Ange,0,,-3.9782153,node/5958266390
5.3558222,Collège André Malraux,0,,-3.9779596,node/5958266391
5.3541895,Riviera 2,0,,-3.9773239,node/5958266392
5.3247785,Saint Paul Plateau,0,,-4.0207447,node/6098848385
5.3238162,Hôtel de Ville,0,,-4.0205509,node/6136850508
5.3234932,Hotel de Ville,0,,-4.0205339,node/6136850509
5.3226907,Terminus Hotel de Ville,0,,-4.0205256,node/6136858285
5.3317403,Cathédrale Saint paul,0,,-4.021322,node/6195348341
5.4148488,Terminus bus 51/52,0,,-4.0333199,node/6281030720
5.4351428,Gare Abobo Sogephia,0,,-4.0144508,node/6474137921
5.4364247,BICICI,0,,-4.0125419,node/6474137923
5.4382745,Cours Sociaux,0,,-4.0147435,node/6474137925
5.4381179,Avenue Kaza,0,,-4.019424,node/6474137927
5.4355472,Camp Commando,0,,-4.0202491,node/6474137929
5.4306474,Station Shell,0,,-4.0200922,node/6474137931
5.4263959,Gendarmerie Abobo,0,,-4.0198488,node/6474137932
5.4234101,Terminus Gendarmerie Abobo,0,,-4.0187446,node/6474137934
5.4171616,2ème Arrêt,0,,-4.0166455,node/6474137936
5.4131456,Banco,0,,-4.015971,node/6474137938
5.4089746,Anador,0,,-4.0160152,node/6474137940
5.392647,Université Nangui Abrogoua,0,,-4.0207427,node/6474137942
5.3774907,Macaci,0,,-4.0255918,node/6474137944
5.3592442,Gare Nord,0,,-4.027655,node/6474137946
5.3591608,Gare Nord,0,,-4.0274455,node/6474137948
5.3533564,Grande Mosquée Adjamé,0,,-4.0257671,node/6474137950
5.347769,Foire de Chine,0,,-4.0256668,node/6474137952
5.3431984,Mairie d'Adjamé,0,,-4.0259753,node/6474137954
5.3312372,Terminus tours Administratives,0,,-4.0238205,node/6474137956
5.3278045,Immeuble Sogefiha,0,,-4.0238801,node/6474137958
5.3145043,Gare Sud,0,,-4.0181049,node/6474137967
5.3179651,Présidence,0,,-4.019718,node/6474137979
5.3225013,Galerie du Parc,0,,-4.0197472,node/6474137980
5.3339569,Camp Galliéni,0,,-4.0247204,node/6474137981
5.3386571,Institut National de la Santé Publique,0,,-4.026107,node/6474137982
5.343713,Mairie d'Adjamé,0,,-4.0260496,node/6474137983
5.3459921,Marché Forum,0,,-4.0258452,node/6474137984
5.3503682,Pharmacie du Banco,0,,-4.0255664,node/6474138985
5.3534527,Grande Mosquée Adjamé,0,,-4.0259071,node/6474138986
5.3586829,Gare Nord,0,,-4.028099,node/6474138987
5.3765774,Macaci,0,,-4.0263861,node/6474138988
5.3906844,Filtisac,0,,-4.021035,node/6474138989
5.4085961,Anador,0,,-4.0162969,node/6474138990
5.4135848,Banco,0,,-4.0162419,node/6474138991
5.4183764,Saint-Joseph 2ème Arrêt,0,,-4.0173344,node/6474138992
5.4237125,Terminus Gendarmerie Abobo,0,,-4.0190818,node/6474138993
5.4315506,Bar Ivoire Abobo,0,,-4.020231,node/6474138994
5.4363436,DGI Abobo,0,,-4.0203886,node/6474138995
5.4382274,Avenue Kaza,0,,-4.0189201,node/6474138996
5.4383936,Carrefour Akeïkoi,0,,-4.0138587,node/6474138997
5.3149589,Terminus Gare Sud,0,,-4.0190673,node/6474138999
5.4350792,Cité Universitaire Abobo,0,,-4.0127537,node/6474139031
5.4354761,Quai 15,0,,-4.0154322,node/6474139033
5.3580852,Station Shell Riviera 3,0,,-3.9641507,node/6815808830
5.3620442,Carrefour Palmeraie,0,,-3.9591336,node/6815808831
5.3865761,CNPS 9ème Tranche,0,,-3.9744202,node/6815808833
5.4010646,Marché COCOVICO,0,,-3.9780418,node/6815808834
5.3738506,Quick Market,0,,-3.9618125,node/6815808839
5.3737728,Quick Market,0,,-3.9618581,node/6815808840
5.3776142,Commissariat 35è Art.,0,,-3.9635563,node/6815808842
5.3866021,CNPS 9ème Tranche,0,,-3.9745308,node/6815808843
5.4010482,Marché COCOVICO,0,,-3.9781939,node/6815808844
5.3698807,Pharmacie du bonheur,0,,-3.9587098,node/6815808845
5.383206,Groupe Scolaire St Marc,0,,-3.9725319,node/6815808846
5.282599,Camp Commando de Koumassi,0,,-3.9692172,node/6819328985
5.2892136,Grand carrefour de Koumassi,0,,-3.9707407,node/6819329085
5.2921087,Hôtel Ibis Marcory,0,,-3.9741109,node/6819329086
5.2916293,Hôtel Ibis Marcory,0,,-3.973691,node/6819329185
5.3008419,Chimtec Grand carrefour Marcory,0,,-3.9897184,node/6819329285
5.335819,Ambassade des USA,0,,-3.9767155,node/6820855646
5.3309825,Hotel du Golf,0,,-3.9728877,node/6820855647
5.3310297,Hotel du Golf,0,,-3.9730064,node/6820855648
5.3312498,Ex Terminus Sotra;Carrefour Sol Beni,0,,-3.9579229,node/6820855649
5.332764,Cathédrale Saint paul,0,,-4.021605,node/6831076677
5.3299678,Église Méthodiste Unie de Côte d'Ivoire,0,,-4.0205671,node/6831076678
5.3148704,Gare Sud,0,,-4.0185085,node/6831076682
5.2988832,Cap Sud,0,,-3.9867521,node/6832290086
5.2996481,Gare de bassam,0,,-4.0022393,node/6899034705
5.3004143,Gendarmerie,0,,-3.9997862,node/6899034706
5.303315,Notre-dame,0,,-4.0037983,node/6899034707
5.3072484,Pharmacie Nanan Yamousso,0,,-4.005186,node/6899034708
5.3099574,Après le pont,0,,-4.0061407,node/6899034709
5.3534116,Adjamé liberté,0,,-4.0160603,node/6899034710
5.3534437,Adjamé liberté,0,,-4.014858,node/6899053345
5.3535364,Gare de Bingerville,0,,-4.0120307,node/6899053346
5.325075,Feux du plateau,0,,-4.0152949,node/6899053347
5.3101491,Nanan Yamousso,0,,-4.0061218,node/6899053348
5.2996797,Gare de bassam,0,,-4.0024275,node/6899053349
5.4200067,Abobo Gare Mairie,0,,-4.0174383,node/6899241573
5.4143755,Mobil,0,,-4.0159818,node/6899241574
5.3846161,Lavage,0,,-4.0215029,node/6899241575
5.37725,Macaci,0,,-4.0257575,node/6899241576
5.3543459,Adjamé Liberté,0,,-4.0164004,node/6899241577
5.349107,Marché Gouro,0,,-4.0212174,node/6899264970
5.3547097,Adjamé Liberté,0,,-4.0163905,node/6899264971
5.358734,Station Total,0,,-4.016791,node/6899264972
5.4215493,Abobo Gare Mairie,0,,-4.0171184,node/6899264973
5.4195759,Carrefour Marché,0,,-4.0153363,node/6902638988
5.4186048,Petro Ivoire,0,,-4.0135168,node/6902638989
5.4168519,Au Bar,0,,-4.0101975,node/6902638990
5.4157998,Petit Carrefour,0,,-4.0080786,node/6902638991
5.4152517,Samaké,0,,-4.0066972,node/6902638992
5.3994804,Azur,0,,-4.0064894,node/6902638993
5.3780522,Panneau ZOO,0,,-4.0070352,node/6902638994
5.4197843,Abobo Gare Mairie,0,,-4.0157753,node/6902638995
5.4176548,Ciné Cool,0,,-4.0117095,node/6902638996
5.4144283,Boulangerie Samake,0,,-4.0062697,node/6902638997
5.410863,Menuiserie,0,,-4.0062877,node/6902638998
5.4101067,Tchapatcha,0,,-4.0063067,node/6902638999
5.4092677,Chaine Avion,0,,-4.0063409,node/6902639000
5.4051188,Pharmacie Dokui,0,,-4.0063993,node/6902639001
5.4036347,SODECI,0,,-4.0064176,node/6902639002
5.4020967,Étage Noir,0,,-4.0064567,node/6902639003
5.4001879,Mobil,0,,-4.0064867,node/6902639004
5.3968179,Arrêt Dokui,0,,-4.006353,node/6902639005
5.3929293,Ancien Feu,0,,-4.005793,node/6902639006
5.3872276,Bangui,0,,-4.005732,node/6902639007
5.3851864,Vidange,0,,-4.0060126,node/6902639008
5.382931,HMA,0,,-4.0063262,node/6902639009
5.3721147,Carrefour paillet,0,,-4.0118134,node/6902639010
5.3653117,Carrefour 2 Plateaux,0,,-4.0157876,node/6902639011
5.3553627,Gare des gbakas d’Abobo par le zoo,0,,-4.0160705,node/6902639012
5.4184847,Petro Ivoire,0,,-4.0136214,node/6902868224
5.4176463,Ciné Cool,0,,-4.0120067,node/6902868225
5.4167077,Au Bar,0,,-4.0102981,node/6902868226
5.4051935,Pharmacie Dokui,0,,-4.0065403,node/6902868227
5.4036701,SODECI,0,,-4.0065873,node/6902868228
5.40212,Étage Noir,0,,-4.0066315,node/6902868229
5.4002027,Mobil,0,,-4.0066597,node/6902868230
5.3994577,Azur,0,,-4.0066034,node/6902868231
5.3965911,Arrêt Dokui,0,,-4.0064518,node/6902868232
5.3928327,Ancien Feu,0,,-4.0059301,node/6902868233
5.387253,Bangui,0,,-4.005859,node/6902868234
5.3852715,Vidange,0,,-4.0061326,node/6902868235
5.3829176,HMA,0,,-4.0064505,node/6902868236
5.3716859,Carrefour paillet,0,,-4.0122239,node/6902868237
5.365405,Carrefour 2 Plateaux,0,,-4.0159576,node/6902868238
5.3633371,Willy Agban,0,,-4.0168128,node/6902868239
5.3668297,Cimetière,0,,-4.0152077,node/6902868240
5.3765337,CIE,0,,-4.0094557,node/6902868241
5.3789939,ZOO,0,,-4.0070149,node/6902868242
5.3900553,Eglise,0,,-4.0056173,node/6902868243
5.41329,Pharmacie Racines,0,,-4.0099567,node/6902868244
5.4197639,Abobo Gare Mairie,0,,-4.0160257,node/6902868245
5.4500232,Christine Bar,0,,-4.0135154,node/6902975747
5.4607326,Terminus Akéikoi village,0,,-4.0109926,node/6902975748
5.45899,A l'école,0,,-4.0107733,node/6902975749
5.455207,Destin,0,,-4.0112928,node/6902975750
5.4542173,Monnaie,0,,-4.0119566,node/6902975751
5.4528753,André Bar,0,,-4.0128592,node/6902975752
5.4510493,Carrefour marché,0,,-4.0133357,node/6902975753
5.446249,A l'étage,0,,-4.0143571,node/6902975754
5.4394513,Boulangerie,0,,-4.0141843,node/6902975755
5.4384053,Carrefour Akéikoi,0,,-4.0140378,node/6902975756
5.4225885,Gare Gbaka Akeïkoi,0,,-4.0161726,node/6902975757
5.4510779,Carrefour marché,0,,-4.0134484,node/6903084141
5.4530404,André Bar,0,,-4.0129173,node/6903084142
5.4542793,Monnaie,0,,-4.0120751,node/6903084143
5.438503,Au goudron,0,,-4.0142825,node/6903097494
5.4227551,Gare Abobo,0,,-4.0160694,node/6903097495
5.4230451,Au tournant,0,,-4.013945,node/6903097496
5.4278782,Au Feu,0,,-4.0146817,node/6903097497
5.433455,Célibataire,0,,-4.0124107,node/6903097498
5.4352003,JAUG,0,,-4.0124925,node/6903097499
5.4383233,Cité,0,,-4.0135883,node/6903097500
5.449017,Boulangerie,0,,-4.0138345,node/6903097501
5.4500084,Christine Bar,0,,-4.0136722,node/6903097502
5.4552984,Destin,0,,-4.01134,node/6903097503
5.4594779,A l'ecole,0,,-4.0109968,node/6903097504
5.460775,Terminus Akéikoi Village,0,,-4.0111868,node/6903097505
5.4429021,Mosquée,0,,-4.0144891,node/6903193216
5.4463091,A l'étage,0,,-4.0144891,node/6903193217
5.42194,Abobo Gare Mairie,0,,-4.0165181,node/6903268819
5.4223082,Gare Abobo Kennedy-Marché/ Mosquée Ado,0,,-4.0163197,node/6903268820
5.4211585,Station,0,,-4.0100057,node/6903268821
5.4236887,Kennedy Marché,0,,-4.0015221,node/6903268822
5.4221255,Mosquée,0,,-4.011717,node/6903296476
5.4186623,Carrefour Kennedy,0,,-4.0060106,node/6903296477
5.4186129,Carrefour Kennedy,0,,-4.0059221,node/6903296478
5.4213432,Makan Traoré,0,,-4.0039185,node/6903296479
5.4236156,Au marché,0,,-4.0015453,node/6903296480
5.423623,A Gauche,0,,-4.0021714,node/6903296481
5.4214359,Makan Traoré,0,,-4.0037249,node/6903296482
5.3286546,Cocody Riviera M'badon,0,,-3.9324706,node/6903347574
5.3293417,Nouveau marché,0,,-3.9332267,node/6903347575
5.329969,Ancien marché,0,,-3.9339946,node/6903347576
5.3307517,Centre de santé Municipal de M'Badon,0,,-3.9350317,node/6903347577
5.331008,La ferme,0,,-3.9352626,node/6903347578
5.3353839,Pharmacie,0,,-3.9393933,node/6903347579
5.3384154,2 poteaux,0,,-3.9427407,node/6903347580
5.339948,Antenne,0,,-3.945032,node/6903347581
5.345935,Carrefour Akouédo,0,,-3.9457017,node/6903347582
5.3461517,École,0,,-3.9471733,node/6903347583
5.3458217,2ème rond-point,0,,-3.9505483,node/6903347584
5.3503568,Gare en haut,0,,-4.0227501,node/6903370485
5.4210882,Station,0,,-4.0100339,node/6903374200
5.4196516,Immeuble Cercueil,0,,-4.00729,node/6903374201
5.4195595,Immeuble Cercueil,0,,-4.0074563,node/6903374202
5.4234508,Terminus mosquée Ado Kenedy,0,,-3.9978515,node/6903397403
5.4215774,A l'école,0,,-3.9978489,node/6903397404
5.4198617,[Arret sans nom],0,,-3.9979409,node/6903397405
5.4185867,Dahico,0,,-3.9980283,node/6903397406
5.4157689,Étage Noir,0,,-3.9992242,node/6903397407
5.415578,Samake,0,,-4.0059533,node/6903406997
5.4156671,Eglise,0,,-4.0037419,node/6903406998
5.415458,Eglise,0,,-4.0037763,node/6903504058
5.4155835,Monastère,0,,-4.0007226,node/6903504059
5.415434,Monastère,0,,-4.0008192,node/6903504060
5.4157731,Étage Noir,0,,-3.999403,node/6903504061
5.4185995,Dahico,0,,-3.9981732,node/6903504062
5.4339087,Hôtel du centre,0,,-4.0272132,node/6903525051
5.437375,A la Pompe,0,,-4.0337387,node/6903525052
5.4377181,Dépôt,0,,-4.0360617,node/6903525053
5.4390697,Anokoi,0,,-4.0444772,node/6903525054
5.439303,Anokoi,0,,-4.0444823,node/6903525055
5.4422211,Marahoué,0,,-4.0479148,node/6903525056
5.4439581,Agripac,0,,-4.0487972,node/6903525057
5.447775,Terminus,0,,-4.0509604,node/6903525058
5.4479797,Terminus,0,,-4.0508555,node/6903525059
5.4446545,Agripac,0,,-4.0489498,node/6903525060
5.4425017,Marahoué,0,,-4.0477433,node/6903525061
5.4379717,Dépôt,0,,-4.0360937,node/6903525062
5.4376377,A la Pompe,0,,-4.033852,node/6903525063
5.4367133,Marché de Nuit,0,,-4.030245,node/6903525064
5.4340417,Hôtel du centre,0,,-4.026894,node/6903525065
5.4217034,Abobo Gare,0,,-4.018191,node/6903525066
5.3489387,Complexe,0,,-4.0206447,node/6903535584
5.350348,Gare en haut,0,,-4.0224464,node/6903544086
5.3481387,Maternité,0,,-4.0180948,node/6903544087
5.3521055,Adjamé Liberté,0,,-4.014163,node/6903544088
5.3547793,2ème pont,0,,-4.0029137,node/6903544089
5.3301187,Marché,0,,-3.9339759,node/6903544090
5.4263231,Gendarmerie,0,,-4.0203577,node/6903602207
5.4298704,Mosquée Blanche,0,,-4.0233336,node/6903602208
5.4332219,Solibra,0,,-4.0262471,node/6903602209
5.4359152,Château,0,,-4.0288774,node/6903602210
5.4383388,A l'escalier,0,,-4.0383071,node/6903602211
5.4497913,PK 18 ancien marché,0,,-4.0521369,node/6903602212
5.4220421,Gare abobo,0,,-4.0184916,node/6903602213
5.4260466,Gendarmerie,0,,-4.0204342,node/6903602214
5.426524,Gendarmerie Avant le Feu,0,,-4.0208376,node/6903602215
5.4297276,Mosquée Blanche,0,,-4.0236152,node/6903602216
5.4330817,Solibra,0,,-4.0264367,node/6903602217
5.4357519,Château,0,,-4.0290698,node/6903602218
5.4365893,Marché de Nuit,0,,-4.0306363,node/6903602219
5.4380495,A l'escalier,0,,-4.0384581,node/6903602220
5.4382834,Nouvelle Gare,0,,-4.0411411,node/6903602221
5.4448006,Agripac Avant le Feu,0,,-4.0493193,node/6903602222
5.4493883,Station Total,0,,-4.0520966,node/6903602223
5.4499639,PK 18 ancien marché,0,,-4.052542,node/6903602224
5.370557,Attoban camp,0,,-3.9761316,node/6903639366
5.3694267,Escalier,0,,-3.9776678,node/6903639367
5.3673899,Pharmacie Saint Bernard,0,,-3.9794185,node/6903639368
5.3658448,Carrefour Garage,0,,-3.9793174,node/6903639369
5.365069,Polyclinique Sacré-Coeur,0,,-3.9792552,node/6903639370
5.3642087,Jules ferry,0,,-3.9790994,node/6903639371
5.362115,Hôtel Manhatan,0,,-3.9788028,node/6903639372
5.3589924,Doraville,0,,-3.978316,node/6903639373
5.3571667,Pharmacie Saint ange,0,,-3.9780678,node/6903639374
5.356275,André Malraux,0,,-3.9777617,node/6903639375
5.3505392,Gare en haut,0,,-4.0228251,node/6903639376
5.3672689,Pharmacie Saint Bernard,0,,-3.9796695,node/6903968407
5.3655779,Carrefour garage,0,,-3.9794498,node/6903968408
5.343795,Attécoubé Terminus 04,0,,-4.0345833,node/6904171063
5.346448,[Arret sans nom],0,,-4.0345467,node/6904171064
5.3490624,Marché,0,,-4.033957,node/6904171065
5.3501257,Station Afriquia,0,,-4.032333,node/6904171066
5.3524283,Carrefour Attecoubé,0,,-4.0328135,node/6904171067
5.3574167,[Arret sans nom],0,,-4.0309717,node/6904171068
5.3513557,Arrêt,0,,-4.0254169,node/6904171070
5.3412757,Adjamé Santé,0,,-4.0261722,node/6904171071
5.3381159,Institut National de la Santé Publique,0,,-4.025807,node/6904171072
5.3318344,Arrêts tours Administratives,0,,-4.0230192,node/6904171073
5.3266073,Cité financière Plateau,0,,-4.0206008,node/6904171074
5.3237991,SIB Alpha 2000,0,,-4.0196512,node/6904171075
5.3206169,Primature,0,,-4.0196681,node/6904171076
5.3089287,Résidence Cheick Yacouba Sylla,0,,-4.0157481,node/6904171077
5.3094876,Marché Treichville,0,,-4.0142576,node/6904171078
5.3109791,[Arret sans nom],0,,-4.0099697,node/6904171079
5.3126563,Biafra,0,,-4.006092,node/6904171080
5.3076251,Banque Atlantique,0,,-3.9933399,node/6904171081
5.3052787,Hôtel Hamanieh,0,,-3.9888629,node/6904171082
5.3043423,Sainte Thérèse,0,,-3.9869873,node/6904171083
5.3064581,Commissariat du 9 ème,0,,-3.9858381,node/6904171084
5.3088083,Gare Marcory,0,,-3.9839517,node/6904188585
5.3589119,Gare Nord,0,,-4.0281877,node/6905326498
5.4366266,Château,0,,-4.0307925,node/6905326503
5.3843543,Préfecture de Police,0,,-4.0219308,node/6905344262
5.4375564,Arrêt Centre Bus,0,,-4.0351608,node/6905344263
5.4384645,Terminus 45 À l'escalier,0,,-4.0390169,node/6905344264
5.4378844,Arrêt Centre Bus,0,,-4.0351391,node/6905344265
5.4365245,Château,0,,-4.0299554,node/6905344266
5.4328931,Arrêt,0,,-4.0259685,node/6905344267
5.4284112,Gendarmerie,0,,-4.0222108,node/6905344268
5.3836534,Préfecture de Police,0,,-4.0219627,node/6905344273
5.4284566,Gendarmerie,0,,-4.0225102,node/6905553518
5.4327155,[Arret sans nom],0,,-4.0261674,node/6905553519
5.3485701,Foire de Chine,0,,-4.0256884,node/6905719605
5.3299376,Église Méthodiste Unie de Côte d'Ivoire,0,,-4.0206943,node/6905719606
5.3251345,60 logements Plateau,0,,-4.0201163,node/6905719607
5.3087867,Hôpital du port,0,,-4.0177138,node/6905719608
5.3097288,Maison du Congres,0,,-4.0148424,node/6905719609
5.3073425,Pharmacie du Rond-point,0,,-4.0116929,node/6905719610
5.3090218,[Arret sans nom],0,,-4.0069793,node/6905719611
5.3080275,Nanan Yamousso,0,,-4.005442,node/6905719612
5.3048828,Paroisse Notre-Dame de Treichville,0,,-4.0043543,node/6905719613
5.3045623,Pharmacie de l'Entente,0,,-4.0015648,node/6905719614
5.3055251,Marché de Belleville,0,,-3.998829,node/6905719615
5.3075214,Banque Atlantique,0,,-3.9931172,node/6905719616
5.3049722,Hôtel Hamanieh,0,,-3.9887868,node/6905719617
5.3055778,Commissariat du 9éme,0,,-3.986118,node/6905719618
5.308097,Station Shell,0,,-3.9847286,node/6905719619
5.3584965,[Arret sans nom],0,,-4.0284151,node/6905719620
5.357702,[Arret sans nom],0,,-4.0304951,node/6905719621
5.3515438,Carrefour Attecoubé,0,,-4.0321715,node/6905719622
5.3489601,Banque Atlantique,0,,-4.03386,node/6905719623
5.3471108,Commissariat du 10ᵉ arrondissement,0,,-4.0344246,node/6905719624
5.3437946,Attécoubé Terminus 04,0,,-4.0344802,node/6905719625
5.3251603,Saint Paul,0,,-4.0219475,node/6905772459
5.3282245,Immeuble Sogephia Hévéa,0,,-4.0239746,node/6905772460
5.3337809,Musée du Plateau,0,,-4.0245113,node/6905772461
5.4383593,Cours Sociaux,0,,-4.0160546,node/6905772466
5.3590397,Gare Nord,0,,-4.0275686,node/6905842305
5.3252327,Long Champs,0,,-4.0224693,node/6905842307
5.293902,Gare Koumassi,0,,-3.9560075,node/6906463287
5.2928524,Pharmacie Ehilie,0,,-3.9602508,node/6906463288
5.2913568,Mosquée,0,,-3.966735,node/6906463289
5.2956714,Échangeur de Marcory,0,,-3.980944,node/6906463290
5.2998527,Grand carrefour Marcory,0,,-3.98845,node/6906463291
5.2998184,Collège Moderne Autoroute,0,,-3.9976917,node/6906463292
5.2999823,Gare de Bassam,0,,-4.0026734,node/6906463293
5.3018099,Ecobank,0,,-4.003273,node/6906463294
5.3534012,Adjamé Liberté,0,,-4.0155251,node/6906463296
5.4365892,BICICI,0,,-4.0124238,node/6906507833
5.3546594,Adjamé - Liberté,0,,-4.0164467,node/6906575629
5.3631417,Williams-Ville,0,,-4.0169033,node/6906575630
5.3658197,Carrefour 2 plateaux,0,,-4.0157829,node/6906575631
5.3662557,[Arret sans nom],0,,-4.0156117,node/6906575632
5.3716139,Paillet,0,,-4.0122293,node/6906575633
5.374069,[Arret sans nom],0,,-4.0112578,node/6906575634
5.3898833,[Arret sans nom],0,,-4.005605,node/6906575635
5.4045622,[Arret sans nom],0,,-4.0065311,node/6906575636
5.4113412,[Arret sans nom],0,,-4.0064187,node/6906575637
5.4126483,ANADER,0,,-4.0064133,node/6906575638
5.4148754,Samake,0,,-4.0064263,node/6906590689
5.41527,Samake,0,,-4.0068417,node/6906590691
5.4101483,Chaîne avion,0,,-4.0063152,node/6906590692
5.4073533,1ere Boutique,0,,-4.0063867,node/6906590693
5.3659384,Carrefour 2 plateaux,0,,-4.0155634,node/6906590694
5.3546002,Adajmé Liberté,0,,-4.0162927,node/6906590695
5.35345,Adjamé Liberté,0,,-4.015528,node/6906596960
5.3100359,Nanan Yamousso,0,,-4.0060884,node/6906596961
5.3054677,Karwil,0,,-4.0044435,node/6906596962
5.3031308,Notre-dame,0,,-4.0036369,node/6906596963
5.3003893,Gare de Bassam,0,,-4.0026404,node/6906596964
5.2998444,Collège Moderne Autoroute,0,,-3.9983918,node/6906596965
5.2987234,Cap Sud,0,,-3.9859637,node/6906596966
5.2959351,Échangeur Marcory,0,,-3.981013,node/6906596967
5.2912433,Auto-école,0,,-3.9675638,node/6906596968
5.2919737,Arrêt,0,,-3.964494,node/6906596969
5.292783,Boulangerie,0,,-3.9610541,node/6906596970
5.3790616,ZOO,0,,-4.0069936,node/6906699462
5.4074152,1ere Boutique,0,,-4.0065336,node/6906699463
5.3723989,Paillet,0,,-4.0116794,node/6906699464
5.3898979,[Arret sans nom],0,,-4.0054621,node/6906699465
5.3967647,Arrêt Dokui,0,,-4.0065122,node/6906699466
5.3968689,Arrêt Dokui,0,,-4.0063445,node/6906699467
5.4121402,ANADER,0,,-4.0062842,node/6906699468
5.4169293,[Arret sans nom],0,,-4.0106347,node/6906699469
5.4170815,[Arret sans nom],0,,-4.0106159,node/6906699470
5.4197017,Abobo Mairie,0,,-4.0159368,node/6906699471
5.4197512,Abobo Mairie,0,,-4.0156192,node/6906699472
5.3675641,Gare Williamsville,0,,-4.0235294,node/6907121506
5.3658243,Mosquée,0,,-4.0207037,node/6907121507
5.3643529,Croix Bleue,0,,-4.0189161,node/6907121508
5.3576606,Agban avant le pont,0,,-4.0160715,node/6907121509
5.3501391,Pharmacie le Belier,0,,-4.0169929,node/6907121510
5.3417336,Indenié,0,,-4.0230855,node/6907121511
5.3220152,Mairie du Plateau,0,,-4.018503,node/6907121512
5.3219502,Institut Français,0,,-4.0170059,node/6907121513
5.3195012,CNPS,0,,-4.0144649,node/6907121514
5.3088742,Gare Marcory,0,,-3.984068,node/6907121515
5.342209,RTI,0,,-4.0033579,node/6907141795
5.3459837,Archibat,0,,-4.0029046,node/6907141796
5.3356901,Marché de Cocody,0,,-4.0007897,node/6907141797
5.3232894,Gare Blockauss,0,,-4.0021679,node/6907141798
5.3278237,Banque Mondiale,0,,-4.0013589,node/6907141799
5.3355267,Marché de Cocody,0,,-4.0007635,node/6907141800
5.3384172,CIE,0,,-4.0038072,node/6907141801
5.351632,Palm Club,0,,-4.0021657,node/6907141802
5.3587491,Gare Nord,0,,-4.0274511,node/6907141803
5.3543654,Texaco,0,,-4.0180323,node/6907147644
5.3478735,Pont lycée technique,0,,-4.0101289,node/6907147645
5.3442806,SODEMI,0,,-4.0038018,node/6907147646
5.3404792,Sgbci,0,,-4.0033259,node/6907147647
5.336444,Marché de Cocody,0,,-3.9999757,node/6907147648
5.3334363,PMI,0,,-4.0003179,node/6907147649
5.3280617,Banque mondiale,0,,-4.00118,node/6907147650
5.323287,Gare Blockauss,0,,-4.0020444,node/6907147651
5.3528511,Boulangerie Top baquette,0,,-4.0168481,node/6907154300
5.3472669,220 logements,0,,-4.017115,node/6907154301
5.3589598,Gare Nord,0,,-4.0273707,node/6907157792
5.3559786,Renault,0,,-4.0213836,node/6907157793
5.3534802,Adjamé Liberté,0,,-4.0158064,node/6907157794
5.339615,CERAP - INADES,0,,-4.000587,node/6907157795
5.3464621,Gare Campus Cocody,0,,-3.9946557,node/6908599212
5.343718,ISTC,0,,-4.0013186,node/6908599213
5.4354972,Quai 49,0,,-4.0153091,node/6908599215
5.3456864,INSAAC,0,,-3.9968976,node/6908618074
5.427395,EPV Konaté,0,,-4.016795,node/6908618077
5.4286546,Lycée Moderne d'Abobo,0,,-4.0147611,node/6908618078
5.4339703,[Arret sans nom],0,,-4.012329,node/6908728765
5.432656,[Arret sans nom],0,,-4.013431,node/6908728766
5.4273213,[Arret sans nom],0,,-4.0162121,node/6908728767
5.343821,ISTC,0,,-4.0008199,node/6908728771
5.3462119,Gare Campus Cocody,0,,-3.9937238,node/6908728772
5.43182,[Arret sans nom],0,,-4.0147361,node/6908782549
5.429723,[Arret sans nom],0,,-4.014638,node/6908782550
5.3450487,Cité des Arts,0,,-3.9978676,node/6908782552
5.3466283,université méthodiste de Côte D'Ivoire,0,,-3.993895,node/6908782553
5.357415,[Arret sans nom],0,,-4.0160582,node/6908914485
5.3491257,Cours socio éducatif,0,,-4.0171632,node/6908914486
5.3082112,Piscine d’État de Treichville,0,,-3.9996571,node/6908914487
5.3090397,Gare Marcory,0,,-3.9839441,node/6908914488
5.3555536,Boulangerie Top Qualité,0,,-4.0161239,node/6908914489
5.3513262,Liberté,0,,-4.0170747,node/6908914490
5.3503722,Pharmacie le Belier,0,,-4.0170975,node/6908914491
5.3418097,Indenié,0,,-4.0230188,node/6908914492
5.3421743,Banque SIB,0,,-4.025647,node/6908914493
5.321186,Bicici plateau,0,,-4.0183783,node/6908914494
5.321624,Pyramide,0,,-4.0167837,node/6908914495
5.3184312,Siège Moov,0,,-4.0145266,node/6908914496
5.3641726,Croix Bleue,0,,-4.0188664,node/6908914498
5.3653249,Infirmerie Sinikeya,0,,-4.0202826,node/6908914499
5.3670874,Gare Williamsville,0,,-4.0235066,node/6908914500
5.3589877,Petro Ivoire,0,,-4.0318263,node/6909039462
5.3468603,Pharmacie Sainte Marie,0,,-4.0257324,node/6909039464
5.3080247,Cité Policière,0,,-4.0159526,node/6909039468
5.2958623,CHU,0,,-4.0046789,node/6909039469
5.2927793,PTT Km4,0,,-3.9984496,node/6909039470
5.2914467,Pharmacie Santé Publique,0,,-3.9957435,node/6909039471
5.3585383,Terminus Cité Fairmont,0,,-4.0375583,node/6909108442
5.305135,arrêt,0,,-4.0149536,node/6909108450
5.29123,Services Techniques du District,0,,-3.9902017,node/6909108451
5.3088407,Gare Marcory,0,,-3.9840127,node/6909121487
5.2971256,Parc des Sports,0,,-4.0074831,node/6909208699
5.2895393,"SIYOA, Boulevard de Marseille",0,,-3.990781,node/6909208700
5.36188,[Arret sans nom],0,,-4.0724972,node/6909225529
5.3647534,[Arret sans nom],0,,-4.0745652,node/6909225530
5.3727101,[Arret sans nom],0,,-4.0961792,node/6909225533
5.3742257,[Arret sans nom],0,,-4.0895635,node/6909225534
5.372722,Nestlé,0,,-4.0867558,node/6909225535
5.3745633,Arrêt,0,,-4.0781781,node/6909225536
5.3703887,[Arret sans nom],0,,-4.0796923,node/6909225537
5.3683786,[Arret sans nom],0,,-4.0786743,node/6909225538
5.3670367,Direction de la Sotra,0,,-4.0761986,node/6909225539
5.3628133,[Arret sans nom],0,,-4.0736157,node/6909225540
5.3612471,[Arret sans nom],0,,-4.0702482,node/6909225541
5.3623019,Lycée Moderne Yopougon Andokoi,0,,-4.0678704,node/6909225542
5.3615148,Centre Ivoire Couture,0,,-4.0667894,node/6909225543
5.3585831,Gare Nord,0,,-4.0278578,node/6909225544
5.3146893,Gare Sud,0,,-4.0183049,node/6909225545
5.2948194,CHU Treichville,0,,-4.0033954,node/6909237619
5.301827,Délices de France,0,,-3.9881326,node/6909237622
5.2913004,Services Techniques du District,0,,-3.9900511,node/6909237623
5.2931333,PTT Km4,0,,-3.9994307,node/6909237624
5.3023437,Quincaillerie Générale,0,,-4.0141223,node/6909237625
5.3049356,Arrêt,0,,-4.0150089,node/6909237626
5.308109,Cité Policière,0,,-4.0161832,node/6909237627
5.3591167,Gare Nord,0,,-4.0279602,node/6909237631
5.358876,Station Petro Ivoire,0,,-4.0319963,node/6909237632
5.3582206,Terminus 02 Cité Fairmont,0,,-4.0364602,node/6909237633
5.3765208,[Arret sans nom],0,,-4.094158,node/6909430718
5.3618706,Gare CTE,0,,-4.0668847,node/6909430720
5.3621938,Lycée Moderne Yopougon Andokoi,0,,-4.0678369,node/6909430721
5.3607938,Station Total,0,,-4.0710622,node/6909430722
5.362382,[Arret sans nom],0,,-4.0736572,node/6909430723
5.365409,[Arret sans nom],0,,-4.0742996,node/6909430724
5.36707,Direction de la Sotra,0,,-4.0764347,node/6909430725
5.3683719,[Arret sans nom],0,,-4.0788862,node/6909430726
5.3690582,Station,0,,-4.080222,node/6909430727
5.3699698,[Arret sans nom],0,,-4.0819788,node/6909430728
5.3741086,JOMACO,0,,-4.0896792,node/6909430729
5.3741528,Dépôt Yopougon zone Industrielle,0,,-4.0958456,node/6909430730
5.2645534,Hôpital Municipal,0,,-3.9848298,node/6909521603
5.2632614,Groupe Scolaire N'Sikan,0,,-3.9834323,node/6909521604
5.257665,CIE,0,,-3.9849267,node/6909521605
5.2558751,arrêt,0,,-3.9956283,node/6909521606
5.26373,Gestoci,0,,-3.9989162,node/6909521607
5.2704314,Pont de Vridi,0,,-4.0062621,node/6909521608
5.2978357,"Etablissements Rey, Port",0,,-4.0143099,node/6909521609
5.3005436,Sicodis,0,,-4.0175241,node/6909521610
5.305037,Terminus 32,0,,-4.0231458,node/6909521611
5.3069377,Grand Moulin Abidjan,0,,-4.0211629,node/6909521612
5.3088247,Hôpital du Pont,0,,-4.0179278,node/6909521613
5.305655,"Avenue 11, Rue 12, Treichville",0,,-4.0117363,node/6909521614
5.3039938,"Avenue 15, Rue 12, Treichville",0,,-4.0111588,node/6909521615
5.3040254,Paroisse Notre Dame,0,,-4.0034158,node/6909521616
5.3056574,Marché Belleville,0,,-3.9987874,node/6909521617
5.3087649,Gare Marcory,0,,-3.9838718,node/6909521620
5.266603,Vridi Cité - Terminus 53,0,,-3.9871428,node/6909546905
5.259526,Pharmacie Vridi Port,0,,-3.9818252,node/6909546906
5.2571616,Stade de la SIR,0,,-3.9892306,node/6909546907
5.2588247,Vridi-Iran,0,,-3.9978983,node/6909546908
5.2676512,"CPMA, Vridi",0,,-4.0031425,node/6909546909
5.277976,PALM-CI,0,,-4.0085496,node/6909546910
5.2821643,Bolloré,0,,-4.0084685,node/6909546911
5.2864977,Siège SOTRA,0,,-4.008455,node/6909546912
5.292271,Arrêt,0,,-4.008424,node/6909546913
5.296841,Ciment Bélier,0,,-4.0131528,node/6909546914
5.3029759,Port Autonome Abidjan,0,,-4.0212547,node/6909546915
5.309804,Maison du Congres,0,,-4.0149741,node/6909546916
5.3059215,Collège Bosco,0,,-4.0050815,node/6909546917
5.3226268,Niangon Sud à droite,0,,-4.1045,node/6909707221
5.3233679,Carrefour Académie,0,,-4.1057378,node/6909707223
5.325714,Caféier,0,,-4.1059349,node/6909707224
5.3310513,Lubafrique,0,,-4.1037691,node/6909707225
5.3338915,2ème arrêt ANADOR,0,,-4.1029765,node/6909707226
5.3358784,Carrefour Anador,0,,-4.1014047,node/6909707227
5.3404237,Pharmacie Cité Maroc,0,,-4.1004632,node/6909707228
5.3407014,CIE,0,,-4.0892462,node/6909707229
5.3450164,[Arret sans nom],0,,-4.0892456,node/6909707230
5.3481316,Grand Centre,0,,-4.0875008,node/6909707231
5.3540742,Port-Bouët II,0,,-4.0874934,node/6909707232
5.3561104,[Arret sans nom],0,,-4.0851103,node/6909707233
5.3604209,BAE,0,,-4.0850901,node/6909707234
5.358951,Gare Nord,0,,-4.0277736,node/6909707236
5.3147518,Gare Sud,0,,-4.0183735,node/6909707238
5.3058324,Feu du Collège Bosco,0,,-4.0049374,node/6909737821
5.3062141,"Avenue 10, Rue 12, Treichville",0,,-4.0120606,node/6909737822
5.3067759,Grand Moulin Abidjan,0,,-4.0211598,node/6909737824
5.3033621,Siège Port Autonome Abidjan,0,,-4.0217286,node/6909737825
5.2945614,Port Autonome Abidjan,0,,-4.0095509,node/6909737826
5.2878677,Siège SOTRA,0,,-4.0082981,node/6909737827
5.2820277,Bolloré,0,,-4.0083516,node/6909737828
5.2787,Movis,0,,-4.00841,node/6909737829
5.2705271,Pont de Vridi,0,,-4.0061063,node/6909737830
5.3309411,Cité Administrative,0,,-4.0239378,node/6909812227
5.3572641,Carrefour Zone,0,,-4.0849641,node/6909812228
5.3552565,[Arret sans nom],0,,-4.0867444,node/6909812229
5.3469666,Pharmacie Port-Bouët II,0,,-4.0880983,node/6909812230
5.3453455,[Arret sans nom],0,,-4.0891591,node/6909812231
5.3400138,Mosquée du Maroc,0,,-4.0974297,node/6909812232
5.3401847,Pharmacie Cité Maroc,0,,-4.1003975,node/6909812233
5.335861,Carrefour Anador,0,,-4.1013081,node/6909812234
5.3305692,Lubafrique,0,,-4.1037999,node/6909812235
5.3273952,[Arret sans nom],0,,-4.1051263,node/6909812236
5.32569,Caféier,0,,-4.1058531,node/6909812237
5.3226401,Niangon Sud à droite,0,,-4.1045248,node/6909812238
5.3568101,Siporex-Sicomex,0,,-4.0739979,node/6909923471
5.3538004,Siporex avant le feu,0,,-4.0740046,node/6909923472
5.3448074,William-Ponty,0,,-4.0732898,node/6909923473
5.3388868,Yopougon 16ème Advans,0,,-4.0732871,node/6909923474
5.3326109,Saguidiba,0,,-4.0733247,node/6909923475
5.3297734,Gare Yopougon Kouté,0,,-4.0735526,node/6909923477
5.3463096,Gare Campus Cocody,0,,-3.9936456,node/6910224899
5.3297134,Gare Yopougon Kouté,0,,-4.0738578,node/6910224902
5.3315587,Saguidiba,0,,-4.0735191,node/6910224905
5.3344863,Côte d'Ivoire-Telecom,0,,-4.0734252,node/6910224906
5.338834,Yopougon 16ème Advans,0,,-4.0734096,node/6910224907
5.3418778,Saint André lavage,0,,-4.0734078,node/6910224908
5.345666,William-Ponty,0,,-4.0734038,node/6910224909
5.3540928,Siporex après le feu,0,,-4.0741883,node/6910224910
5.3566819,Siporex-Sicomex,0,,-4.0741772,node/6910224911
5.2678334,CPMA-Vridi,0,,-4.0031259,node/6910272309
5.2588726,Vridi-Iran,0,,-3.9977641,node/6910272310
5.2565075,"SIR, Vridi",0,,-3.9932473,node/6910272311
5.2577882,CIE,0,,-3.9854582,node/6910272312
5.2582659,"Cité CIE, Vridi",0,,-3.9824273,node/6910272313
5.2600531,Temple des Vainqueurs,0,,-3.9820028,node/6910272314
5.2644761,Hôpital Municipal,0,,-3.9850263,node/6910272315
5.2666602,Terminus Cité Vridi,0,,-3.9874196,node/6910272316
5.3313223,Cité Administrative,0,,-4.0228166,node/6910518025
5.4267852,Gendarmerie Abobo,0,,-4.0201529,node/6910584802
5.350955,Institut des aveugles,0,,-4.0632851,node/6910703473
5.3476916,Bel Air,0,,-4.0632758,node/6910703474
5.3418057,Complexe sportif de Yopougon,0,,-4.0622364,node/6910703475
5.3380456,Nouveau quartier,0,,-4.0622136,node/6910703476
5.3333961,Clinique les Oliviers,0,,-4.0621975,node/6910703477
5.3294751,Terminus 85,0,,-4.061462,node/6910743309
5.333826,Clinique les Oliviers,0,,-4.0623826,node/6910743310
5.3375141,Nouveau quartier,0,,-4.0623477,node/6910743311
5.3460439,Bel Air,0,,-4.0634635,node/6910743312
5.3556644,Sable,0,,-4.0660062,node/6910743313
5.3513983,Institut des aveugles,0,,-4.0634474,node/6910743314
5.3237979,Ben,0,,-4.0804794,node/6910755171
5.3255979,Marejea,0,,-4.0764964,node/6910755172
5.3255738,Iris3,0,,-4.0718266,node/6910755173
5.3198733,Yopougon Sideci - Terminus 42,0,,-4.0802502,node/6910755174
5.3242746,Marché Kouté,0,,-4.0667291,node/6910755176
5.3236042,L'usine du camp,0,,-4.0615042,node/6910755177
5.3236336,Stenb,0,,-4.0577316,node/6910755178
5.3222355,Le petit soleil,0,,-4.0535085,node/6910755179
5.3222275,Yopougon Kowëit,0,,-4.0507693,node/6910755180
5.3222395,La faveur,0,,-4.0464583,node/6910755181
5.3198693,Pharmacie Chenain,0,,-4.0439746,node/6910755182
5.3171339,Iris 3,0,,-4.0439826,node/6910755183
5.3137348,Bon choix,0,,-4.0440027,node/6910755184
5.3095505,Santé Village,0,,-4.0439558,node/6910794085
5.3101983,Gare Abobodoumé,0,,-4.0353389,node/6910794088
5.4258812,Arrêt,0,,-4.01971,node/6910797790
5.4182684,Arrêt,0,,-4.0128435,node/6910797791
5.4156089,Arrêt,0,,-4.0054353,node/6910797792
5.4155902,Arrêt,0,,-3.999584,node/6910797793
5.4038607,Termunis 81/82,0,,-3.9856156,node/6910797794
5.4031254,BICICI,0,,-3.9792073,node/6910797795
5.4011881,Arrêt,0,,-3.9780821,node/6910797796
5.3988302,Arrêt,0,,-3.9776878,node/6910797797
5.3963428,Arrêt,0,,-3.977036,node/6910797798
5.3932466,Arrêt,0,,-3.9761992,node/6910797799
5.3946558,Arrêt,0,,-3.971504,node/6910797800
5.4000986,Cité Diaspora,0,,-3.9649835,node/6910797801
5.4025338,SOCIAM,0,,-3.9621642,node/6910797802
5.4022965,SOCIAM,0,,-3.9620463,node/6910797803
5.399963,CHU Angré,0,,-3.9570893,node/6910797804
5.4154527,Arrêt,0,,-4.0022783,node/6910797805
5.3997812,CHU Angré,0,,-3.9570173,node/6910797806
5.4003923,Arrêt,0,,-3.9592423,node/6910797807
5.4011774,Arrêt,0,,-3.960527,node/6910797808
5.3991713,Arrêt,0,,-3.9657399,node/6910797809
5.3964463,Arrêt,0,,-3.9689626,node/6910797810
5.3933681,Arrêt,0,,-3.9736088,node/6910797811
5.3929368,Arrêt,0,,-3.9754415,node/6910797812
5.3954823,Arrêt,0,,-3.9769683,node/6910797813
5.3963101,Arrêt,0,,-3.9772754,node/6910797814
5.4003569,Arrêt,0,,-3.9781552,node/6910797815
5.4022415,Arrêt,0,,-3.978471,node/6910797816
5.4029505,BICICI,0,,-3.9794534,node/6910797817
5.4042516,Arrêt,0,,-3.9898295,node/6910797818
5.4070126,Saint Ambroise,0,,-3.9911934,node/6910797819
5.4103992,Arrêt,0,,-3.9941237,node/6910797820
5.4136035,Arrêt,0,,-3.9953287,node/6910797821
5.3317315,Lycée Classique d'Abidjan,0,,-4.0043772,node/6912410269
5.3286968,Hotel Ivoire 2,0,,-4.0047695,node/6912410270
5.3278806,Hotel Ivoire,0,,-4.0029871,node/6912410271
5.3277329,Hotel Ivoire,0,,-4.0032565,node/6912410272
5.3327049,Lycée Classique d'Abidjan,0,,-4.0045047,node/6912410273
5.3439798,SODEMI,0,,-4.0037108,node/6912410274
5.3477876,Pont lycée technique,0,,-4.0095505,node/6912410275
5.3290976,Carrefour Express,0,,-4.0751626,node/6912654329
5.3581253,BMW,0,,-4.0012691,node/6912729876
5.3601195,SOCITECH,0,,-3.998725,node/6912729877
5.3648148,MACACI,0,,-3.9976354,node/6912729878
5.367356,Mobil 2 Plateaux,0,,-3.9983993,node/6912729879
5.3718047,Sococé 2 Plateaux,0,,-3.9984268,node/6912729880
5.3745478,BOA,0,,-3.9985198,node/6912729881
5.3755833,SNEDAI,0,,-3.9985338,node/6912729882
5.3776569,Carrefour Duncan,0,,-3.9976312,node/6912729883
5.3809527,Las Palmas,0,,-3.9943103,node/6912729884
5.3388207,Pharmacie du Marché,0,,-4.0792393,node/6912805206
5.3373258,[Arret sans nom],0,,-4.0765581,node/6912805207
5.3384061,Patisserie,0,,-4.0752894,node/6912805208
5.3467623,Ex Chaine Avion Rue Princesse,0,,-4.0652525,node/6912805209
5.3408189,Camp FRCI,0,,-4.0599974,node/6912805210
5.3398655,Carrefour Marché,0,,-4.0572368,node/6912805211
5.3373205,Carrefour Lama Fofana,0,,-4.0549944,node/6912805212
5.3337105,Banque Atlantique,0,,-4.0550186,node/6912805213
5.3316575,Offoumou Yapo,0,,-4.0520655,node/6912805214
5.3293394,Tizra,0,,-4.0497521,node/6912805215
5.3264792,[Arret sans nom],0,,-4.0494691,node/6912805216
5.3247299,[Arret sans nom],0,,-4.0494999,node/6912805217
5.3104606,Gare Abobo Doumé,0,,-4.0354465,node/6912805219
5.3847656,Carrefour Opéra,0,,-3.9932407,node/6912820385
5.3888111,Mahikari,0,,-3.9927523,node/6912820386
5.3926338,Ambassade de Chine,0,,-3.992269,node/6912820387
5.3942154,Les Oscars,0,,-3.9921141,node/6912820388
5.3963811,BHCI,0,,-3.9918337,node/6912820389
5.4005116,Shawarma House,0,,-3.9913523,node/6912820390
5.4038172,Petro Ivoire,0,,-3.9909124,node/6912820391
5.4042033,Notre Dame,0,,-3.9882535,node/6912820392
5.4034748,FIRDA,0,,-3.9819806,node/6912820393
5.4033098,"Ancien Terminus 90, Les Arcades",0,,-3.9765606,node/6912820394
5.4006902,Soleil 2,0,,-3.9728354,node/6912820395
5.3971939,Clinique Médicale Sainte Justine,0,,-3.9694727,node/6912820396
5.3998522,Cité Diaspora,0,,-3.9648829,node/6912820397
5.3972237,Clinique Médicale Sainte Justine,0,,-3.9697282,node/6912820398
5.4031598,"Ancien Terminus 90, Les Arcades",0,,-3.9764213,node/6912820399
5.4033208,FIRDA,0,,-3.9820585,node/6912820400
5.4037772,Termunis 81/82,0,,-3.9856793,node/6912820401
5.4041375,Notre Dame,0,,-3.9887434,node/6912820402
5.4037567,Petro Ivoire,0,,-3.9906882,node/6912820403
5.4002961,Carrefour 22è,0,,-3.9911377,node/6912820404
5.3965825,BHCI,0,,-3.9915941,node/6912820405
5.3926201,Ambassade de Chine,0,,-3.9920829,node/6912820406
5.3895654,Mahikari,0,,-3.9924668,node/6912820407
5.3845481,Opéra,0,,-3.9930996,node/6912820408
5.3809502,Las Palmas,0,,-3.9940546,node/6912820409
5.3779505,Carrefour Duncan,0,,-3.9970644,node/6912820410
5.3753472,Le Roi du Pain,0,,-3.9983567,node/6912820411
5.3725038,Sococé 2 Plateaux,0,,-3.9983278,node/6912820412
5.3677225,Mobil 2 Plateaux,0,,-3.9981432,node/6912820413
5.3654376,MACACI,0,,-3.9973648,node/6912820414
5.3574699,Saint Jacques,0,,-4.0012391,node/6912820415
5.3525544,Palm Club,0,,-4.0018639,node/6912820416
5.3493692,Carrefour la Vie,0,,-4.0022742,node/6912820417
5.344562,Arrêt,0,,-4.0028093,node/6912820418
5.3266074,Sitarail,0,,-4.0255438,node/6913011676
5.3293875,Gare Yopougon Kouté,0,,-4.073499,node/6913011677
5.3134744,Bon choix,0,,-4.0441328,node/6913190443
5.3087112,Santé Village,0,,-4.043768,node/6913190444
5.3166799,[Arret sans nom],0,,-4.0440879,node/6913190445
5.3208014,[Arret sans nom],0,,-4.0441167,node/6913190446
5.3221154,[Arret sans nom],0,,-4.0468311,node/6913190447
5.323918,[Arret sans nom],0,,-4.0496448,node/6913190448
5.3270841,Commissariat de Police du 19ᵉ Arrondissement,0,,-4.0503167,node/6913190449
5.3295798,Tizra,0,,-4.0501732,node/6913190450
5.3313998,Offoumou Yapo,0,,-4.0519957,node/6913190451
5.3337753,La Poste,0,,-4.0550937,node/6913190452
5.3369773,Pharmacie Sacré-cœur,0,,-4.055093,node/6913190453
5.3401473,Pharmacie Béatitude,0,,-4.058547,node/6913190454
5.3407362,Nouveau quartier,0,,-4.0608235,node/6913190455
5.3466167,Ex Chaine Avion Rue Princesse,0,,-4.0650474,node/6913190456
5.3447353,Newton,0,,-4.0678006,node/6913190457
5.3395304,Marche Sicogi,0,,-4.0745628,node/6913190458
5.3379928,Patisserie,0,,-4.0751928,node/6913190459
5.3372574,Pharmacie du Marché,0,,-4.0770331,node/6913190460
5.3372711,Terrain Sogefiha,0,,-4.0806585,node/6913190461
5.3335416,Antenne,0,,-4.0733126,node/6913201897
5.3290163,Cabine Bleue,0,,-4.0757574,node/6913201898
5.3243327,Akadjoba,0,,-4.0799806,node/6913201899
5.3239194,Saint Pierre,0,,-4.0871836,node/6913201900
5.3233739,EPP Niangon,0,,-4.0925668,node/6913201901
5.3197171,Arrêt,0,,-4.0944323,node/6913201902
5.3163701,Arrêt,0,,-4.0947904,node/6913201903
5.3152357,Arrêt Yop 38,0,,-4.0928994,node/6913201904
5.315995,Terminus 27,0,,-4.0900334,node/6913201907
5.3150643,Arrêt,0,,-4.0934497,node/6913201908
5.3172602,EPP SICOGI Niangon Sud,0,,-4.0948509,node/6913201909
5.3202551,Carrefour Marché,0,,-4.0943199,node/6913201910
5.3233885,EPP Niangon,0,,-4.0926667,node/6913201911
5.3240967,Saint Pierre,0,,-4.0869619,node/6913201912
5.3246783,Akadjoba,0,,-4.0797426,node/6913201913
5.3287702,Arrêt de bus,0,,-4.0762905,node/6913201914
5.3146172,Gare Sud,0,,-4.0184952,node/6913201915
5.3144986,Gare Sud,0,,-4.0183564,node/6913291219
5.329485,CNTG-BNETD,0,,-3.9977011,node/6913703797
5.3310059,UCAO,0,,-3.9970399,node/6913703798
5.3350719,Maison du PDCI-RDA,0,,-3.9973538,node/6913703799
5.3084936,Piscine d’État de Treichville,0,,-3.9997195,node/6913703800
5.3074734,NSIA,0,,-3.990551,node/6913703801
5.3086966,Gare Marcory,0,,-3.9837714,node/6913703802
5.3353656,Maison du Parti,0,,-3.9975172,node/6913703803
5.3310313,UCAO,0,,-3.9969162,node/6913703804
5.3293836,CNTG-BNETD,0,,-3.9976804,node/6913703805
5.3556761,Sable,0,,-4.0658437,node/6913857608
5.3407344,"Complexe Sportif, Yopougon",0,,-4.0646331,node/6913857611
5.3424009,Mairie de Yopougon,0,,-4.0665987,node/6913857612
5.3443401,La Marine,0,,-4.0375561,node/6913929664
5.3278599,Sitarail,0,,-4.0262003,node/6913929665
5.3146272,Gare Sud,0,,-4.0182404,node/6913929666
5.3441859,La Marine,0,,-4.0376761,node/6913929668
5.3295615,Gare Yopougon Kouté,0,,-4.0737128,node/6913929669
5.3367091,Gendarmerie,0,,-4.0216157,node/6913931703
5.3369705,Gendarmerie,0,,-4.0217222,node/6913974340
5.400545,Soleil 2,0,,-3.9728972,node/6915341517
5.4035247,Arrêt,0,,-3.9837323,node/6915341518
5.4062326,Arrêt,0,,-3.9906836,node/6915341519
5.4297269,Arrêt,0,,-3.9894234,node/6915341520
5.4313416,Arrêt,0,,-3.9891222,node/6915341521
5.4564179,Abobo Biabou,0,,-3.9725804,node/6915341523
5.4564283,Abobo Biabou,0,,-3.9726482,node/6915341525
5.4454571,Arrêt,0,,-3.978184,node/6915341526
5.4430187,Arrêt,0,,-3.9810371,node/6915341527
5.441543,Arrêt,0,,-3.9831075,node/6915341528
5.4403681,Arrêt,0,,-3.9847859,node/6915341529
5.4391313,Arrêt,0,,-3.9859783,node/6915341530
5.4368688,Arrêt,0,,-3.9875153,node/6915341531
5.4356843,Arrêt,0,,-3.987991,node/6915341532
5.434457,Arrêt,0,,-3.9883619,node/6915341533
5.4327625,Arrêt,0,,-3.9887503,node/6915341534
5.4312302,Arrêt,0,,-3.9889419,node/6915341535
5.4293215,Arrêt,0,,-3.9892581,node/6915341536
5.4264243,Arrêt,0,,-3.9896961,node/6915341537
5.4229496,Arrêt,0,,-3.9902515,node/6915341538
5.4208149,Arrêt,0,,-3.9905681,node/6915341539
5.4195345,Arrêt,0,,-3.9907254,node/6915341540
5.4182159,Arrêt,0,,-3.9909298,node/6915341541
5.4158878,Arrêt,0,,-3.9922122,node/6915341542
5.4154923,Arrêt,0,,-3.9928597,node/6915341543
5.4148205,Arrêt,0,,-3.9947036,node/6915341544
5.4141247,Arrêt,0,,-3.9952879,node/6915341545
5.409531,Arrêt,0,,-3.9932262,node/6915341546
5.4050885,Petro Ivoire Angré,0,,-3.990564,node/6915341547
5.403643,Arrêt,0,,-3.9829561,node/6915341548
5.4033522,Arrêt,0,,-3.9807645,node/6915341549
5.3585446,9 Kilo,0,,-3.96346,node/6915487638
5.360974,Rond-Point de la Palmeraie,0,,-3.9586683,node/6915487639
5.3606149,Carrefour de la Gendarmerie,0,,-3.9598948,node/6915487640
5.3568703,Cap Nord,0,,-3.9665508,node/6915487641
5.3532599,Riviéra 2,0,,-3.9779824,node/6915487642
5.3502292,École de Police,0,,-3.9881887,node/6915487643
5.3492233,École de la Gendarmerie,0,,-3.9943092,node/6915487644
5.3485522,Carrefour de la Vie,0,,-4.0018322,node/6915487645
5.4217637,Mairie d'ABOBO,0,,-4.0185375,node/6915647682
5.4270593,Arrêt,0,,-4.0212736,node/6915647683
5.4303911,Arrêt,0,,-4.0241622,node/6915647684
5.3587403,9 Kilo,0,,-3.9635319,node/6915696792
5.3596047,Chic Shop,0,,-3.9620358,node/6915696795
5.3574857,Cap Nord,0,,-3.9657802,node/6915696796
5.3504609,École de Police,0,,-3.9881605,node/6915696797
5.3494956,Carrefour CHU,0,,-3.9916044,node/6915696798
5.3493834,École de la Gendarmerie,0,,-3.994457,node/6915696799
5.3485982,Carrefour de la Vie,0,,-4.0029649,node/6915696800
5.4333404,Arrêt,0,,-4.0266778,node/6915722685
5.4390733,Anokoi,0,,-4.0446977,node/6915722686
5.4434752,PK 18 Agripac,0,,-4.0485036,node/6915722687
5.4482915,Arrêt,0,,-4.0512502,node/6915722688
5.4503535,Arrêt,0,,-4.0529903,node/6915722689
5.4565524,Arrêt,0,,-4.0545715,node/6915722690
5.4574448,Arrêt,0,,-4.054497,node/6915722691
5.465098,Arrêt,0,,-4.0544278,node/6915722692
5.4662168,Arrêt,0,,-4.0540279,node/6915722693
5.4680953,Arrêt,0,,-4.0530974,node/6915722694
5.4794949,Arrêt,0,,-4.0538658,node/6915722695
5.4828953,Arrêt,0,,-4.0513358,node/6915722696
5.4837187,Arrêt,0,,-4.0513476,node/6915722697
5.4866626,Arrêt,0,,-4.05146,node/6915722698
5.4890597,Arrêt,0,,-4.0515593,node/6915722699
5.4904279,Arrêt,0,,-4.0516047,node/6915722700
5.490915,Arrêt,0,,-4.0516233,node/6915722701
5.4914503,Arrêt,0,,-4.051639,node/6915722702
5.4928779,Arrêt,0,,-4.0516636,node/6915722703
5.4940805,Arrêt,0,,-4.0517658,node/6915722704
5.495095,Arrêt,0,,-4.0517794,node/6915722705
5.4960474,Arrêt,0,,-4.0516644,node/6915722706
5.4970767,Arrêt,0,,-4.0515036,node/6915722707
5.497669,Arrêt,0,,-4.051438,node/6915722708
5.4979794,Arrêt,0,,-4.0513918,node/6915722709
5.4995751,Arrêt,0,,-4.0516497,node/6915722710
5.500507,Arrêt,0,,-4.0519247,node/6915722711
5.5011338,Arrêt,0,,-4.0520934,node/6915722712
5.5015989,Arrêt,0,,-4.0522125,node/6915722713
5.5026911,Arrêt,0,,-4.0525268,node/6915722714
5.5045432,Arrêt,0,,-4.0530594,node/6915722715
5.5053444,Arrêt,0,,-4.0532829,node/6915722716
5.5064599,Mairie d'Anyama,0,,-4.0531365,node/6915722717
5.5064064,Mairie d'Anyama,0,,-4.0530408,node/6915722719
5.4976427,Arrêt,0,,-4.0513828,node/6915722720
5.5027177,Arrêt,0,,-4.0523687,node/6915722721
5.4994894,Arrêt,0,,-4.0514357,node/6915722722
5.4949787,Arrêt,0,,-4.0516383,node/6915722723
5.4888603,Arrêt,0,,-4.051407,node/6915722724
5.4863031,Arrêt,0,,-4.0513417,node/6915722725
5.4825896,Arrêt,0,,-4.0512201,node/6915722726
5.479955,Arrêt,0,,-4.0531887,node/6915722727
5.4757466,Arrêt A l'Ecole,0,,-4.0552147,node/6915722728
5.470731,Arrêt Contrôle,0,,-4.0531044,node/6915722729
5.4669354,Arrêt,0,,-4.0534141,node/6915722730
5.4611068,Arrêt Ancienne Gendarmerie,0,,-4.053759,node/6915722731
5.4526174,Arrêt,0,,-4.0544875,node/6915722732
5.4503748,Arrêt Ancien Marché,0,,-4.0526523,node/6915722733
5.4483606,Arrêt Terminus,0,,-4.0510764,node/6915722734
5.4449974,Arrêt Agripac,0,,-4.0491425,node/6915722735
5.4436482,Arrêt,0,,-4.0484067,node/6915722736
5.28758,Terminus dépôt SOTRA,0,,-4.0057551,node/6916152424
5.2890666,Pharmacie du Port,0,,-4.0084018,node/6916152425
5.2961604,Arrêt du CHU,0,,-4.0033572,node/6916152426
5.2991407,Gare de Bassam,0,,-4.0024808,node/6916152427
5.3478959,Arrêt,0,,-4.0026565,node/6916181080
5.3700062,Grande Pharmacie /Terminus 300FCFA,0,,-3.9983308,node/6916181081
5.4157357,Arrêt,0,,-3.9930971,node/6916280433
5.4149934,Terminus Abobo Baoulé,0,,-3.9940211,node/6916280434
5.4129627,Pharmacie Actuelle,0,,-3.9948875,node/6916280435
5.4103431,Arrêt,0,,-3.9939447,node/6916280436
5.4085794,Arrêt,0,,-3.9923863,node/6916280437
5.4071215,Saint Ambroise,0,,-3.9910921,node/6916280438
5.4055233,Arrêt,0,,-3.990494,node/6916280439
5.4011787,Arrêt,0,,-3.9910264,node/6916280440
5.3991513,Carrefour 22ème,0,,-3.9912618,node/6916280441
5.3973362,SODECI,0,,-3.991524,node/6916280442
5.3945043,Paris Baguette,0,,-3.9918311,node/6916280443
5.3875127,Arrêt,0,,-3.9927256,node/6916280444
5.3797969,Arrêt,0,,-3.9952144,node/6916280445
5.3737207,NSIA,0,,-3.9983542,node/6916280446
5.3700155,SGBGI,0,,-3.9981216,node/6916280447
5.3465781,Cité BAD,0,,-4.002571,node/6916280448
5.3386878,CIE,0,,-4.0035403,node/6916280449
5.3065218,Commissariat du 9 ème,0,,-3.9865047,node/6917146061
5.3061086,Commissariat du 9 ème,0,,-3.9857063,node/6917146062
5.3034179,King Cash,0,,-3.9807831,node/6917146063
5.3015677,Cabinet Médical du 3ème pont,0,,-3.9776047,node/6917146064
5.3005869,Marché de Marcory,0,,-3.9757915,node/6917146065
5.2986259,Paroisse Sainte Bernadette,0,,-3.9722389,node/6917146066
5.2982013,Pharmacie Bagoué,0,,-3.9714765,node/6917146067
5.2968312,Banque of Africa,0,,-3.9688084,node/6917146068
5.2965895,Arrêt,0,,-3.9650103,node/6917146069
5.2975636,Arrêt,0,,-3.9608221,node/6917146070
5.2983628,Place Inchallah,0,,-3.9572333,node/6917146071
5.299281,Koumassi Prodomo,0,,-3.9531506,node/6917146072
5.3001329,Gare Mesano,0,,-3.9494388,node/6917146073
5.3008577,Koumassi Mesano,0,,-3.9476752,node/6917146074
5.3002935,Koumassi Mesano,0,,-3.9483867,node/6917146075
5.2998074,Station Petro Ivoire,0,,-3.9505841,node/6917146076
5.2989496,Palce Inchallah,0,,-3.9543702,node/6917146077
5.2980163,Arrêt,0,,-3.9585451,node/6917146078
5.2972737,Arrêt,0,,-3.9619419,node/6917146079
5.2962808,Arrêt,0,,-3.9660523,node/6917146080
5.296728,Banque of Africa,0,,-3.9687629,node/6917146081
5.2980069,Pharmacie Bagoué,0,,-3.9712863,node/6917146082
5.3006211,Marché de Marcory,0,,-3.9759814,node/6917146083
5.3016585,Cabinet Médical du 3ème pont,0,,-3.9778785,node/6917146084
5.3044464,Arrêt,0,,-3.9828404,node/6917151685
5.3062161,Commissariat du 9 ème,0,,-3.9860886,node/6917151686
5.3077309,Arrêt,0,,-3.988849,node/6917151687
5.3084636,Yan Auto Ecole,0,,-3.9904413,node/6917151688
5.3106101,Gare Abobodoumé,0,,-4.0352896,node/6919194336
5.3270854,Cité Bracodi Rte Cité verte,0,,-4.0923844,node/6919312942
5.332209,Cité Verte,0,,-4.1119954,node/6919312943
5.3316148,Collège Sebaco,0,,-4.109973,node/6919312945
5.3306787,Cité Bracodi Rte Cité verte,0,,-4.1058974,node/6919312946
5.3296893,Banque BNI,0,,-4.1035223,node/6919312947
5.3284241,Le repère,0,,-4.100539,node/6919312948
5.3278005,Carrefour de Niangon,0,,-4.0976201,node/6919312949
5.3241547,Akadjoba,0,,-4.0812954,node/6919312950
5.3103655,Gare Abobodoumé,0,,-4.0351267,node/6919312951
5.322126,Le petit soleil,0,,-4.053652,node/6919327587
5.3235388,Blé Doré,0,,-4.0573213,node/6919327588
5.3241224,Marché Kouté,0,,-4.0669544,node/6919327589
5.3251706,Carrefour Kouté,0,,-4.0710314,node/6919327590
5.325455,Marejea,0,,-4.0761933,node/6919327591
5.3238646,Akadjoba,0,,-4.0818366,node/6919327593
5.3264405,Arrêt,0,,-4.0914322,node/6919327594
5.327729,Carrefour de Niangon,0,,-4.0976496,node/6919327595
5.3283566,Le repère,0,,-4.1005786,node/6919327596
5.3295851,Top Qualitée,0,,-4.1035169,node/6919327597
5.3307695,Cité Bracodi Rte Cité verte,0,,-4.1063239,node/6919327598
5.2982594,Arrêt,0,,-3.9831407,node/6919758025
5.2961308,Arrêt,0,,-3.9792079,node/6919758026
5.2945624,Arrêt,0,,-3.9763809,node/6919758027
5.293456,Arrêt,0,,-3.9743974,node/6919758028
5.2927669,Arrêt,0,,-3.9712223,node/6919758029
5.2932236,Arrêt,0,,-3.9690283,node/6919758030
5.2940469,Arrêt,0,,-3.965347,node/6919758031
5.2951953,Arrêt,0,,-3.9603108,node/6919758032
5.2961324,Arrêt,0,,-3.9565101,node/6919758033
5.297599,Sogefia,0,,-3.9526269,node/6919758034
5.2987064,Arrêt,0,,-3.9478318,node/6919758035
5.3015424,Station Petro Ivoire,0,,-3.9469644,node/6919758036
5.3043266,Arrêt,0,,-3.9453759,node/6919758037
5.3080062,Bon Samaritain,0,,-3.946713,node/6919758038
5.3099762,Pharmacie Fanny,0,,-3.9473403,node/6919758039
5.3109106,Patisserie MC,0,,-3.9466942,node/6919758040
5.311165,Terminus 05 Lycée Municipal de Koumassi,0,,-3.9450346,node/6919758041
5.3023303,"Avenue 19, Rue 12, Treichville",0,,-4.0106387,node/6924851825
5.3047639,FIESTA,0,,-4.0115547,node/6924851826
5.3028704,Treichville Entente,0,,-4.0006757,node/6924851828
5.3015791,Nostalgie,0,,-4.0016802,node/6924851829
5.300882,Banque Bicici,0,,-4.003555,node/6924851830
5.2999593,[Arret sans nom],0,,-4.0062869,node/6924851831
5.3586294,Gare Nord,0,,-4.0277536,node/6924851833
5.3025272,"Avenue 19, Rue 12, Treichville",0,,-4.0106307,node/6924979791
5.3029946,Pharmacie de l'Avenue 27,0,,-4.0062426,node/6924979792
5.3032777,Treichville Entente,0,,-4.0008245,node/6924979794
5.3296238,[Arret sans nom],0,,-4.0208888,node/6926746685
5.3309876,Terminus tours Administratives,0,,-4.0236032,node/6926746686
5.3149603,Terminus Gare Sud,0,,-4.018979,node/6926746688
5.3018048,Station Total,0,,-4.0096436,node/6926746689
5.4538834,Arrêt,0,,-3.9737989,node/6926746749
5.4385456,Arrêt,0,,-3.9864522,node/6926746750
5.4222388,Arrêt,0,,-3.9903197,node/6926746751
5.4154549,Arrêt,0,,-3.9996626,node/6926746752
5.4154484,Arrêt,0,,-4.0016378,node/6926746753
5.4155231,Arrêt,0,,-4.0054049,node/6926746754
5.4152696,Samake,0,,-4.0071858,node/6926746755
5.3590439,Gare Nord,0,,-4.0280449,node/6926746757
5.4155963,Arrêt,0,,-4.0019605,node/6926746758
5.4156232,Arrêt,0,,-3.9928882,node/6926746759
5.4196603,Sotra,0,,-3.9908193,node/6926746760
5.422222,Arrêt,0,,-3.9904401,node/6926746761
5.4265157,Arrêt,0,,-3.9898619,node/6926746762
5.43368,Arrêt,0,,-3.9886816,node/6926746763
5.4374054,Arrêt,0,,-3.9873449,node/6926746764
5.4402786,Arrêt,0,,-3.9850082,node/6926746765
5.443381,Arrêt,0,,-3.9807703,node/6926746766
5.4451883,Arrêt,0,,-3.9785569,node/6926746767
5.3079127,Bon Samaritain,0,,-3.946597,node/6926943107
5.3050831,Pharmacie Campement,0,,-3.9451392,node/6926943108
5.3011838,Hôpital Général de Marcory,0,,-3.9835873,node/6926943109
5.3034579,Pharmacie Notre-Dame,0,,-4.0046641,node/6926943110
5.3146776,Gare Sud,0,,-4.0185633,node/6926943111
5.3311928,Terminus tours Administratives,0,,-4.0236086,node/6926943112
5.3051694,[Arret sans nom],0,,-3.9840318,node/6927022357
5.4159386,Arrêt,0,,-3.9930649,node/6927037611
5.408251,Arrêt,0,,-4.0063405,node/6927037612
5.4057129,Arrêt,0,,-4.0063848,node/6927037613
5.4013897,Arrêt,0,,-4.0064518,node/6927037614
5.3930717,Arrêt,0,,-4.0057893,node/6927037615
5.3875774,Arrêt,0,,-4.0056726,node/6927037616
5.3801858,Arrêt,0,,-4.0066168,node/6927037617
5.3625903,Arrêt,0,,-4.0168427,node/6927037618
5.3503578,Pharmacie le Belier,0,,-4.0169801,node/6927037619
5.3456673,Fraternité Matin,0,,-4.0178358,node/6927037620
5.3411247,Arrêt,0,,-4.0237561,node/6927037621
5.3372751,Arrêt,0,,-4.0237963,node/6927037622
5.3339228,Arrêt,0,,-4.0238252,node/6927037623
5.3310139,Terminus tours Administratives,0,,-4.0238251,node/6927037625
5.3339515,Arrêt,0,,-4.0238861,node/6927037626
5.3377117,Ministère de la défense,0,,-4.0238741,node/6927037627
5.3557539,Arrêt,0,,-4.0161668,node/6927037628
5.379605,Arrêt,0,,-4.0068716,node/6927037629
5.386285,Arrêt,0,,-4.0059958,node/6927037630
5.4018603,Arrêt,0,,-4.0065437,node/6927037631
5.4158855,Abobo Belleville,0,,-3.9933257,node/6927037633
5.3434193,Arrêt,0,,-4.0125125,node/6927327302
5.346265,Arrêt,0,,-4.0103402,node/6927327303
5.3494085,Arrêt,0,,-4.0088409,node/6927327304
5.3529759,Arrêt,0,,-4.0044479,node/6927327305
5.4043844,Arrêt,0,,-3.989773,node/6927327306
5.4048944,Arrêt,0,,-3.9851483,node/6927327307
5.4082838,Arrêt,0,,-3.9867901,node/6927327308
5.407261,Arrêt,0,,-3.9890592,node/6927327309
5.3528041,Arrêt,0,,-4.0043218,node/6927327310
5.3493597,Arrêt,0,,-4.0085859,node/6927327311
5.3461658,Arrêt,0,,-4.0102683,node/6927327312
5.3433536,Polyclinique,0,,-4.0124663,node/6927327313
5.3147983,Gare Sud,0,,-4.0186967,node/6927327314
5.3022414,Campement,0,,-3.9464354,node/6927330411
5.3120389,Terminus 05 Lycée Municipal de Koumassi,0,,-3.9450815,node/6927330412
5.3099838,Pharmacie Fanny,0,,-3.9472561,node/6927330413
5.3362229,Arrêt,0,,-4.0047298,node/6927330414
5.3462362,Gare Campus Cocody,0,,-3.9938503,node/6927330416
5.3463523,INSAAC,0,,-3.9972169,node/6927544633
5.3359628,Saint Jean,0,,-4.0030417,node/6927544634
5.3358129,Saint Jean,0,,-4.0029552,node/6927544636
5.3482687,Gendarmerie,0,,-3.9970998,node/6927544637
5.3536864,Arrêt,0,,-4.0175371,node/6927600976
5.3567305,Mirador,0,,-4.0250561,node/6927600977
5.3566458,Arrêt SICOGI,0,,-4.0241115,node/6927631763
5.3592856,Gare Nord,0,,-4.0275494,node/6927694921
5.3470894,Arrêt,0,,-3.9971908,node/6927701716
5.3534453,Terminus Riviera 2,0,,-3.9700449,node/6928179123
5.3533983,Cité étudiante Riviera 2,0,,-3.9736351,node/6928179124
5.3525929,Riviera 2,0,,-3.9780678,node/6928179125
5.3512739,Petite Mosquée Riviéra Jardin,0,,-3.9805625,node/6928179126
5.3516026,Petite Mosquée Riviéra Jardin,0,,-3.9803499,node/6928250859
5.3526374,Riviera 2,0,,-3.9781867,node/6928250860
5.3530707,Arrêt,0,,-3.9761267,node/6928250861
5.3534857,Terminus Riviera 2,0,,-3.9702004,node/6928250862
5.2563753,Terminus Vridi-Iran,0,,-3.9975737,node/6928681599
5.2947326,Arrêt Cuirasse Ciment,0,,-4.0101948,node/6928681601
5.3588804,Gare Nord,0,,-4.0279685,node/6928681602
5.3050571,Terminus 32,0,,-4.0228924,node/6928704112
5.3002851,[Arret sans nom],0,,-4.0170398,node/6928704113
5.29778,"Etablissements Rey, Port",0,,-4.0140854,node/6928704114
5.264595,Arrêt Bolloré logistique,0,,-3.9995223,node/6928704115
5.2562337,Terminus Vridi-Iran,0,,-3.9975522,node/6928704117
5.3143818,Gare Sud,0,,-4.0182207,node/6929796960
5.314962,Terminus Gare Sud,0,,-4.0189046,node/6929849943
5.3078566,Arrêt,0,,-3.9888954,node/6930487819
5.3612016,Station Corlay Bingerville,0,,-3.8943455,node/6930917942
5.3618466,Après barrage,0,,-3.9581935,node/6930917943
5.364055,Dalia,0,,-3.9537437,node/6930917944
5.3653603,Église Apostolique de Côte d'Ivoire,0,,-3.9497378,node/6930917945
5.3673945,Camp Millitaire d'Akouédo,0,,-3.94563,node/6930917946
5.370105,Carrefour Faya,0,,-3.9389929,node/6930917947
5.3712573,Résidence Genie 2000,0,,-3.9347483,node/6930917948
5.3725084,Optic 2000,0,,-3.9301188,node/6930917949
5.3741413,Jules Verne,0,,-3.9237472,node/6930917950
5.3718715,Pharmacie Saint Sylvestre,0,,-3.9108525,node/6930917951
5.3645064,Cité Hévéas,0,,-3.9083956,node/6930917952
5.3606115,Université de Cocody Pole Scientifique,0,,-3.9031767,node/6930917953
5.360275,CIE,0,,-3.8979524,node/6930917954
5.360916,[Arret sans nom],0,,-3.8963887,node/6930917955
5.3577634,Lycée garçon de Bingerville,0,,-3.8909747,node/6930917956
5.3574363,Carrefour marché,0,,-3.8866322,node/6930917957
5.3583363,Espace Orange,0,,-3.8843503,node/6930917958
5.360674,Hôpital Mère-Enfant de Bingerville,0,,-3.8841063,node/6930917959
5.3573589,Carrefour marché,0,,-3.886655,node/6930917961
5.3576746,Lycée garçon de Bingerville,0,,-3.8908299,node/6930917962
5.3601255,CIE,0,,-3.8980114,node/6930917963
5.360215,Université de Cocody Pole Scientifique,0,,-3.9020951,node/6930917964
5.3643261,Cité Hévéas,0,,-3.9084667,node/6930917965
5.368265,Cité Marina,0,,-3.9097783,node/6930917966
5.3714883,Arrêt,0,,-3.9108391,node/6930917967
5.3740098,Jules Verne,0,,-3.9233838,node/6930917968
5.3716378,Coris Bank,0,,-3.9324215,node/6930917969
5.3701704,Arrêt,0,,-3.9379911,node/6930917970
5.3671088,Camp Millitaire d'Akouédo,0,,-3.9456984,node/6930917971
5.3637324,[Arret sans nom],0,,-3.9527636,node/6930917972
5.3617224,Après barrage,0,,-3.9579964,node/6930917973
5.2993777,Arrêt,0,,-3.94723,node/6931151021
5.2975523,Sogefia,0,,-3.9523798,node/6931151022
5.2958991,Arrêt,0,,-3.9571428,node/6931151023
5.2952895,Pharmacie Saint François,0,,-3.9596352,node/6931151024
5.2941237,Grande Pharmacie Iroko,0,,-3.9646348,node/6931151025
5.2929966,Arrêt,0,,-3.9695299,node/6931151026
5.2924858,Pharmacie Du Boulevard Du Gabon,0,,-3.971683,node/6931151027
5.2940696,Polyclinique La Madone,0,,-3.9757097,node/6931151028
5.2965781,Arrêt,0,,-3.9801776,node/6931151029
5.298031,Arrêt,0,,-3.9828604,node/6931151030
5.3590066,Gare Nord,0,,-4.027668,node/6931151031
5.2873212,Koumassi Sicogi - Dépôt SOTRA,0,,-3.9540428,node/6931273195
5.2849829,[Arret sans nom],0,,-3.964256,node/6931273196
5.2875055,[Arret sans nom],0,,-3.9651793,node/6931273197
5.2873493,Arrêt,0,,-3.9684516,node/6931273198
5.2883388,[Arret sans nom],0,,-3.9694119,node/6931273199
5.293018,Sicomex,0,,-3.9762314,node/6931273200
5.3148159,Gare Sud,0,,-4.0184375,node/6931273203
5.3074119,Pharmacie du Rond-point,0,,-4.0117713,node/6931792543
5.3090558,[Arret sans nom],0,,-4.0071049,node/6931792544
5.2889971,Centre comercial Koumassi,0,,-3.9672808,node/6931792545
5.2839293,Arrêt,0,,-3.9622262,node/6931792546
5.2847439,Pharmacie Bethanie,0,,-3.9586401,node/6931792547
5.2857761,Arrêt,0,,-3.9543311,node/6931792548
5.2884523,Koumassi Sicogi - Dépôt SOTRA,0,,-3.9538698,node/6931792550
5.2870688,Grand Carrefour de Koumassi,0,,-3.970533,node/6931985671
5.2985627,Ivosep Treichville,0,,-4.001299,node/6931985672
5.3266769,Arrêt,0,,-4.060057,node/6932152400
5.3250076,Ghandi,0,,-4.0598402,node/6932152402
5.3253408,Ghandi,0,,-4.0599193,node/6932152404
5.3600658,Arrêt,0,,-4.0669167,node/6932152405
5.314853,Gare Sud,0,,-4.0182858,node/6932152407
5.3286224,CIAD,0,,-3.9502595,node/6932239010
5.3291271,Arrêt,0,,-3.951901,node/6932239011
5.338314,Arrêt,0,,-3.9522216,node/6932239012
5.3443655,Carrefour Mel Theodore,0,,-3.9526011,node/6932239013
5.348653,Pharmacie Riviera III,0,,-3.9535043,node/6932239014
5.3509724,Collège l'Ardoise,0,,-3.9545015,node/6932239015
5.3550168,Arrêt,0,,-3.9606719,node/6932239016
5.3569209,Arrêt,0,,-3.9637336,node/6932239017
5.3149333,Gare Sud,0,,-4.0185761,node/6932239019
5.4127978,Angré Château,0,,-3.9808642,node/6932253478
5.4102497,Arrêt,0,,-3.984559,node/6932253479
5.3866094,Arrêt,0,,-3.9930569,node/6932253480
5.4076842,Arrêt,0,,-3.9885655,node/6932253481
5.4128518,Angré Château,0,,-3.9809279,node/6932253483
5.3569409,Arrêt,0,,-3.9635029,node/6932323632
5.3517214,Collège Ardoise,0,,-3.9543647,node/6932323633
5.3485048,Pharmacie Riviera III,0,,-3.9531872,node/6932323634
5.3446873,Carrefour Mel Theodore,0,,-3.9524998,node/6932323635
5.3284521,École libanaise Al Ghadir,0,,-3.9448656,node/6932323636
5.3228845,Terminus Yopougon Camp Militaire,0,,-4.0617429,node/6933043352
5.3245991,Ghandi,0,,-4.0599163,node/6933043354
5.3278586,[Arret sans nom],0,,-4.0607049,node/6933043355
5.3300685,[Arret sans nom],0,,-4.0581514,node/6933043356
5.3314439,[Arret sans nom],0,,-4.0559573,node/6933043357
5.3145591,Gare Sud,0,,-4.018425,node/6933043359
5.3283246,Arrêt,0,,-3.9428298,node/6933080250
5.3282992,École libanaise Al Ghadir,0,,-3.9447637,node/6933080251
5.3283286,Arrêt,0,,-3.9460498,node/6933080252
5.328364,Pharmacie M'pouto,0,,-3.9479502,node/6933080253
5.3380122,Beverly,0,,-3.9527768,node/6933080254
5.3311481,Carrefour Sol Béni,0,,-3.9578046,node/6933080255
5.329493,Arrêt,0,,-3.980421,node/6933080256
5.3353723,SIB,0,,-3.9996752,node/6933080257
5.3284154,Mosquée Cité Eden,0,,-3.9401878,node/6933080258
5.3283646,Mosquée Cité Eden,0,,-3.9401855,node/6933080260
5.3461454,Arrêt,0,,-4.0026096,node/6933080262
5.3391939,Mosquée Golf,0,,-3.9789297,node/6933080263
5.3325809,Arrêt,0,,-3.9812806,node/6933080264
5.3297881,Arrêt,0,,-3.9790913,node/6933080265
5.3380134,Beverly,0,,-3.9529652,node/6933080266
5.3312516,[Arret sans nom],0,,-4.0560298,node/6933128807
5.3299817,[Arret sans nom],0,,-4.0580978,node/6933128808
5.3222556,Terminus Yopougon Camp Militaire,0,,-4.0623571,node/6933128810
5.3017767,Station Total,0,,-4.0094478,node/6933231056
5.3029158,Pharmacie de l'Avenue 27,0,,-4.0061849,node/6933231057
5.3589712,Gare Nord,0,,-4.0272913,node/6933291484
5.3591995,Gare Nord,0,,-4.0277539,node/6933302185
5.4266332,Arrêt,0,,-4.0210558,node/6934648710
5.4438112,Arrêt,0,,-4.0538116,node/6934648711
5.4435976,Arrêt,0,,-4.0603428,node/6934648712
5.4434975,Arrêt,0,,-4.0647738,node/6934648713
5.4433733,Arrêt,0,,-4.0679455,node/6934648714
5.442806,Arrêt,0,,-4.0693985,node/6934648715
5.4392747,Arrêt,0,,-4.0686147,node/6934648716
5.4321434,Arrêt,0,,-4.068663,node/6934648717
5.428223,Arrêt,0,,-4.0699659,node/6934648718
5.413004,Arrêt,0,,-4.0783779,node/6934648719
5.4036687,Arrêt,0,,-4.0834808,node/6934648720
5.4009224,Arrêt,0,,-4.0842761,node/6934648721
5.3935763,Arrêt,0,,-4.0810159,node/6934648722
5.3892384,Arrêt,0,,-4.078453,node/6934648723
5.3836466,Arrêt,0,,-4.0757427,node/6934648724
5.3747704,Arrêt,0,,-4.0773951,node/6934648725
5.3762544,Arrêt,0,,-4.0820444,node/6934648726
5.3838941,Arrêt,0,,-4.0759718,node/6934648728
5.389032,Arrêt,0,,-4.0784458,node/6934648729
5.3928929,Arrêt,0,,-4.0806236,node/6934648730
5.4014804,Arrêt,0,,-4.0842976,node/6934648731
5.4130749,Arrêt,0,,-4.0784144,node/6934648732
5.4279813,Arrêt,0,,-4.070195,node/6934648733
5.4326393,Arrêt,0,,-4.0686617,node/6934648734
5.4427909,Arrêt,0,,-4.069498,node/6934648735
5.4435987,Arrêt,0,,-4.0650186,node/6934648736
5.4437261,Arrêt,0,,-4.0602688,node/6934648737
5.4438909,Arrêt,0,,-4.0536714,node/6934648738
5.4432611,Arrêt,0,,-4.0481434,node/6934648739
5.4392603,Arrêt,0,,-4.0438735,node/6934648740
5.3480962,220 logements,0,,-4.0169741,node/6934657650
5.2690497,Carrefour Akwaba,0,,-3.9618933,node/6934657651
5.2629137,Hôpital de Port-Bouët,0,,-3.9633662,node/6934657652
5.2574343,Nouveau marché Port-Bouët,0,,-3.9637684,node/6934657653
5.2567198,Océan Espadon,0,,-3.961553,node/6934657654
5.2542438,Église Méthodiste Unie Port-Bouët,0,,-3.9621216,node/6934657655
5.2530566,Wharf Port-Bouët,0,,-3.9607128,node/6934657656
5.2510654,Terminus Port-Bouët Phare,0,,-3.9560196,node/6934657657
5.400118,Arrêt,0,,-4.0201934,node/6934749721
5.3970398,Centre Commercial du Dokui,0,,-4.0027148,node/6934798183
5.3997114,Sainte Monique,0,,-4.0014133,node/6934798184
5.3994163,Superette Akwaba,0,,-3.9960703,node/6934815685
5.3979557,22ème,0,,-3.9916306,node/6934815686
5.3992227,Superette Akwaba,0,,-3.9959845,node/6934815687
5.3994417,Pharmacie Sainte Monique,0,,-3.9972693,node/6934815688
5.3997942,Station Petro Ivoire,0,,-4.0008152,node/6934815689
5.3994657,Sainte Monique,0,,-4.0013301,node/6934815690
5.3970104,Centre Commercial du Dokui,0,,-4.0026122,node/6934815692
5.3221354,Yopougon Kowëit,0,,-4.0506908,node/6934872150
5.3218817,Sideci Matignon,0,,-4.0802555,node/6934872151
5.4604925,Abobo Akeikoi Village,0,,-4.0109827,node/6934922723
5.4554315,Destin,0,,-4.0111108,node/6934922724
5.4531085,André Bar,0,,-4.0126598,node/6934922725
5.4493063,Arrêt,0,,-4.0136415,node/6934922726
5.4446991,Arrêt,0,,-4.0143429,node/6934922727
5.4400103,Arrêt,0,,-4.0141618,node/6934922728
5.4327535,Arrêt,0,,-4.0137548,node/6934922731
5.4336247,Arrêt,0,,-4.0124023,node/6934922732
5.4393221,Arrêt,0,,-4.0143033,node/6934922733
5.4445716,Arrêt,0,,-4.0145279,node/6934922734
5.4493357,Arrêt,0,,-4.0137662,node/6934922735
5.4531566,André Bar,0,,-4.0127617,node/6934922736
5.4554448,Destin,0,,-4.0112489,node/6934922737
5.4604068,Abobo Akeikoi Village,0,,-4.0110518,node/6934922738
5.3102833,Gare Abobodoumé,0,,-4.0352396,node/6934970640
5.4306528,Arrêt,0,,-4.0240914,node/6935113685
5.3314011,Terminus tours Administratives,0,,-4.0236072,node/6935113687
5.3591731,Gare Nord,0,,-4.0273828,node/6935117220
5.3610508,Woodin,0,,-3.9897309,node/6935117222
5.3653222,[Arret sans nom],0,,-3.9897537,node/6935117223
5.3685842,Nsia Banque,0,,-3.9898489,node/6935117224
5.372732,Leader price,0,,-3.9904759,node/6935117225
5.3770534,Carrefour Sainte Cécile - Terminus 35,0,,-3.9926612,node/6935117227
5.3771843,Carrefour Sainte Cécile - Terminus 35,0,,-3.9926425,node/6935251104
5.3742722,Sococé Vallon,0,,-3.9904471,node/6935251105
5.3686002,Nsia Banque,0,,-3.9897873,node/6935251106
5.364963,[Arret sans nom],0,,-3.9897014,node/6935251107
5.3606736,Woodin,0,,-3.9896753,node/6935251108
5.3576192,Versus Bank,0,,-3.9907542,node/6935251109
5.3522302,École de Police,0,,-3.9912866,node/6935251110
5.3387479,Mermoz,0,,-3.99993,node/6935251111
5.3591581,Gare Nord,0,,-4.0278565,node/6935251112
5.2627714,Groupe Scolaire Kouamé Konan,0,,-3.9831166,node/6935274791
5.2569108,Groupe Scolaire Petit Bassam,0,,-3.9774759,node/6935274792
5.2576259,Arrêt,0,,-3.9696513,node/6935274793
5.2585828,Marché,0,,-3.965703,node/6935274794
5.2568159,Pharmacie Océan,0,,-3.9608596,node/6935274796
5.256199,Lycée Moderne Port Bouët,0,,-3.9581761,node/6935274797
5.2658583,Carrefour Akwaba,0,,-3.9610527,node/6935274798
5.2758153,Digue de Koumassi,0,,-3.9661886,node/6935274799
5.2813533,CIE Bia Sud,0,,-3.9692871,node/6935274800
5.2900094,Arrêt,0,,-3.962945,node/6935274801
5.2907532,Arrêt,0,,-3.9596587,node/6935274802
5.294113,Gare Koumassi,0,,-3.9555147,node/6935274803
5.298266,Pharmacie Regina,0,,-3.9498116,node/6935274804
5.2982253,Pharmacie Regina,0,,-3.9495504,node/6935274805
5.2909815,Ajavon,0,,-3.9582726,node/6935274806
5.2902818,Foyer des Jeunes,0,,-3.9612938,node/6935274807
5.2889304,Centre Commercial Koumassi,0,,-3.9668678,node/6935274808
5.2768282,Carrefour Ancien Koumassi,0,,-3.9667035,node/6935274809
5.2576733,43ème Bima,0,,-3.9577992,node/6935274810
5.2560567,Lycée moderne Port-bouët ,0,,-3.9579253,node/6935274811
5.2574824,Nouveau Marché Port-Bouët,0,,-3.9642432,node/6935274812
5.2584759,District de Port-Bouet,0,,-3.965754,node/6935274813
5.2576319,Arrêt,0,,-3.9693877,node/6935274814
5.2572754,Arrêt,0,,-3.9790309,node/6935274815
5.2569161,Stade de la SIR,0,,-3.9893487,node/6935274816
5.3852315,Arrêt,0,,-4.006142,node/6935401276
5.3852595,Arrêt,0,,-4.0060079,node/6935401277
5.3984537,Arrêt,0,,-4.0064532,node/6935401278
5.4022949,Arrêt,0,,-4.0064304,node/6935401279
5.4087036,Arrêt,0,,-4.0063405,node/6935401280
5.4109493,Arrêt,0,,-4.0062828,node/6935401281
5.4143906,Arrêt,0,,-4.0062493,node/6935401282
5.420498,Arrêt,0,,-4.0170009,node/6935401283
5.4189547,Arrêt,0,,-4.0141176,node/6935401284
5.4179854,Arrêt,0,,-4.0123071,node/6935407385
5.4164927,Arrêt,0,,-4.0094626,node/6935407386
5.2983706,"Parc des Sports, Boulevard Valéry Giscard d'Estaing",0,,-4.0041834,node/6935488165
5.2470403,Carrefour Aéroport,0,,-3.9445075,node/6935488166
5.2446806,Arrêt,0,,-3.9295542,node/6935488167
5.2440381,Arrêt,0,,-3.925598,node/6935488168
5.2434545,Arrêt,0,,-3.922044,node/6935488169
5.2426599,Arrêt,0,,-3.9170243,node/6935488170
5.2417851,Arrêt,0,,-3.9115848,node/6935488171
5.2407648,Mosquée,0,,-3.9051327,node/6935488172
5.260825,Arrêt,0,,-3.9593026,node/6935494486
5.2976825,Avenue de la Côte d'Ivoire / Boulevard V.G.E.,0,,-3.984569,node/6935494487
5.2402774,Terminus Gonzagueville,0,,-3.9005903,node/6935494488
5.2405691,Mosquée,0,,-3.9050053,node/6935494499
5.2414058,Arrêt,0,,-3.9104489,node/6935494500
5.2422365,Arrêt,0,,-3.9156765,node/6935494501
5.243186,Arrêt,0,,-3.9216458,node/6935494502
5.2437256,Arrêt,0,,-3.9251152,node/6935494503
5.2444775,Arrêt,0,,-3.9298091,node/6935494504
5.2456701,Arrêt,0,,-3.9372025,node/6935494505
5.2467051,Arrêt,0,,-3.94366,node/6935494506
5.2492829,Arrêt,0,,-3.9541537,node/6935494507
5.2573475,43ème Bima,0,,-3.9579213,node/6935494508
5.299118,Palais des Sports,0,,-4.0065188,node/6935494509
5.3101948,Avenue Christiani,0,,-4.0149692,node/6935494511
5.3002327,Arrêt,0,,-4.0082087,node/6937770645
5.2618319,Arrêt,0,,-3.9594314,node/6937770646
5.2467278,Arrêt,0,,-3.9424717,node/6937770647
5.2400864,Terminus Gonzagueville,0,,-3.9007735,node/6937770648
5.2395482,Arrêt,0,,-3.8973275,node/6937770649
5.2389973,Arrêt,0,,-3.893671,node/6937770650
5.2375957,Pharmacie Bénediction,0,,-3.8845293,node/6937770652
5.2369286,Anani,0,,-3.8802069,node/6937770653
5.2368898,Anani,0,,-3.8798529,node/6937770654
5.2369172,Anani - Rond-point,0,,-3.8749894,node/6937770655
5.2372444,Arrêt,0,,-3.8833565,node/6937770656
5.2380744,Collège privé les Cartésiens d'Abidjan,0,,-3.888965,node/6937770657
5.2386868,Arrêt,0,,-3.8928086,node/6937770658
5.2391862,Arrêt,0,,-3.8962466,node/6937770659
5.2399789,Terminus Gonzagueville,0,,-3.9013763,node/6937770660
5.256211,Arrêt,0,,-3.9649889,node/6937789671
5.4354794,Gare Abobo Sogephia,0,,-4.01522,node/6938095648
5.4251869,Arrêt,0,,-4.0222809,node/6938222040
5.4191963,Arrêt,0,,-4.0239143,node/6938222041
5.4148659,Arrêt,0,,-4.0240283,node/6938222042
5.4147991,Arrêt,0,,-4.0292727,node/6938222043
5.5005578,Ebimpé Village,0,,-4.0807772,node/6938324861
5.5031942,Arrêt,0,,-4.0807946,node/6938324862
5.5033771,Arrêt,0,,-4.0801696,node/6938324863
5.5031182,Arrêt,0,,-4.0769751,node/6938324864
5.5007033,Arrêt,0,,-4.0770207,node/6938324865
5.5002134,Arrêt,0,,-4.0762322,node/6938324866
5.5002334,Arrêt,0,,-4.07344,node/6938324867
5.5000185,Arrêt,0,,-4.0699397,node/6938324868
5.4982283,Arrêt,0,,-4.066591,node/6938324869
5.4912933,Arrêt,0,,-4.0678543,node/6938324870
5.4869787,Arrêt,0,,-4.0690076,node/6938324871
5.4842033,Arrêt,0,,-4.0697157,node/6938324872
5.4791892,Arrêt,0,,-4.0709844,node/6938324873
5.4769371,Arrêt,0,,-4.0715718,node/6938324874
5.4724328,Arrêt,0,,-4.072693,node/6938324875
5.4679499,Arrêt,0,,-4.0737471,node/6938324876
5.4644949,Arrêt,0,,-4.0739322,node/6938324877
5.4606874,Arrêt,0,,-4.0733501,node/6938324878
5.4565342,Arrêt,0,,-4.0724757,node/6938324879
5.4517454,Arrêt,0,,-4.0713693,node/6938324880
5.4485133,Arrêt,0,,-4.0706693,node/6938324881
5.4441757,Arrêt,0,,-4.0696567,node/6938324882
5.4435135,Arrêt,0,,-4.0681963,node/6938324883
5.443862,Arrêt,0,,-4.056062,node/6938324884
5.4440736,Arrêt,0,,-4.0494295,node/6938343085
5.2608437,Hotel Communal Port-Bouët,0,,-3.9639542,node/6938407500
5.2629757,Hôpital Géneral de Port-Bouët,0,,-3.9635653,node/6938407501
5.293872,Arrêt,0,,-3.9564407,node/6938407503
5.2382227,Collège privé les Cartésiens d'Abidjan,0,,-3.8886204,node/6938407504
5.3640511,Farandole,0,,-3.9975952,node/6938756997
5.4036801,Arrêt,0,,-3.9845087,node/6938792077
5.3829263,Arrêt,0,,-3.993252,node/6938792078
5.3147389,Gare Sud,0,,-4.0186301,node/6938792079
5.3010837,Arrêt,0,,-3.9887345,node/6939014886
5.3023803,Pharmacie Sainte Aghate,0,,-3.9663789,node/6939014887
5.3029659,Terminus Remblais 03,0,,-3.9640502,node/6939014888
5.302855,Terminus Remblais 03,0,,-3.9638825,node/6939014890
5.3018088,Arrêt,0,,-3.9684999,node/6939014891
5.2984764,Arrêt,0,,-3.9714879,node/6939014892
5.3022895,Arrêt,0,,-3.9848064,node/6939014894
5.359076,Gare Nord,0,,-4.0274686,node/6939014895
5.2875728,Terminus dépôt SOTRA,0,,-4.0059154,node/6939076692
5.3314425,Sideci Pharmacie Lem,0,,-4.0768933,node/6944816371
5.3305385,Sideci Lem,0,,-4.0798317,node/6944816372
5.3270574,[Arret sans nom],0,,-4.0813807,node/6944816373
5.3246445,Akadjoba,0,,-4.0806283,node/6944816374
5.3310827,Terminus tours Administratives,0,,-4.0237293,node/6944887181
5.4253525,Arrêt,0,,-4.0220542,node/6944887182
5.4193151,Arrêt,0,,-4.0240122,node/6944887183
5.4150828,Arrêt,0,,-4.0241008,node/6944887184
5.4148679,Arrêt,0,,-4.0292533,node/6944920985
5.4148038,Terminus bus 51/52,0,,-4.0334697,node/6944920986
5.3274379,Arrêt,0,,-4.0817052,node/6944934858
5.330154,Sideci Lem - Carrefour Sgbci,0,,-4.080812,node/6944934859
5.3314305,Sideci Pharmacie Lem,0,,-4.0773064,node/6944934860
5.3521541,École de Police,0,,-3.99141,node/6945017053
5.3569943,[Arret sans nom],0,,-3.9914516,node/6945017054
5.2865574,Siège SOTRA,0,,-4.0082677,node/6945458783
5.2569502,Station Oilibya,0,,-3.9722067,node/6945659474
5.2566851,Arrêt,0,,-3.9647529,node/6945659475
5.2546846,Pharmacie Atlantique,0,,-3.9643009,node/6945659476
5.2511255,Port-Bouët Phare,0,,-3.9565238,node/6945659477
5.2531341,Vridi canal - Terminus 23,0,,-4.0047848,node/6945864857
5.2531701,Vridi canal - Terminus 23,0,,-4.0046923,node/6945864858
5.2657115,[Arret sans nom],0,,-4.0087358,node/6945864859
5.2957541,Arrêt du CHU,0,,-4.0033337,node/6945864860
5.260642,Ciprel,0,,-4.0134249,node/6945966271
5.2649101,[Arret sans nom],0,,-4.0138507,node/6945966272
5.265254,[Arret sans nom],0,,-4.011446,node/6945966273
5.2660346,[Arret sans nom],0,,-4.0086137,node/6945966274
5.2688363,[Arret sans nom],0,,-4.0060763,node/6945966275
5.3539352,Arrêt,0,,-3.9581171,node/6948222228
5.3417576,Arrêt,0,,-3.9522725,node/6948222230
5.3392567,Arrêt,0,,-3.9521505,node/6948222231
5.3384929,Arrêt,0,,-3.952243,node/6948222232
5.334941,Carrefour Ambassade de Chine,0,,-3.943904,node/6948222233
5.3392333,Antenne,0,,-3.9452136,node/6948222234
5.3385917,Akwaba,0,,-3.9428439,node/6948222235
5.3355172,Pharmacie,0,,-3.9393644,node/6948222236
5.3328633,Arrêt,0,,-3.9368539,node/6948222237
5.3307248,Centre de santé Municipal de M'Badon,0,,-3.9348771,node/6948222238
5.3286344,Teminus M'Badon,0,,-3.9323347,node/6948222239
5.3285142,Teminus M'Badon,0,,-3.9322612,node/6948270620
5.3305385,Centre de santé Municipal de M'Badon,0,,-3.9347577,node/6948270621
5.3357956,Pharmacie,0,,-3.9397017,node/6948270622
5.339027,Arrêt,0,,-3.9451191,node/6948270623
5.3329114,Ambassade de Chine,0,,-3.9418454,node/6948270624
5.3538285,Arrêt,0,,-3.9568537,node/6948270625
5.3327177,Arrêt,0,,-3.9368337,node/6948290580
5.3385823,Bureau Bad,0,,-3.9429814,node/6948290581
5.3350024,[Arret sans nom],0,,-3.9438068,node/6948290582
5.353946,Arrêt,0,,-3.9767852,node/6948466331
5.3560356,Arrêt,0,,-3.9695473,node/6948466332
5.3732347,Arrêt,0,,-3.9273548,node/6948466333
5.3744488,Arrêt,0,,-3.9221262,node/6948466334
5.3738883,Késsé,0,,-3.9116914,node/6948466335
5.3664705,Syndicat,0,,-3.9090387,node/6948466336
5.3613312,Station TEXACO,0,,-3.8946091,node/6948466337
5.357652,La Poste,0,,-3.8895766,node/6948466338
5.357433,Pharmacie Du Marché,0,,-3.8879555,node/6948466339
5.3576379,Sous-Prefecture de Bingerville,0,,-3.8903531,node/6948466341
5.372677,Nouveau Goudron,0,,-3.9285967,node/6948466343
5.3455151,Pharmacie les 7 Colonnes,0,,-4.0026914,node/6948466345
5.3346312,Arrêt,0,,-3.9906777,node/6948695731
5.3396564,Arrêt,0,,-3.9758237,node/6948695732
5.3414919,Arrêt,0,,-3.9761442,node/6948695733
5.3438403,Arrêt,0,,-3.9751571,node/6948695734
5.3470921,Arrêt,0,,-3.975412,node/6948695735
5.3520693,Arrêt,0,,-3.9767209,node/6948695736
5.3530066,Arrêt,0,,-3.9760919,node/6948695738
5.35209,Arrêt,0,,-3.9766203,node/6948695739
5.3468223,Arrêt,0,,-3.9752188,node/6948695740
5.343802,Arrêt,0,,-3.9750874,node/6948695741
5.3416148,Arrêt,0,,-3.9760651,node/6948695742
5.3397193,Arrêt,0,,-3.9757586,node/6948695743
5.3385022,Arrêt,0,,-3.9754911,node/6948695744
5.3344937,Arrêt,0,,-3.9902714,node/6948695745
5.3349056,Arrêt,0,,-3.9957176,node/6948695746
5.321664,Warafa Assurance,0,,-4.0157926,node/6948706680
5.3184017,Arrêt Résidence Nabil,0,,-4.0152582,node/6948706681
5.3044274,[Arret sans nom],0,,-4.0092923,node/6948706682
5.2949249,Terminus CHU Treichville,0,,-4.0042001,node/6948791226
5.3565604,Arrêt,0,,-3.9679608,node/6948855820
5.3599399,Arrêt,0,,-3.9614752,node/6948855821
5.3717967,Cité Millenium,0,,-3.9289306,node/6948855822
5.3584311,Arrêt,0,,-3.9253854,node/6948855823
5.3556661,Arrêt,0,,-3.9247158,node/6948855824
5.3532496,Arrêt,0,,-3.924163,node/6948855825
5.3498507,Collège Jeune Filles,0,,-3.9233825,node/6948855826
5.3397928,Oribat Cité Don Mello,0,,-3.9225573,node/6948855827
5.3329467,Arrêt,0,,-3.9226348,node/6948855828
5.3282217,Arrêt,0,,-3.9191627,node/6948855829
5.3283086,Paroisse,0,,-3.9169304,node/6948855830
5.326625,EPP Abatta,0,,-3.9161011,node/6948855831
5.3342136,Arrêt,0,,-3.923136,node/6948920956
5.3262131,Arrêt,0,,-3.9158679,node/6948920957
5.3267028,EPP Abatta,0,,-3.9161935,node/6948920958
5.3282218,Paroisse,0,,-3.9169358,node/6948920959
5.3329487,Arrêt,0,,-3.9227374,node/6948920960
5.3417243,Arrêt,0,,-3.9220896,node/6948920961
5.3443775,Arrêt,0,,-3.9222706,node/6948920962
5.3471041,Arrêt,0,,-3.9228521,node/6948920963
5.3532917,Arrêt,0,,-3.9242797,node/6948920964
5.3583733,Arrêt,0,,-3.9254397,node/6948920965
5.359984,Sodeci Abatta,0,,-3.9258534,node/6948920966
5.3722754,Nouveau Goudron,0,,-3.9301027,node/6948920967
5.2579604,Arrêt,0,,-3.968976,node/6951127812
5.2597086,Mairie Port-Bouët,0,,-3.9654422,node/6951127813
5.2595919,[Arret sans nom],0,,-3.9687383,node/6951127815
5.3145654,Gare Sud,0,,-4.0181731,node/6951127816
5.3373639,Arrêt,0,,-3.9533649,node/6951182059
5.3344449,Arrêt,0,,-3.9559445,node/6951182060
5.3308416,Arrêt,0,,-3.9570247,node/6951182061
5.3295658,Arrêt,0,,-3.9531144,node/6951182062
5.3296352,Arrêt,0,,-3.9535137,node/6951182064
5.330835,Arrêt,0,,-3.9572031,node/6951182065
5.3414479,Arrêt,0,,-3.952412,node/6951182066
5.2921887,Arrêt,0,,-3.9630926,node/6951224049
5.2898905,Commissariat de Police du 6ᵉ,0,,-3.9693582,node/6951224050
5.3586694,Gare Nord,0,,-4.0276527,node/6951224051
5.2941431,Gare Koumassi,0,,-3.9554248,node/6951939383
5.3587923,Gare Nord,0,,-4.0273499,node/6951939384
5.3024324,Terminus 31 Remblais,0,,-3.9635003,node/6952071069
5.2975569,Trois Ampoules,0,,-3.9623322,node/6952071070
5.2988296,"BIAO, Treichville",0,,-4.0109539,node/6952132224
5.2884596,"Pizza, Marcory",0,,-3.9883868,node/6952132225
5.2853422,"Bernabé Parc à Fer, Boulevard de Marseille",0,,-3.9855024,node/6952132226
5.2786718,[Arret sans nom],0,,-3.9824903,node/6952132227
5.2734369,Église Notre-Dame d'Afrique,0,,-3.9767262,node/6952132228
5.2734089,Sept Villas,0,,-3.9714865,node/6952132229
5.276028,Arrêt,0,,-3.9672503,node/6952132230
5.2486135,Arrêt,0,,-3.9434065,node/6952132232
5.2544081,EPP Aéroport,0,,-3.9386439,node/6952132233
5.2536201,Aéroport,0,,-3.934246,node/6952132234
5.2469401,Carrefour Aéroport,0,,-3.9450909,node/6952132235
5.2544028,Cité ASECNA,0,,-3.9409603,node/6952132240
5.2508117,Arrêt,0,,-3.9424355,node/6952132241
5.2480679,Arrêt,0,,-3.9435728,node/6952132242
5.247278,Maquis 5 sur 5,0,,-3.947171,node/6952132243
5.2567618,Pharmacie Océan,0,,-3.9610943,node/6952132244
5.266498,Abattoir Port-Bouët,0,,-3.9627318,node/6952132245
5.2726637,Arrêt,0,,-3.9751598,node/6952132246
5.28785,Arrêt,0,,-3.9878453,node/6952132247
5.2895893,Arrêt,0,,-3.9917104,node/6952132248
5.2912033,Arrêt,0,,-3.9954532,node/6952132250
5.2984459,"BIAO, Treichville",0,,-4.0104501,node/6952132251
5.3144382,Gare Sud,0,,-4.0182926,node/6952132252
5.3091986,Arrêt,0,,-3.9495367,node/6952200468
5.3097742,Centre Médico-social,0,,-3.9481486,node/6952200469
5.3012025,Hôpital Général de Marcory,0,,-3.9837456,node/6952200470
5.3034286,Arrêt,0,,-3.986865,node/6952200471
5.3042605,Arrêt,0,,-4.0094613,node/6952200472
5.3052353,Arrêt,0,,-4.007007,node/6952200475
5.3027926,Arrêt,0,,-3.9855715,node/6952200476
5.3118954,Akromiambla-Terminus 32 Koumassi,0,,-3.952005,node/6952200477
5.441531,Arrêt,0,,-4.0471624,node/6952244517
5.4436978,Arrêt,0,,-4.0559909,node/6952566208
5.4448793,Arrêt,0,,-4.0699545,node/6952566209
5.4490874,Arrêt,0,,-4.0708852,node/6952566210
5.4522514,Arrêt,0,,-4.0716147,node/6952566211
5.4532246,Arrêt,0,,-4.0718146,node/6952566212
5.4567491,Arrêt,0,,-4.0726206,node/6952566213
5.4606701,Arrêt,0,,-4.0734789,node/6952566214
5.4636378,Arrêt,0,,-4.0739724,node/6952566215
5.4644695,Arrêt,0,,-4.074022,node/6952566216
5.4679793,Arrêt,0,,-4.0738437,node/6952566217
5.4724295,Arrêt,0,,-4.0727828,node/6952566218
5.4769985,Arrêt,0,,-4.0716872,node/6952566219
5.4793881,Arrêt,0,,-4.0710461,node/6952566220
5.4821955,Arrêt,0,,-4.0703045,node/6952566221
5.4839777,Arrêt,0,,-4.0699115,node/6952566222
5.486354,Arrêt,0,,-4.0692893,node/6952566223
5.4911611,Arrêt,0,,-4.0680795,node/6952566224
5.4982644,Arrêt,0,,-4.0667948,node/6952566225
5.5001119,Arrêt,0,,-4.0740864,node/6952566226
5.5000518,Arrêt,0,,-4.0767123,node/6952566227
5.2862329,Petit Café,0,,-3.9734097,node/6954138437
5.2807083,Arrêt,0,,-3.9775054,node/6954138438
5.2823321,Arrêt,0,,-3.9804116,node/6954138439
5.300639,Arrêt,0,,-4.0126625,node/6954138440
5.28394,Agence Nationale de la Formation Professionnelle (AGEFOP),0,,-3.9828832,node/6954138442
5.2809293,Arrêt,0,,-3.9776556,node/6954138443
5.2870755,UTTb Université Loko,0,,-3.973057,node/6954138444
5.2892455,Marché DjeKonan,0,,-3.9693475,node/6954138445
5.3133129,Arrêt,0,,-3.9518099,node/6954138446
5.2834138,CIE Koumassi,0,,-3.9679319,node/6954511639
5.286559,Hôpital de Koumassi,0,,-3.9686649,node/6954511640
5.3583583,[Arret sans nom],0,,-4.0989914,node/6954926526
5.3615502,[Arret sans nom],0,,-4.1000086,node/6954926527
5.3641759,[Arret sans nom],0,,-4.0967993,node/6954926528
5.2859504,Koumassi Soweto - Dépôt 5,0,,-3.9531577,node/6955038705
5.2847586,Pharmacie Bethanie,0,,-3.9582532,node/6955038706
5.2840528,Sation Lavage,0,,-3.9611265,node/6955038707
5.2836422,CIE Koumassi,0,,-3.9680882,node/6955038708
5.2870421,Hôpital de Koumassi,0,,-3.9688808,node/6955038709
5.2996014,Pharmacie Massarana,0,,-3.984628,node/6955038710
5.3587075,Gare Nord,0,,-4.0275521,node/6955038711
5.3331711,Cité Administrative,0,,-4.0217512,node/6955514933
5.3635731,Arrêt Pharmacie Palmeraie,0,,-3.9598243,node/6955514934
5.3710263,Arrêt,0,,-3.9580205,node/6955514935
5.3720811,Arrêt,0,,-3.9587393,node/6955514936
5.3808935,Cocody SCI Les Rosiers,0,,-3.964382,node/6955514937
5.3727874,Arrêt,0,,-3.9598592,node/6955514938
5.3685488,Arrêt,0,,-3.9592516,node/6955514939
5.3149553,Gare Sud,0,,-4.0184346,node/6955514940
5.253474,Aéroport,0,,-3.9341971,node/6958966895
5.2774525,Arrêt,0,,-3.981805,node/6961370878
5.2744205,Pharmacie de Bietry,0,,-3.9788787,node/6961370879
5.2516684,Arrêt Dr08,0,,-3.9421921,node/6961370880
5.2543801,Cité ASECNA,0,,-3.9410589,node/6961370881
5.3618139,[Arret sans nom],0,,-4.0725361,node/6961643500
5.373881,[Arret sans nom],0,,-4.0923724,node/6961643501
5.3718154,[Arret sans nom],0,,-4.0945986,node/6961643502
5.3396466,Amondji,0,,-4.0858988,node/6963093974
5.3395998,Arrêt,0,,-4.0810166,node/6963093975
5.3382505,Pont Vagabond,0,,-4.0792436,node/6963093976
5.3403236,Arrêt,0,,-4.0747274,node/6963093977
5.3147296,Gare Sud,0,,-4.0181436,node/6963093979
5.3415106,Saint André lavage,0,,-4.0732643,node/6963093981
5.3395197,Amondji,0,,-4.0859069,node/6963093982
5.3883091,Aghien 2 plateaux,0,,-3.9928235,node/6964184463
5.3359625,[Arret sans nom],0,,-4.0044791,node/6964184464
5.3885302,Aghien 2 plateaux,0,,-3.9923066,node/6964184466
5.3502206,Carrefour la Vie,0,,-4.0021368,node/6964184467
5.3635871,Arrêt Pharmacie Palmeraie,0,,-3.9596674,node/6964502135
5.3609547,BAE,0,,-4.0846449,node/6966758103
5.3551851,Arrêt,0,,-4.0882243,node/6966758104
5.3549701,Carrefour Antenne Ananeraie,0,,-4.0957546,node/6966758105
5.354878,Oasis,0,,-4.0988526,node/6966758106
5.3502259,Sorbonne,0,,-4.0993729,node/6966758107
5.3462622,Arrêt,0,,-4.0997625,node/6966758108
5.333344,Arrêt,0,,-4.1031267,node/6966758109
5.3292232,Arrêt,0,,-4.1044571,node/6966758111
5.3441658,Arrêt,0,,-4.1004723,node/6966758112
5.3460138,Arrêt,0,,-4.0999784,node/6966758113
5.3500978,Sorbonne,0,,-4.0994869,node/6966758114
5.3529605,Arrêt,0,,-4.0994742,node/6966758115
5.3549421,Oasis,0,,-4.0992308,node/6966758116
5.3551971,Arrêt,0,,-4.0918869,node/6966758117
5.3233545,Arrêt,0,,-4.016671,node/6966849451
5.4486134,Arrêt,0,,-4.0138976,node/6966849452
5.2613392,Hotel Communal Port-Bouët,0,,-3.9637296,node/6966927285
5.2528723,Wharf Port-Bouët,0,,-3.9605525,node/6966927286
5.3027916,Arrêt,0,,-4.0132633,node/6966927287
5.4469386,Arrêt,0,,-4.0140968,node/6966942817
5.4381706,Arrêt,0,,-4.0166429,node/6966942818
5.4141149,Arrêt,0,,-4.0159589,node/6966942819
5.4069719,Arrêt,0,,-4.0164229,node/6966942820
5.2655592,Arrêt,0,,-4.0007964,node/6967070473
5.2772629,Arrêt,0,,-4.0085238,node/6967070474
5.279469,Arrêt,0,,-4.0085185,node/6967070475
5.3959876,Arrêt,0,,-4.0210712,node/6967070476
5.4118438,Arrêt,0,,-4.016604,node/6967070477
5.4197437,Arrêt,0,,-4.0178807,node/6967070478
5.4227157,Arrêt,0,,-4.0187565,node/6967070479
5.4356834,Arrêt,0,,-4.0289891,node/6967070480
5.4364023,Arrêt,0,,-4.0302558,node/6967070481
5.4370672,Arrêt,0,,-4.0319341,node/6967070482
5.4373075,Arrêt,0,,-4.0332256,node/6967070483
5.4377581,Arrêt,0,,-4.0362847,node/6967070484
5.4381539,Arrêt,0,,-4.0391982,node/6967074785
5.4435976,PK 18 Agripac,0,,-4.0485819,node/6967074787
5.4255661,Arrêt,0,,-4.0197301,node/6967158577
5.4195782,Arrêt,0,,-4.017465,node/6967158578
5.3053862,Arrêt,0,,-4.0226068,node/6967158579
5.2891307,Pharmacie du Port,0,,-4.0082905,node/6967158580
5.4269192,Abobo Gendarmerie,0,,-4.0212006,node/6968911549
5.4289586,Arrêt,0,,-4.0229219,node/6968911550
5.4078444,Arrêt,0,,-4.0812264,node/6968911551
5.3570551,CHU de Yopougon,0,,-4.0851445,node/6968911556
5.3698106,Arrêt,0,,-4.080236,node/6968911557
5.3746728,Arrêt,0,,-4.0777087,node/6968911558
5.4392253,Arrêt,0,,-4.0687166,node/6968911559
5.3423532,Arrêt,0,,-4.0793476,node/6969221528
5.3141434,Gare Sud,0,,-4.0177429,node/6969221530
5.3743039,Feh Kessé,0,,-3.9117702,node/6969371620
5.3472803,Clinique Providence,0,,-4.0097992,node/6969583471
5.3451973,Supermarché Casino,0,,-4.0106696,node/6969583472
5.3147951,Gare Sud,0,,-4.0185824,node/6969583474
5.3154387,Gare Sud,0,,-4.01752,node/6969583476
5.3161731,Novotel,0,,-4.0166201,node/6969583477
5.3172748,[Arret sans nom],0,,-4.0151837,node/6969583478
5.3202726,Arrêt,0,,-4.015578,node/6969583479
5.3209056,Arrêt,0,,-4.0192916,node/6969583480
5.3217388,Arrêt,0,,-4.0207359,node/6969583481
5.3233639,Hotel de Ville,0,,-4.0207185,node/6969583482
5.3257514,Arrêt,0,,-4.0207171,node/6969583483
5.3278011,Arrêt,0,,-4.0207332,node/6969583484
5.3335937,Cité Administrative,0,,-4.0217525,node/6969620785
5.4031227,Termunis 81/82,0,,-3.985249,node/6970095632
5.3971746,Arrêt,0,,-3.9859892,node/6970095633
5.3841166,Pharmacie Les 7 Lys,0,,-3.9875704,node/6970095634
5.3643008,Arrêt,0,,-3.979157,node/6970095635
5.3542958,Riviera 2,0,,-3.977256,node/6970095637
5.3623286,Arrêt,0,,-3.978931,node/6970095638
5.3924174,DGI,0,,-3.9866585,node/6970095639
5.4031427,Termunis 81/82,0,,-3.9853522,node/6970095641
5.3554107,Arrêt,0,,-3.9506122,node/6970366278
5.3552038,Arrêt,0,,-3.950804,node/6970366281
5.3652007,Arrêt,0,,-3.9482653,node/6970366282
5.3643008,Arrêt,0,,-3.9522095,node/6970366283
5.403546,Arrêt,0,,-4.0181825,node/6979256984
5.4038146,Arrêt,0,,-3.9848581,node/6979431044
5.39671,Arrêt,0,,-3.977142,node/6979431045
5.3902524,Arrêt,0,,-3.9754421,node/6979431046
5.387788,Arrêt,0,,-3.9747639,node/6979431047
5.3839137,Arrêt,0,,-3.9737651,node/6979431048
5.3828575,Arrêt,0,,-3.9734902,node/6979431049
5.3749859,Arrêt,0,,-3.9627425,node/6979431051
5.4036825,Arrêt,0,,-3.984727,node/6979431052
5.3281463,Arrêt,0,,-3.9195342,node/6979712503
5.3318471,Arrêt,0,,-3.9224169,node/6979712504
5.3394623,Arrêt,0,,-3.9227159,node/6979712505
5.3479974,Arrêt,0,,-3.923066,node/6979712506
5.3497346,Arrêt,0,,-3.9234415,node/6979712507
5.3546363,Arrêt,0,,-3.924564,node/6979712508
5.3579717,Arrêt,0,,-3.9253713,node/6979712509
5.3601,Arrêt;Sodeci,0,,-3.9221386,node/6979712510
5.3622665,Arrêt,0,,-3.9265072,node/6979712511
5.3635464,Arrêt,0,,-3.9268023,node/6979712512
5.3687351,Arrêt,0,,-3.928193,node/6979712513
5.3703787,Arrêt,0,,-3.9379911,node/6979712514
5.3679286,Arrêt,0,,-3.9279167,node/6979712515
5.3470093,Arrêt,0,,-3.9227716,node/6979712516
5.3449917,Arrêt,0,,-3.9223344,node/6979712517
5.3428352,Arrêt,0,,-3.9218402,node/6979712518
5.3413324,Arrêt,0,,-3.9221104,node/6979712519
5.2452454,Arrêt,0,,-3.9344399,node/6980029236
5.2569228,Arrêt,0,,-3.9723435,node/6980029237
5.2684644,Bank Of Africa,0,,-4.0062828,node/6980029238
5.2646043,Arrêt,0,,-4.0139727,node/6980029239
5.2587043,Arrêt,0,,-4.0112543,node/6980029241
5.2648347,[Arret sans nom],0,,-4.0138916,node/6980029242
5.2686721,[Arret sans nom],0,,-4.006083,node/6980029243
5.2509145,Terminus Port-Bouët Phare,0,,-3.9560491,node/6980258130
5.3433974,Arrêt,0,,-4.0032211,node/6980521688
5.3628414,Arrêt,0,,-3.9976139,node/6980521689
5.399921,Arrêt,0,,-4.0057075,node/6980521690
5.4015232,Arrêt,0,,-4.0065511,node/6980521691
5.4034191,Arrêt,0,,-4.0065081,node/6980521692
5.4241696,Terminus Gendarmerie Abobo,0,,-4.0192406,node/6980521695
5.4185708,Arrêt,0,,-4.0134712,node/6980521696
5.4155561,Arrêt,0,,-4.0074744,node/6980521697
5.4135434,Arrêt,0,,-4.0062694,node/6980521698
5.4035807,Arrêt,0,,-4.0064277,node/6980521699
5.3998663,Arrêt,0,,-3.9990999,node/6980521700
5.3987194,Arrêt,0,,-3.992904,node/6980521701
5.387006,Arrêt,0,,-3.9927913,node/6980521702
5.3819122,Arrêt,0,,-3.9934525,node/6980521703
5.2578469,Arrêt,0,,-3.9718473,node/7025968250
5.2642798,Arrêt,0,,-3.9994057,node/7025975082
5.2682835,Arrêt,0,,-4.003783,node/7025975083
5.3292373,Arrêt,0,,-4.10439,node/7025992286
5.2771214,[Arret sans nom],0,,-4.0083388,node/7026069662
5.341978,Arrêt,0,,-4.0149826,node/7026279881
5.2855772,Arrêt,0,,-3.9547831,node/7026364429
5.2850417,[Arret sans nom],0,,-3.9641359,node/7026390486
5.2566557,Océan Espadon,0,,-3.9616643,node/7028872830
5.3588917,Gare Nord,0,,-4.0278525,node/7028872831
5.3534289,Cité étudiante Riviera 2,0,,-3.9736383,node/7043603291
5.3550743,Carrefour Antenne Ananeraie,0,,-4.0957761,node/7043642288
5.3109066,Gare Lagunaire Yopougon STL,0,,-4.0344058,node/7044975088
5.3143858,Gare Lagunaire Plateau STL,0,,-4.0170439,node/7044975089
5.3135839,Gare Lagunaire Treichville STL,0,,-4.0100701,node/7044975090
5.315627,Gare Lagunaire Koumassi STL,0,,-3.952125,node/7046900012
5.3240676,Gare Lagunaire M'pouto STL,0,,-3.9603245,node/7046900013
5.3108107,Gare Lagunaire de Treichville Sotra,0,,-4.015859,node/7046964142
5.3107009,Gare Lagunaire d’Abobo-Doumé Sotra,0,,-4.0347196,node/7046964143
5.3140753,Gare Lagunaire du Plateau Sotra,0,,-4.0176728,node/7047063325
5.3212342,Gare lagunaire de Blockauss Sotra,0,,-4.0021442,node/7047101136
5.3562773,Arrêt,0,,-4.0016118,node/7047930662
5.4096636,Arrêt,0,,-3.9856634,node/7047930663
5.3665112,Syndicat,0,,-3.9091802,node/7048020780
5.3739184,Késsé,0,,-3.9119428,node/7048020781
5.3676562,Camp Millitaire d'Akouédo,0,,-3.9446417,node/7048020782
5.3652501,Église Apostolique de Côte d'Ivoire,0,,-3.9495032,node/7048020783
5.3672056,Yopougon Gesco - Terminus du bus 34,0,,-4.1020069,node/7049258139
5.365903,Arrêt,0,,-4.0973914,node/7049258140
5.3634963,Arrêt,0,,-4.0976979,node/7049258141
5.3608051,Arrêt,0,,-4.1003995,node/7049258142
5.3587021,Arrêt,0,,-4.0998034,node/7049258143
5.3582214,Mamie Adjoua,0,,-4.0940326,node/7049258144
5.3552799,Arrêt,0,,-4.088628,node/7049258145
5.3009034,Arrêt,0,,-4.0120965,node/7049730219
5.2545644,EPP Aéroport,0,,-3.9392397,node/7049730220
5.2734289,Sept Villas,0,,-3.9712512,node/7049730221
5.2844982,Arrêt,0,,-3.9852691,node/7049730222
5.3485715,Carrefour La Vie,0,,-4.0031956,node/7051810979
5.3528057,Terminus Liberté,0,,-4.0128221,node/7051810981
5.3503194,Ecole de Police,0,,-3.9885668,node/7051810982
5.3530834,Riviera 2,0,,-3.9797437,node/7051810984
5.3529853,Station Total Riviera 2,0,,-3.9788968,node/7051811086
5.35446,Vallon,0,,-3.9909077,node/7051811087
5.3546991,Escalier,0,,-4.0043946,node/7051811088
5.3533605,Adjamé liberté,0,,-4.0146225,node/7051811090
5.3498521,Gare Anono,0,,-4.0228106,node/7051905145
5.3495777,Station,0,,-4.0223607,node/7051905146
5.347757,Banfora,0,,-4.0227932,node/7051905147
5.3464705,Marché,0,,-4.0227107,node/7051905148
5.3451372,Eglise Saint Michel,0,,-4.0226899,node/7051905149
5.343631,Eglise,0,,-4.0234597,node/7051905150
5.3490415,SODEFOR,0,,-3.9993949,node/7051905151
5.3494341,Carrefour CHU,0,,-3.9919236,node/7051905152
5.3505471,Arrêt,0,,-3.9869374,node/7051905153
5.3445751,Terminus Anono,0,,-3.9724706,node/7051905154
5.3452895,Marché,0,,-3.9744008,node/7051905155
5.34455,Terminus Anono,0,,-3.9724521,node/7051905157
5.3504075,Arrêt,0,,-3.9769623,node/7051905159
5.3500924,Au Lavage,0,,-3.9778259,node/7051905160
5.3510311,A la Mosquée,0,,-3.9809205,node/7051905161
5.349577,Carrefour CHU,0,,-3.9905101,node/7051905162
5.3497766,Gare Anono,0,,-4.0228461,node/7051905163
5.3501191,Ecole de Police,0,,-3.989405,node/7052162358
5.3454176,Carrefour Saint Michel,0,,-4.0226577,node/7052162359
5.3418391,A La Caisse,0,,-4.0216117,node/7052162360
5.3673438,Akouédo,0,,-3.9457347,node/7052162361
5.3719142,Playce Palmeraie,0,,-3.9324155,node/7052162362
5.3728529,Nouveau Goudron,0,,-3.9287925,node/7052162363
5.3743603,Kessé,0,,-3.9122875,node/7052162364
5.3602229,CIE,0,,-3.8981583,node/7052162365
5.3613609,Station Texaco,0,,-3.8947412,node/7052162366
5.3575885,Collège Moderne,0,,-3.8882764,node/7052162367
5.3573081,Carrefour Bangui,0,,-3.8845441,node/7052162369
5.357718,Terminus Carrefour Bangui,0,,-3.8843443,node/7052162370
5.3571933,Carrefour Bangui,0,,-3.8844985,node/7052162371
5.3574283,Collège Moderne,0,,-3.887693,node/7052162372
5.3703106,Faya,0,,-3.9374359,node/7052162373
5.350286,Gare en haut,0,,-4.0224532,node/7052162375
5.3493033,Clinique Fraternité,0,,-4.0218316,node/7052340401
5.3548993,Escalier,0,,-4.0042631,node/7052340402
5.3546376,Vallon-1er Pont,0,,-3.9904813,node/7052340403
5.3504162,Gare en haut,0,,-4.0227482,node/7052340404
5.3271876,Terminus M'Pouto,0,,-3.9542839,node/7052340405
5.3271989,Terminus M'Pouto,0,,-3.9543486,node/7052340406
5.3310206,A l'Arrêt,0,,-3.9579682,node/7052340407
5.3347781,Banny,0,,-3.9557567,node/7052340408
5.337175,Maison Blanche,0,,-3.9537035,node/7052340409
5.3452694,Mel Théodore,0,,-3.952691,node/7052340410
