stop_id,stop_code,stop_name,stop_desc,stop_lat,stop_lon,zone_id,stop_url,location_type,parent_station,stop_timezone,wheelchair_boarding
n1227889258,,Gare lagunaire Aqualines du Plateau,,5.3158647,-4.0148847,,,0,,,0
n5390465849,,Gare lagunaire Aqualines Yopougon,,5.3078259,-4.0374018,,,0,,,0
n5953580666,,Pharmacie du bonheur,,5.3695413,-3.9587073,,,0,,,0
n6815808830,,Station Shell Riviera 3,,5.3580852,-3.9641507,,,0,,,0
n6815808832,,Pharmacie Val de Grace,,5.3802452,-3.9672641,,,0,,,0
n6815808834,,Marché COCOVICO,,5.4010646,-3.9780418,,,0,,,0
n6899034705,,Gare de Bassam,,5.3003331,-4.0027516,,,0,,,0
n6899034707,,Notre-dame,,5.303315,-4.0037983,,,0,,,0
n6899034708,,Pharmacie Nanan Yamousso,,5.3072484,-4.005186,,,0,,,0
n6899034709,,Après le Pont,,5.3099574,-4.0061407,,,0,,,0
n6899053345,,Adjamé Liberté,,5.3534437,-4.014858,,,0,,,0
n6899053347,,Feux du plateau,,5.3251137,-4.0152171,,,0,,,0
n6899053348,,Nanan Yamousso,,5.3101491,-4.0061218,,,0,,,0
n6899053349,,Gare de Bassam,,5.3003494,-4.0026642,,,0,,,0
n6899241573,,Abobo Gare Mairie,,5.4200067,-4.0174383,,,0,,,0
n6899241574,,Mobil,,5.4143755,-4.0159818,,,0,,,0
n6899241575,,Lavage,,5.3846198,-4.0215227,,,0,,,0
n6899241576,,Macaci,,5.37725,-4.0257575,,,0,,,0
n6899241577,,Adjamé Liberté,,5.3543459,-4.0164004,,,0,,,0
n6899264970,,Marché Gouro,,5.349107,-4.0212174,,,0,,,0
n6899264971,,Adjamé Liberté,,5.354717,-4.0163751,,,0,,,0
n6899264972,,Station Total,,5.358734,-4.016791,,,0,,,0
n6899264973,,Abobo Gare Mairie,,5.4215493,-4.0171184,,,0,,,0
n6902638988,,Carrefour Marché,,5.4195759,-4.0153363,,,0,,,0
n6902638989,,Petro Ivoire,,5.4186048,-4.0135168,,,0,,,0
n6902638990,,Au Bar,,5.4168519,-4.0101975,,,0,,,0
n6902638991,,Petit Carrefour,,5.4157998,-4.0080786,,,0,,,0
n6902638992,,Samaké,,5.4152338,-4.0067032,,,0,,,0
n6902638993,,Azur,,5.3995011,-4.0064914,,,0,,,0
n6902638994,,Panneau ZOO,,5.3780522,-4.0070352,,,0,,,0
n6902638995,,Abobo Gare Mairie,,5.4197843,-4.0157753,,,0,,,0
n6902638996,,Ciné Cool,,5.4176548,-4.0117095,,,0,,,0
n6902638997,,Boulangerie Samaké,,5.4144283,-4.0062697,,,0,,,0
n6902638998,,Menuiserie,,5.410863,-4.0062877,,,0,,,0
n6902638999,,Tchapatcha,,5.4101067,-4.0063067,,,0,,,0
n6902639000,,Chaîne Avion,,5.4092677,-4.0063409,,,0,,,0
n6902639001,,Pharmacie Dokui,,5.4051188,-4.0063993,,,0,,,0
n6902639002,,SODECI,,5.4036347,-4.0064176,,,0,,,0
n6902639003,,Etage Noir,,5.4020967,-4.0064567,,,0,,,0
n6902639004,,Azur Mobile,,5.4001879,-4.0064867,,,0,,,0
n6902639005,,Arrêt Dokui,,5.3968179,-4.006353,,,0,,,0
n6902639006,,Ancien Feu,,5.3929293,-4.005793,,,0,,,0
n6902639007,,Bangui,,5.3872276,-4.005732,,,0,,,0
n6902639008,,Vidange,,5.3851864,-4.0060126,,,0,,,0
n6902639009,,HMA,,5.382931,-4.0063262,,,0,,,0
n6902639010,,Carrefour paillet,,5.3721147,-4.0118134,,,0,,,0
n6902639011,,Carrefour 2 Plateaux,,5.3653117,-4.0157876,,,0,,,0
n6902639012,,Gare des gbakas d’Abobo par le zoo,,5.3553627,-4.0160705,,,0,,,0
n6902868224,,Petro Ivoire,,5.4184847,-4.0136214,,,0,,,0
n6902868225,,Ciné Cool,,5.4176463,-4.0120067,,,0,,,0
n6902868226,,Au Bar,,5.4167077,-4.0102981,,,0,,,0
n6902868227,,Pharmacie Dokui,,5.4052002,-4.0065175,,,0,,,0
n6902868228,,SODECI,,5.4036701,-4.0065873,,,0,,,0
n6902868229,,Etage Noir,,5.40212,-4.0066315,,,0,,,0
n6902868230,,Azur Mobile,,5.4002027,-4.0066275,,,0,,,0
n6902868231,,Azur,,5.3994577,-4.0066034,,,0,,,0
n6902868232,,Arrêt Dokui,,5.3965911,-4.0064518,,,0,,,0
n6902868233,,Ancien Feu,,5.3928327,-4.0059301,,,0,,,0
n6902868234,,Bangui,,5.3872984,-4.0058536,,,0,,,0
n6902868235,,Vidange,,5.3853034,-4.0060952,,,0,,,0
n6902868236,,HMA,,5.382907,-4.0064118,,,0,,,0
n6902868237,,Carrefour paillet,,5.3716859,-4.0122239,,,0,,,0
n6902868238,,Carrefour 2 Plateaux,,5.365405,-4.0159576,,,0,,,0
n6902868239,,Willy Agban,,5.3633371,-4.0168128,,,0,,,0
n6902868240,,Cimetière,,5.3668297,-4.0152077,,,0,,,0
n6902868241,,CIE,,5.3765337,-4.0094557,,,0,,,0
n6902868242,,ZOO,,5.3789939,-4.0070149,,,0,,,0
n6902868243,,Eglise,,5.3900553,-4.0056173,,,0,,,0
n6902868244,,Pharmacie Racines,,5.41329,-4.0099567,,,0,,,0
n6902868245,,Abobo Gare Mairie,,5.4197639,-4.0160257,,,0,,,0
n6902975747,,Christine Bar,,5.4500232,-4.0135154,,,0,,,0
n6902975748,,Akéikoi Village,,5.4607326,-4.0109926,,,0,,,0
n6902975749,,À l'école,,5.45899,-4.0107733,,,0,,,0
n6902975750,,Destin,,5.455207,-4.0112928,,,0,,,0
n6902975751,,Monnaie,,5.4542173,-4.0119566,,,0,,,0
n6902975752,,André Bar,,5.4528753,-4.0128592,,,0,,,0
n6902975753,,Carrefour Marché,,5.4510493,-4.0133357,,,0,,,0
n6902975754,,A l'étage,,5.446249,-4.0143571,,,0,,,0
n6902975755,,Boulangerie,,5.4394513,-4.0141843,,,0,,,0
n6902975756,,Carrefour Akéikoi,,5.4384053,-4.0140378,,,0,,,0
n6902975757,,Gare Gbaka Akeïkoi,,5.4225885,-4.0161726,,,0,,,0
n6903084141,,Carrefour Marché,,5.4510338,-4.0134417,,,0,,,0
n6903084142,,André Bar,,5.4530404,-4.0129173,,,0,,,0
n6903084143,,Monnaie,,5.4542793,-4.0120751,,,0,,,0
n6903097494,,Au goudron,,5.438503,-4.0142825,,,0,,,0
n6903097495,,Abobo CIE,,5.4227551,-4.0160694,,,0,,,0
n6903097496,,Au tournant,,5.4230451,-4.013945,,,0,,,0
n6903097497,,Au Lycée,,5.4278809,-4.0146415,,,0,,,0
n6903097498,,Célibataire,,5.433455,-4.0124107,,,0,,,0
n6903097499,,JAUG,,5.4352003,-4.0124925,,,0,,,0
n6903097500,,Cité,,5.4383233,-4.0135883,,,0,,,0
n6903097501,,Boulangerie,,5.449017,-4.0138345,,,0,,,0
n6903097502,,Christine Bar,,5.4500084,-4.0136722,,,0,,,0
n6903097503,,Destin,,5.4552984,-4.01134,,,0,,,0
n6903097504,,À l'École,,5.4594779,-4.0109968,,,0,,,0
n6903097505,,Akéikoi Village,,5.460775,-4.0111868,,,0,,,0
n6903193216,,[Arrêt],,5.4429021,-4.0144891,,,0,,,0
n6903193217,,A l'étage,,5.4463091,-4.0144891,,,0,,,0
n6903268819,,Abobo Gare Mairie,,5.42194,-4.0165181,,,0,,,0
n6903268820,,Gare Abobo Kennedy-Marché/ Mosquée Ado,,5.4223082,-4.0163197,,,0,,,0
n6903268821,,Station,,5.4211585,-4.0100057,,,0,,,0
n6903268822,,Kennedy Marché,,5.4236887,-4.0015221,,,0,,,0
n6903296476,,[Arrêt],,5.4220774,-4.011662,,,0,,,0
n6903296477,,Carrefour Kennedy,,5.4186997,-4.0059623,,,0,,,0
n6903296478,,Carrefour Kennedy,,5.418665,-4.0058919,,,0,,,0
n6903296479,,Makan Traoré,,5.4211643,-4.0039433,,,0,,,0
n6903296480,,Au marché,,5.4236156,-4.0015453,,,0,,,0
n6903296481,,A Gauche,,5.423623,-4.0021714,,,0,,,0
n6903296482,,Makan Traoré,,5.4214359,-4.0037249,,,0,,,0
n6903347574,,Cocody Riviera M'badon,,5.3286546,-3.9324706,,,0,,,0
n6903347575,,Nouveau marché,,5.3293417,-3.9332267,,,0,,,0
n6903347576,,Ancien marché,,5.329969,-3.9339946,,,0,,,0
n6903347577,,Centre de santé Municipal de M'Badon,,5.3307517,-3.9350317,,,0,,,0
n6903347578,,La ferme,,5.331008,-3.9352626,,,0,,,0
n6903347579,,Pharmacie,,5.3353839,-3.9393933,,,0,,,0
n6903347580,,2 poteaux,,5.3384154,-3.9427407,,,0,,,0
n6903347581,,Antenne,,5.339948,-3.945032,,,0,,,0
n6903347582,,Carrefour Akouédo,,5.345935,-3.9457017,,,0,,,0
n6903347583,,École,,5.3461517,-3.9471733,,,0,,,0
n6903347584,,2ème rond-point,,5.3458217,-3.9505483,,,0,,,0
n6903370485,,Gare en haut,,5.3503568,-4.0227501,,,0,,,0
n6903374200,,Station,,5.4210882,-4.0100339,,,0,,,0
n6903374201,,Immeuble Cercueil,,5.4196516,-4.00729,,,0,,,0
n6903374202,,Immeuble Cercueil,,5.4195942,-4.0074087,,,0,,,0
n6903397403,,Mosquée Ado Kenedy,,5.4234508,-3.9978515,,,0,,,0
n6903397404,,À l'école,,5.4215774,-3.9978489,,,0,,,0
n6903397405,,[Arrêt],,5.4198617,-3.9979409,,,0,,,0
n6903397406,,Dahico,,5.4185867,-3.9980283,,,0,,,0
n6903397407,,Etage Noir,,5.4157689,-3.9992242,,,0,,,0
n6903406997,,Samaké,,5.415578,-4.0059533,,,0,,,0
n6903406998,,Eglise,,5.4156012,-4.0037563,,,0,,,0
n6903504058,,Eglise,,5.4155167,-4.0037625,,,0,,,0
n6903504059,,Monastère,,5.4155583,-4.0007112,,,0,,,0
n6903504060,,Monastère,,5.4154526,-4.0008035,,,0,,,0
n6903504061,,Etage Noir,,5.4157731,-3.999403,,,0,,,0
n6903504062,,Dahico,,5.4185995,-3.9981732,,,0,,,0
n6903525051,,Hôtel du centre,,5.4339087,-4.0272132,,,0,,,0
n6903525052,,À la Pompe,,5.437375,-4.0337387,,,0,,,0
n6903525053,,Dépôt,,5.4377181,-4.0360617,,,0,,,0
n6903525054,,Anokoi Garage,,5.4390697,-4.0444772,,,0,,,0
n6903525055,,Anokoi Garage,,5.439303,-4.0444823,,,0,,,0
n6903525056,,Marahoué,,5.4422211,-4.0479148,,,0,,,0
n6903525057,,Agripac,,5.4439581,-4.0487972,,,0,,,0
n6903525058,,Terminus,,5.447775,-4.0509604,,,0,,,0
n6903525059,,Terminus,,5.4479797,-4.0508555,,,0,,,0
n6903525060,,Délice de france,,5.4455178,-4.0494069,,,0,,,0
n6903525061,,Marahoué,,5.4425017,-4.0477433,,,0,,,0
n6903525062,,Dépôt,,5.4379717,-4.0360937,,,0,,,0
n6903525063,,À la Pompe,,5.4376377,-4.033852,,,0,,,0
n6903525064,,Marché de Nuit,,5.4367133,-4.030245,,,0,,,0
n6903525065,,Hôtel du centre,,5.4340417,-4.026894,,,0,,,0
n6903525066,,Abobo Gare,,5.4217034,-4.018191,,,0,,,0
n6903535584,,Complexe,,5.3489387,-4.0206447,,,0,,,0
n6903544086,,Gare en haut,,5.350348,-4.0224464,,,0,,,0
n6903544087,,Maternité,,5.3481387,-4.0180948,,,0,,,0
n6903544088,,Adjamé Liberté,,5.3521055,-4.014163,,,0,,,0
n6903544089,,2ème pont,,5.3547793,-4.0029137,,,0,,,0
n6903544090,,Marché,,5.3301187,-3.9339759,,,0,,,0
n6903602207,,Abobo Gendarmerie,,5.4263194,-4.0203724,,,0,,,0
n6903602208,,Mosquée Blanche,,5.4298704,-4.0233336,,,0,,,0
n6903602209,,Solibra,,5.4332219,-4.0262471,,,0,,,0
n6903602210,,Château,,5.4359152,-4.0288774,,,0,,,0
n6903602211,,A l'escalier,,5.4383375,-4.0383548,,,0,,,0
n6903602212,,PK 18 ancien marché,,5.4497913,-4.0521369,,,0,,,0
n6903602213,,Abobo Gare,,5.4220421,-4.0184916,,,0,,,0
n6903602214,,Abobo Gendarmerie,,5.4260466,-4.0204342,,,0,,,0
n6903602215,,Gendarmerie Avant le Feu,,5.426524,-4.0208376,,,0,,,0
n6903602216,,Mosquée Blanche,,5.4299853,-4.0238003,,,0,,,0
n6903602217,,Solibra,,5.4330817,-4.0264367,,,0,,,0
n6903602218,,Château,,5.4357519,-4.0290698,,,0,,,0
n6903602219,,Marché de Nuit,,5.4365893,-4.0306363,,,0,,,0
n6903602221,,Nouvelle Gare,,5.4382834,-4.0411411,,,0,,,0
n6903602222,,Agripac Avant le Feu,,5.4448006,-4.0493193,,,0,,,0
n6903602223,,Station Total,,5.4493883,-4.0520966,,,0,,,0
n6903602224,,PK 18 ancien marché,,5.4499639,-4.052542,,,0,,,0
n6903639366,,Attoban camp,,5.370557,-3.9761316,,,0,,,0
n6903639367,,Escalier,,5.3694267,-3.9776678,,,0,,,0
n6903639368,,Pharmacie Saint Bernard,,5.3673899,-3.9794185,,,0,,,0
n6903639369,,Carrefour Garage,,5.3658448,-3.9793174,,,0,,,0
n6903639370,,Polyclinique Sacré-Coeur,,5.365069,-3.9792552,,,0,,,0
n6903639371,,Jules ferry,,5.3642087,-3.9790994,,,0,,,0
n6903639372,,Hôtel Manhatan,,5.362115,-3.9788028,,,0,,,0
n6903639373,,Doraville,,5.3589924,-3.978316,,,0,,,0
n6903639374,,Pharmacie Saint ange,,5.3571667,-3.9780678,,,0,,,0
n6903639375,,André Malraux,,5.356275,-3.9777617,,,0,,,0
n6903639376,,Gare en haut,,5.3505392,-4.0228251,,,0,,,0
n6903968407,,Pharmacie Saint Bernard,,5.3672689,-3.9796695,,,0,,,0
n6903968408,,Carrefour Garage,,5.3655779,-3.9794498,,,0,,,0
n6905326504,,A l'escalier,,5.438006,-4.0384056,,,0,,,0
n6906590693,,1ère Boutique,,5.407352,-4.0063787,,,0,,,0
n6906699463,,1ère Boutique,,5.4074179,-4.0064652,,,0,,,0
n6909707224,,Carrefour École,,5.3254632,-4.1060202,,,0,,,0
n6909812233,,Pharmacie Cité Maroc,,5.3401836,-4.1004172,,,0,,,0
n6909923471,,Sicomex Yopougon,,5.3568101,-4.0739979,,,0,,,0
n6910224910,,Ex Cinéma Kabadougou,,5.3540881,-4.0741881,,,0,,,0
n6910755171,,Carrefour Akadjoba,,5.3237979,-4.0804794,,,0,,,0
n6913857608,,3 Caféiers,,5.3557108,-4.0658826,,,0,,,0
n6926746758,,Ivograin,,5.4155923,-4.0022743,,,0,,,0
n6926746759,,Abobo Baoulé,,5.4156219,-3.9929392,,,0,,,0
n6926746761,,Hôpital Abobo Baoule,,5.4221392,-3.9904576,,,0,,,0
n6926746762,,Arrêt Céleste,,5.4258855,-3.9898404,,,0,,,0
n6934922731,,15e Arrondissement Abobo,,5.4327408,-4.013846,,,0,,,0
n6935251105,,Patisserie SOCOCE,,5.3742722,-3.9904471,,,0,,,0
n6935251107,,Cash Ivoire 2Pltx,,5.364963,-3.9897014,,,0,,,0
n6935251108,,Station Total 2Pltx,,5.3606736,-3.9896753,,,0,,,0
n6938343085,,Agripac,,5.4436702,-4.048408,,,0,,,0
n7051810979,,Carrefour la Vie,,5.3485715,-4.0031956,,,0,,,0
n7051810981,,Terminus Liberté,,5.3528057,-4.0128221,,,0,,,0
n7051810982,,Ecole de Police,,5.3503194,-3.9885668,,,0,,,0
n7051810984,,Mitterand Riviera 2,,5.3530834,-3.9797437,,,0,,,0
n7051811086,,Station Total Riviera 2,,5.3529853,-3.9788968,,,0,,,0
n7051811087,,Vallon,,5.35446,-3.9909077,,,0,,,0
n7051811088,,Escalier,,5.3546991,-4.0043946,,,0,,,0
n7051811090,,Adjamé Liberté,,5.3533605,-4.0146225,,,0,,,0
n7051905145,,Gare Anono,,5.3498521,-4.0228106,,,0,,,0
n7051905146,,Station,,5.3495777,-4.0223607,,,0,,,0
n7051905147,,Banfora,,5.347757,-4.0227932,,,0,,,0
n7051905148,,Saint Michel,,5.3464705,-4.0227107,,,0,,,0
n7051905149,,Eglise Saint Michel,,5.3451372,-4.0226899,,,0,,,0
n7051905150,,Eglise,,5.343631,-4.0234597,,,0,,,0
n7051905151,,SODEFOR,,5.3490415,-3.9993949,,,0,,,0
n7051905152,,Carrefour CHU,,5.3494341,-3.9919236,,,0,,,0
n7051905153,,Carrefour SOTRA,,5.3505471,-3.9869374,,,0,,,0
n7051905154,,Marché Anono,,5.3445878,-3.9724797,,,0,,,0
n7051905155,,Marché,,5.3452895,-3.9744008,,,0,,,0
n7051905157,,Marché Anono,,5.344539,-3.9724441,,,0,,,0
n7051905160,,Au Lavage,,5.3500924,-3.9778259,,,0,,,0
n7051905161,,A la Mosquée,,5.3510311,-3.9809205,,,0,,,0
n7051905162,,Carrefour CHU,,5.349577,-3.9905101,,,0,,,0
n7051905163,,Gare Anono,,5.3497766,-4.0228461,,,0,,,0
n7052162358,,Ecole de Police,,5.3501191,-3.989405,,,0,,,0
n7052162359,,Carrefour Saint Michel,,5.3454176,-4.0226577,,,0,,,0
n7052162360,,A La Caisse,,5.3418391,-4.0216117,,,0,,,0
n7052162361,,Akouédo,,5.3673438,-3.9457347,,,0,,,0
n7052162362,,Playce Palmeraie,,5.3719142,-3.9324155,,,0,,,0
n7052162363,,Nouveau Goudron,,5.3728529,-3.9287925,,,0,,,0
n7052162364,,Feh Kessé,,5.3743603,-3.9122875,,,0,,,0
n7052162365,,CIE,,5.3602229,-3.8981583,,,0,,,0
n7052162366,,Station Texaco,,5.3613609,-3.8947412,,,0,,,0
n7052162367,,Collège Moderne,,5.3575885,-3.8882764,,,0,,,0
n7052162369,,Carrefour Bangui,,5.3573081,-3.8845441,,,0,,,0
n7052162370,,Gare Carrefour Bangui,,5.357718,-3.8843443,,,0,,,0
n7052162371,,Carrefour Bangui,,5.3571933,-3.8844985,,,0,,,0
n7052162372,,Collège Moderne,,5.3574283,-3.887693,,,0,,,0
n7052162373,,Carrefour Faya,,5.3703106,-3.9374359,,,0,,,0
n7052162375,,Gare en haut,,5.350286,-4.0224532,,,0,,,0
n7052340401,,Clinique Fraternité,,5.3493033,-4.0218316,,,0,,,0
n7052340402,,Escalier,,5.3548993,-4.0042631,,,0,,,0
n7052340403,,Vallon-1er Pont,,5.3546376,-3.9904813,,,0,,,0
n7052340404,,Gare en haut,,5.3504162,-4.0227482,,,0,,,0
n7052340405,,M'Pouto,,5.3271876,-3.9542839,,,0,,,0
n7052340406,,M'Pouto,,5.3271989,-3.9543486,,,0,,,0
n7052340407,,A l'Arrêt,,5.3310206,-3.9579682,,,0,,,0
n7052340408,,Banny,,5.3347781,-3.9557567,,,0,,,0
n7052340409,,Maison Blanche,,5.337175,-3.9537035,,,0,,,0
n7052340410,,Mel Théodore,,5.3452694,-3.952691,,,0,,,0
n7052340411,,Carrefour Lycée Français,,5.3508856,-3.9545229,,,0,,,0
n7052340412,,Cap Nord,,5.3564619,-3.9676865,,,0,,,0
n7052340415,,Gare en haut,,5.3503214,-4.0226343,,,0,,,0
n7052366500,,Adjamé Texaco,,5.3543439,-4.0177533,,,0,,,0
n7052366501,,Adjamé Liberté,,5.3535337,-4.0145769,,,0,,,0
n7052366502,,Station Shell,,5.3635577,-4.0255829,,,0,,,0
n7052366503,,Pont Ferrail,,5.3644813,-4.0288018,,,0,,,0
n7052366504,,Institut des aveugles,,5.353767,-4.064189,,,0,,,0
n7052366505,,Complexe,,5.3410046,-4.062227,,,0,,,0
n7052366506,,Carrefour Bicici,,5.3381504,-4.0622612,,,0,,,0
n7052366507,,Nouveau bureau,,5.3372905,-4.0622391,,,0,,,0
n7052366509,,Yopougon Kowëit,,5.3222141,-4.0542723,,,0,,,0
n7052366510,,Yopougon Kowëit,,5.3221811,-4.0547359,,,0,,,0
n7052366511,,Carrefour Gandhi,,5.3243801,-4.0599163,,,0,,,0
n7052366512,,Carrefour sapeur-pompier,,5.3282665,-4.0608839,,,0,,,0
n7052366513,,Carrefour sapeur-pompier,,5.3287312,-4.0610944,,,0,,,0
n7052366514,,Pharmacie Garage,,5.3328513,-4.0623853,,,0,,,0
n7052366515,,Brésil,,5.3352972,-4.0623149,,,0,,,0
n7052366516,,5 étoiles,,5.336739,-4.0623618,,,0,,,0
n7052366517,,Coup d'oeil,,5.3389242,-4.0623685,,,0,,,0
n7052366518,,Boulagerie T7 Blé,,5.3402714,-4.0623437,,,0,,,0
n7052366519,,Complexe,,5.341289,-4.0623383,,,0,,,0
n7052366520,,Menuiserie,,5.3437319,-4.063367,,,0,,,0
n7052366521,,Centre Commercial,,5.3451185,-4.0634467,,,0,,,0
n7052366522,,Bel Air,,5.3473378,-4.0634152,,,0,,,0
n7052366523,,Institut des aveugles,,5.3524365,-4.0636855,,,0,,,0
n7052366525,,Adjamé Texaco,,5.3545094,-4.0179776,,,0,,,0
n7052994961,,9 Kilo,,5.3575504,-3.9655883,,,0,,,0
n7052994962,,Chez Momo,,5.3538255,-3.9553626,,,0,,,0
n7052994963,,Gare en haut,,5.3504159,-4.0228876,,,0,,,0
n7052994964,,Akouédo,,5.3484459,-3.9409986,,,0,,,0
n7052994965,,Residence Axa,,5.3514052,-3.9420924,,,0,,,0
n7052994966,,Pharmacie,,5.3536652,-3.9409302,,,0,,,0
n7052994967,,Marché,,5.3555925,-3.9407426,,,0,,,0
n7052994968,,Carrefour Village,,5.3603993,-3.9399876,,,0,,,0
n7052994969,,Garage,,5.3594329,-3.9413817,,,0,,,0
n7052994970,,Ancien Camp Akouedo,,5.3574386,-3.9463048,,,0,,,0
n7052994971,,Rond Point,,5.3584115,-3.9500902,,,0,,,0
n7052994973,,Gare en haut,,5.3505274,-4.0229766,,,0,,,0
n7054593049,,Grand Carrefour de Treichville,,5.2987194,-4.0014656,,,0,,,0
n7054593050,,Feux Collège Autoroute,,5.2998985,-3.9982536,,,0,,,0
n7054593051,,Solibra,,5.3004494,-3.9967114,,,0,,,0
n7054593052,,Grand Carrefour de Marcory,,5.3006443,-3.9893769,,,0,,,0
n7054593053,,Cap Sud,,5.2985331,-3.9856721,,,0,,,0
n7054593054,,Echangeur Marcory,,5.2957328,-3.9806651,,,0,,,0
n7054593055,,Hotel Ibis Marcory,,5.2915518,-3.9731053,,,0,,,0
n7054593056,,Grand Carrefour de Koumassi,,5.2863103,-3.9700744,,,0,,,0
n7054593057,,Camp commando de Koumassi,,5.2821639,-3.9691208,,,0,,,0
n7054593058,,Ancien Koumassi,,5.2760791,-3.9660276,,,0,,,0
n7054593059,,Carrefour Mosquée,,5.2593053,-3.958447,,,0,,,0
n7054593060,,43ème Bima,,5.2565175,-3.9573392,,,0,,,0
n7054593061,,Port-Bouët Phare,,5.2511455,-3.9553222,,,0,,,0
n7054593062,,Carrefour Aéroport,,5.2470683,-3.9447315,,,0,,,0
n7054593063,,Mosquée Sylla,,5.2418205,-3.9118691,,,0,,,0
n7054593064,,Casier,,5.242513,-3.9161177,,,0,,,0
n7054593065,,Jean folly,,5.2412776,-3.9084828,,,0,,,0
n7054593066,,Corridor,,5.239452,-3.8968273,,,0,,,0
n7054593068,,Corridor,,5.239249,-3.8965698,,,0,,,0
n7054593069,,Terre rouge,,5.2397004,-3.8998461,,,0,,,0
n7054593070,,Mosquée Sylla,,5.2416175,-3.9120106,,,0,,,0
n7054593071,,Casier,,5.2423247,-3.9165281,,,0,,,0
n7054593072,,Carrefour Aéroport - Après le pont,,5.246864,-3.9446484,,,0,,,0
n7054593073,,Akwaba - Rond-Point,,5.2667851,-3.9614162,,,0,,,0
n7054593074,,Akwaba - Station Total,,5.2690216,-3.9621313,,,0,,,0
n7054593075,,Grand Carrefour de Koumassi - Après le feu,,5.2862983,-3.9702836,,,0,,,0
n7054593076,,Grand Carrefour de Koumassi - Avant le feu,,5.2888222,-3.9709514,,,0,,,0
n7054593077,,Grand Carrefour de Marcory,,5.2999966,-3.9887989,,,0,,,0
n7054593081,,Gare de Bassam,,5.2994752,-4.0026612,,,0,,,0
n7054787049,,Siporex après le feu,,5.3547164,-4.0741669,,,0,,,0
n7054787050,,Yopougon Palais,,5.3275194,-4.0768819,,,0,,,0
n7054787051,,Kouté Terminus 40,,5.330849,-4.074128,,,0,,,0
n7054787052,,Saguidiba,,5.3324467,-4.073444,,,0,,,0
n7054787053,,L'antenne,,5.3334922,-4.0734789,,,0,,,0
n7054787054,,[Arrêt],,5.335172,-4.073448,,,0,,,0
n7054787055,,16ème,,5.3377208,-4.0733823,,,0,,,0
n7054787056,,Score,,5.3404604,-4.0734051,,,0,,,0
n7054787057,,Saint André,,5.3431871,-4.0734266,,,0,,,0
n7054787058,,Keneya après le feu,,5.3461828,-4.0734024,,,0,,,0
n7054787059,,Keneya,,5.3468143,-4.0733783,,,0,,,0
n7054787060,,La Poste,,5.3522047,-4.0739724,,,0,,,0
n7054787061,,Siporex,,5.3568288,-4.0741628,,,0,,,0
n7054787062,,Pont piéton,,5.3601442,-4.0731409,,,0,,,0
n7054787063,,Premier pont,,5.3609066,-4.0672085,,,0,,,0
n7054787064,,Pont Ferrail,,5.3642968,-4.0306333,,,0,,,0
n7054787065,,Mirador,,5.3570214,-4.0257033,,,0,,,0
n7054787067,,Renault,,5.3567139,-4.0243931,,,0,,,0
n7054787069,,Renault,,5.3566011,-4.0244374,,,0,,,0
n7054787070,,Ran,,5.3573903,-4.0275842,,,0,,,0
n7054787071,,En bas du pont,,5.3607397,-4.028218,,,0,,,0
n7054787072,,Wangler,,5.3627158,-4.0292184,,,0,,,0
n7054787073,,Siporex après le feu,,5.3561658,-4.0740167,,,0,,,0
n7054787074,,Siporex au feux,,5.3553927,-4.0740153,,,0,,,0
n7054787075,,Siporex,,5.3547952,-4.0740033,,,0,,,0
n7054787076,,Saint André,,5.3433827,-4.0732482,,,0,,,0
n7054787077,,Foyer des Jeunes,,5.3342854,-4.07333,,,0,,,0
n7054787078,,Saguidiba,,5.3320274,-4.0733314,,,0,,,0
n7054787079,,Kouté Terminus 40,,5.3307989,-4.0740274,,,0,,,0
n7054787080,,Yopougon Palais,,5.327506,-4.0767995,,,0,,,0
n7054917910,,Terminus 27 Niangon Sud à Gauche,,5.3161184,-4.0900737,,,0,,,0
n7054917911,,Collège Gloris,,5.3173936,-4.0886039,,,0,,,0
n7054917912,,Carrefour Depôt,,5.3200176,-4.0887192,,,0,,,0
n7054917913,,Carrefour Timotel,,5.3211459,-4.0882632,,,0,,,0
n7054917914,,Akadjoba,,5.3244175,-4.080462,,,0,,,0
n7054917915,,Cosmos Yopougon,,5.3487652,-4.0734239,,,0,,,0
n7054917916,,Gabriel Gare,,5.3558587,-4.0715101,,,0,,,0
n7054917917,,Sable,,5.3560583,-4.0670134,,,0,,,0
n7054917918,,Premier pont,,5.3603942,-4.0669081,,,0,,,0
n7054917919,,Adjamé Renault,,5.3558654,-4.020917,,,0,,,0
n7054917922,,Ficgayo,,5.3501558,-4.0732348,,,0,,,0
n7054917923,,Keneya,,5.3464872,-4.0732536,,,0,,,0
n7054917924,,Lavage,,5.3402595,-4.0732616,,,0,,,0
n7054917925,,Carrefour Timotel,,5.3210711,-4.0881318,,,0,,,0
n7054917926,,Niangon Sud à Gauche,,5.3163785,-4.0891969,,,0,,,0
n7054999100,,Ibis Marcory,,5.2922114,-3.9740923,,,0,,,0
n7054999103,,SICOMEX Marcory,,5.2924331,-3.9752094,,,0,,,0
n7054999104,,Echangeur Marcory,,5.296287,-3.9820196,,,0,,,0
n7054999105,,Siège de Orange Côte d'Ivoire,,5.2978587,-3.9849244,,,0,,,0
n7054999106,,Cap Sud,,5.2993537,-3.9875966,,,0,,,0
n7054999108,,Adjamé Liberté,,5.3527876,-4.0145963,,,0,,,0
n7055147054,,Pont piéton,,5.359793,-4.0716402,,,0,,,0
n7055147055,,L'antenne,,5.3334014,-4.0732871,,,0,,,0
n7055147056,,Carrefour Express,,5.3294603,-4.0754168,,,0,,,0
n7055147057,,Yopougon Palais,,5.3261567,-4.0771924,,,0,,,0
n7055147058,,Ficgayo,,5.3509336,-4.0734722,,,0,,,0
n7055147059,,Siporex,,5.3557716,-4.0735272,,,0,,,0
n7055147060,,En bas du pont,,5.3604967,-4.0276406,,,0,,,0
n7055147061,,Adjamé Texaco,,5.3540868,-4.0177184,,,0,,,0
n7055596701,,Pont piéton,,5.3615141,-4.0227282,,,0,,,0
n7055596703,,Bel Air,,5.346558,-4.0632784,,,0,,,0
n7055596704,,Carrefour sapeur-pompier,,5.3283313,-4.0608108,,,0,,,0
n7055596705,,Carrefour Gandhi,,5.3241945,-4.0597688,,,0,,,0
n7055596706,,Yopougon camp militaire,,5.3197051,-4.0616222,,,0,,,0
n7055596707,,Yopougon camp militaire,,5.3196904,-4.0617268,,,0,,,0
n7055596709,,Église catholique Sainte Marie Madeleine,,5.3210872,-4.0622967,,,0,,,0
n7055596711,,Carrefour sapeur-pompier,,5.3289148,-4.0606928,,,0,,,0
n7055596712,,Centre de santé B.A.E,,5.3305786,-4.0568438,,,0,,,0
n7055596713,,La Poste,,5.3342053,-4.0550801,,,0,,,0
n7055596714,,Carrefour Lama Fofana,,5.337685,-4.0551138,,,0,,,0
n7055596715,,Carrefour Marché,,5.3397387,-4.0576699,,,0,,,0
n7055596716,,Pharmacie les Béatitudes,,5.3404714,-4.0586778,,,0,,,0
n7055596717,,Hôtel,,5.341791,-4.0548255,,,0,,,0
n7055596718,,Sibeco,,5.3415507,-4.0463094,,,0,,,0
n7055596719,,1er Terrain,,5.3527389,-4.0456362,,,0,,,0
n7055596720,,Adjamé Texaco,,5.3545669,-4.0181838,,,0,,,0
n7055696176,,Carrefour Académie,,5.3242799,-4.1065625,,,0,,,0
n7055696177,,Carrefour Super marché,,5.3269826,-4.1054173,,,0,,,0
n7055696178,,Lubafrique,,5.3297734,-4.103749,,,0,,,0
n7055696179,,Ancien terminus,,5.3286184,-4.1009715,,,0,,,0
n7055696180,,Carrefour Marché,,5.327928,-4.0983658,,,0,,,0
n7055696181,,Église Sainte-Rita,,5.3276115,-4.0966304,,,0,,,0
n7055696182,,Carrefour Texaco - Saguidiba,,5.3268395,-4.0918225,,,0,,,0
n7055696183,,Pharmacie Roxanne,,5.3391843,-4.0892468,,,0,,,0
n7055696184,,Carrefour Niangon,,5.3469185,-4.0892637,,,0,,,0
n7055717185,,Carrefour B.A.E,,5.3619681,-4.084437,,,0,,,0
n7055717187,,Gesco BATIM,,5.3648682,-4.0956353,,,0,,,0
n7055717188,,Boulagerie,,5.3626751,-4.0988465,,,0,,,0
n7055717189,,Boutique,,5.361169,-4.1001937,,,0,,,0
n7055717190,,Rond-point de Gesco,,5.3591257,-4.1010679,,,0,,,0
n7055717191,,Pharmacie Alicia,,5.3514577,-4.1039213,,,0,,,0
n7055717192,,Carrefour Sorbonne,,5.3509036,-4.0993904,,,0,,,0
n7055717193,,Carrefour petit canari,,5.3436885,-4.1003834,,,0,,,0
n7055717194,,Carrefour Anador,,5.3356127,-4.1014852,,,0,,,0
n7055717195,,Lubafrique,,5.3300979,-4.1040306,,,0,,,0
n7055717196,,Carrefour Académie,,5.3239214,-4.1066156,,,0,,,0
n7056143583,,Petro Ivoire 7è Tranche,,5.3809122,-3.9878869,,,0,,,0
n7056143584,,Complexe Sportif Angré,,5.3977447,-3.9858967,,,0,,,0
n7056198867,,Jules ferry,,5.3643355,-3.9792247,,,0,,,0
n7056198868,,Attoban camp,,5.370611,-3.9761945,,,0,,,0
n7056198869,,Ong Joie de vivre,,5.3667376,-3.9794621,,,0,,,0
n7056202785,,Rue Lamine,,5.3954656,-3.9861703,,,0,,,0
n7056202786,,Côte d'Ivoire Télécom,,5.3879726,-3.9870822,,,0,,,0
n7056202787,,Commisariat 30è Art.,,5.3740465,-3.9846173,,,0,,,0
n7056202789,,Riviera 2,,5.353759,-3.9778085,,,0,,,0
n7056202790,,Clinique Médicale Sainte-Philomène,,5.3569076,-3.9789565,,,0,,,0
n7056202791,,Hôtel Manhatan,,5.361908,-3.9788693,,,0,,,0
n7056202792,,Église Saint Bernard,,5.3693426,-3.9806268,,,0,,,0
n7056202793,,Commisariat 30è Art.,,5.3735592,-3.9843625,,,0,,,0
n7056202794,,Côte d'Ivoire Télécom,,5.3876602,-3.9872687,,,0,,,0
n7056202795,,Rue Lamine,,5.3953414,-3.9863406,,,0,,,0
n7056202797,,Termunis 81/82,,5.4028717,-3.9853992,,,0,,,0
n7056202798,,Terminus 705 Angré,,5.4032849,-3.9852449,,,0,,,0
n7056202800,,Riviera 2,,5.3538358,-3.9777998,,,0,,,0
n7056217830,,Riviera 2,,5.3538378,-3.9775175,,,0,,,0
n7056217831,,Angré 22ème,,5.3980238,-3.9905188,,,0,,,0
n7056217832,,Angré 22ème,,5.3980298,-3.9905684,,,0,,,0
n7056217834,,Carrefour Bluethooth,,5.3941384,-3.98635,,,0,,,0
n7056274249,,Gabriel Gare,,5.3563174,-4.0717421,,,0,,,0
n7056274250,,Sicomex,,5.3577741,-4.0741675,,,0,,,0
n7056274251,,Micao,,5.3826599,-4.0947756,,,0,,,0
n7056274253,,Micao,,5.3826332,-4.0946871,,,0,,,0
n7056274254,,Pharmacie Micao,,5.3810256,-4.0955186,,,0,,,0
n7056274255,,Carrefour Gargill,,5.3768899,-4.0946435,,,0,,,0
n7056274256,,Gabriel Gare,,5.3562386,-4.0717945,,,0,,,0
n7056277272,,Gare de Bassam,,5.2981499,-4.0031198,,,0,,,0
n7056277274,,Gare bateau-bus,,5.3089927,-4.0169063,,,0,,,0
n7056277275,,Gare bateau-bus,,5.3091966,-4.0166887,,,0,,,0
n7056277277,,Gare de Bassam,,5.2983743,-4.0029929,,,0,,,0
n7056562832,,Garage en Haut,,5.3653423,-4.0295215,,,0,,,0
n7056562833,,Cissé 1er,,5.3811191,-4.0237091,,,0,,,0
n7056562834,,Lavage,,5.3844945,-4.0218383,,,0,,,0
n7056562835,,Express,,5.3999911,-4.0204348,,,0,,,0
n7056562836,,Plaque Anador,,5.4068598,-4.0166858,,,0,,,0
n7056562837,,Anador,,5.4090694,-4.0162446,,,0,,,0
n7056562838,,Abobo Gare,,5.4211603,-4.0182616,,,0,,,0
n7056562841,,Abobo Gare Mairie,,5.4197117,-4.0175159,,,0,,,0
n7056562842,,Anador,,5.4093979,-4.0160079,,,0,,,0
n7056562843,,Garage Machine,,5.4017782,-4.0193063,,,0,,,0
n7056562844,,Cissé 2ème,,5.3811124,-4.023445,,,0,,,0
n7056562845,,Guinness,,5.3693433,-4.0291976,,,0,,,0
n7056730266,,Carrefour Lokoa,,5.3192337,-4.0997437,,,0,,,0
n7056730267,,Carrefour Jatak,,5.321877,-4.1035451,,,0,,,0
n7056730268,,Carrefour Internat,,5.3228151,-4.1049439,,,0,,,0
n7056730270,,Pharmacie Niangon Nord,,5.329073,-4.1024722,,,0,,,0
n7056730272,,Poubelle,,5.3355058,-4.0859498,,,0,,,0
n7056730273,,Marché Sicogi,,5.3396813,-4.0792899,,,0,,,0
n7056730275,,Ecole William Ponty,,5.3447246,-4.0724006,,,0,,,0
n7056730276,,Pharmacie Wassakara,,5.3466955,-4.068439,,,0,,,0
n7056730277,,Paharmacie Agban,,5.3587519,-4.0301589,,,0,,,0
n7056730278,,Brigade d'Adjamé,,5.3573188,-4.0261245,,,0,,,0
n7056730279,,Keneya,,5.3467743,-4.0732878,,,0,,,0
n7056730280,,Au Score,,5.3395304,-4.0751439,,,0,,,0
n7056730281,,Marche de Sicogi,,5.3395324,-4.0778583,,,0,,,0
n7056730282,,Carrefour Internat,,5.3229132,-4.1049284,,,0,,,0
n7056730283,,Carrefour Lokoa,,5.3192899,-4.0997248,,,0,,,0
n7057184297,,Pont Lycée Technique,,5.347978,-4.0096691,,,0,,,0
n7057184298,,Cap Nord,,5.3567647,-3.9674538,,,0,,,0
n7057184299,,9 Kilo,,5.3584671,-3.9639542,,,0,,,0
n7057184300,,Warren,,5.3597316,-3.9618024,,,0,,,0
n7057184301,,Carrefour Faya,,5.3702292,-3.9385383,,,0,,,0
n7057184302,,Nouveau Goudron,,5.3726259,-3.9295623,,,0,,,0
n7057184303,,Jules Verne,,5.3742081,-3.9234073,,,0,,,0
n7057184304,,Kessé,,5.3739865,-3.9117752,,,0,,,0
n7057184305,,Coup de Frein,,5.3716031,-3.9107318,,,0,,,0
n7057184306,,Adaman,,5.3692678,-3.9099567,,,0,,,0
n7057184307,,Gare Bingerville,,5.3581139,-3.8843697,,,0,,,0
n7057184308,,Gare Bingerville,,5.3581563,-3.8844157,,,0,,,0
n7057184309,,Lycée Garçon de Bingerville,,5.35769,-3.8911718,,,0,,,0
n7057184310,,Station Texaco,,5.3612451,-3.8944883,,,0,,,0
n7057184311,,CIE,,5.3601282,-3.8980879,,,0,,,0
n7057184312,,Coup de Frein,,5.3715337,-3.9108606,,,0,,,0
n7057184313,,Feh Kessé,,5.3742268,-3.9124618,,,0,,,0
n7057184314,,Panneau Orange,,5.3743256,-3.9214982,,,0,,,0
n7057184315,,Jules Verne,,5.3740305,-3.9232584,,,0,,,0
n7057184316,,Nouveau Goudron,,5.3724022,-3.9296582,,,0,,,0
n7057184317,,Chantier,,5.3717513,-3.9321224,,,0,,,0
n7057184318,,Carrefour Faya,,5.3699835,-3.9387314,,,0,,,0
n7057184319,,Après barrage,,5.3614581,-3.9585087,,,0,,,0
n7057184320,,Adjamé Liberté Gare de Bingerville,,5.3536652,-4.0117645,,,0,,,0
n7057276357,,En bas du pont,,5.3602513,-4.0284221,,,0,,,0
n7057276359,,Gare Gesco,,5.3672735,-4.1022643,,,0,,,0
n7057276360,,Adjamé Agban,,5.3589064,-4.029457,,,0,,,0
n7057912884,,Gare Gesco,,5.3672679,-4.102291,,,0,,,0
n7057928785,,Grand Carrefour,,5.3659041,-4.097619,,,0,,,0
n7057928786,,Marché,,5.3637686,-4.0972832,,,0,,,0
n7057928788,,2ème,,5.3586789,-4.0997664,,,0,,,0
n7057928789,,Cité Mamie Adjoua,,5.3576374,-4.093125,,,0,,,0
n7057928790,,Station Shell du CHU,,5.3560909,-4.0911866,,,0,,,0
n7057928791,,Carrefour CHU,,5.355257,-4.0893689,,,0,,,0
n7057928792,,Carrefour Zone,,5.3553702,-4.0845871,,,0,,,0
n7057928793,,Carrefour Marché Siporex,,5.3555545,-4.0790175,,,0,,,0
n7057928794,,Marché Siporex,,5.3556706,-4.0761345,,,0,,,0
n7057928795,,Auto Ecole,,5.3559647,-4.0684835,,,0,,,0
n7057928796,,Au Feu du Sable,,5.3566367,-4.0657128,,,0,,,0
n7057928797,,Garage Massa,,5.357507,-4.0526099,,,0,,,0
n7058023894,,"Gare de Woro Woro, Deux Plateau - Vallon",,5.3786237,-4.0062581,,,0,,,0
n7058023895,,Sococé Vallon,,5.3750146,-3.9904665,,,0,,,0
n7058023898,,Cash Center Vallon,,5.3644019,-3.9897725,,,0,,,0
n7058023899,,Carrefour Duncan,,5.378199,-3.9979144,,,0,,,0
n7058023900,,"Gare de Woro Woro, Deux Plateau - Vallon",,5.3781977,-4.0062734,,,0,,,0
n7058050530,,SOCOCE 2 Pltx,,5.3735899,-3.9985393,,,0,,,0
n7058050532,,"Gare de Woro Woro, Deux Plateau - Vallon",,5.37797,-4.0061165,,,0,,,0
n7058185549,,Azur Mobile,,5.4000018,-4.0061853,,,0,,,0
n7058185550,,Petro Ivoire Angré,,5.4041573,-3.9908917,,,0,,,0
n7058185551,,Carrefour Notre Dame Angré,,5.4041442,-3.987793,,,0,,,0
n7058185552,,Marché COCOVICO,,5.4030314,-3.9789792,,,0,,,0
n7058185553,,CHU Angré,,5.3998841,-3.9564684,,,0,,,0
n7058185554,,Cité Wedouwel,,5.4006928,-3.9735586,,,0,,,0
n7058185555,,BICICI Djibi,,5.402907,-3.9781993,,,0,,,0
n7058185556,,Marché COCOVICO,,5.4029561,-3.9789967,,,0,,,0
n7058185557,,Terminus 81/82,,5.4037764,-3.9853318,,,0,,,0
n7058185559,,Azur Mobile,,5.3999255,-4.0063248,,,0,,,0
n7058225058,,Azur 2,,5.3999811,-4.003952,,,0,,,0
n7058225059,,Geo-Beton,,5.3998756,-3.9992702,,,0,,,0
n7058225060,,22ème,,5.3984871,-3.9917627,,,0,,,0
n7058225061,,Terminus 81/82,,5.4039118,-3.9859705,,,0,,,0
n7058225062,,Terminus 81/82,,5.4037866,-3.9848982,,,0,,,0
n7058225063,,CNPS en Haut- Boulangerie Mary's,,5.3789427,-3.9717246,,,0,,,0
n7058225064,,CNPS en Haut-Mary's,,5.3789741,-3.9717749,,,0,,,0
n7058225066,,Cash Center 8ème Tranche,,5.3860526,-3.9744048,,,0,,,0
n7058225067,,Temple El Bethel,,5.3934562,-3.9764325,,,0,,,0
n7058225068,,king Deco,,5.3966352,-3.9772882,,,0,,,0
n7058225069,,Complexe Sportif Angré,,5.3977521,-3.9870594,,,0,,,0
n7058310539,,Adjamé Liberté,,5.3547411,-4.0162553,,,0,,,0
n7058310540,,Adjamé Mairie-Dallas,,5.3411122,-4.0256925,,,0,,,0
n7058310541,,Adjamé Mairie-Dallas,,5.3414766,-4.0256196,,,0,,,0
n7058310543,,Adjamé Liberté,,5.3540087,-4.0166228,,,0,,,0
n7058499892,,Azur Mobile,,5.3999884,-4.0059187,,,0,,,0
n7058499893,,Marché,,5.4000185,-4.0054393,,,0,,,0
n7058499894,,Mahou,,5.3996113,-3.99739,,,0,,,0
n7058499895,,Angré Château,,5.4146182,-3.9783463,,,0,,,0
n7058499896,,Angré Château Fin Goudron,,5.4147717,-3.9779788,,,0,,,0
n7058499897,,Fin goudron-Angré Château,,5.4124193,-3.9814241,,,0,,,0
n7058499898,,Star 6,,5.4075881,-3.988534,,,0,,,0
n7058499899,,Azur Mobile,,5.3999287,-4.0061886,,,0,,,0
n7060277170,,Warren Palmeraie,,5.3603471,-3.9618668,,,0,,,0
n7060277171,,Pharmacie Rosiers,,5.380575,-3.9643954,,,0,,,0
n7060277172,,Termunis des Rosiers,,5.3808721,-3.9646855,,,0,,,0
n7060277173,,Termunis des Rosiers,,5.3812913,-3.9647388,,,0,,,0
n7060277174,,Ivoire Center,,5.3738329,-3.9617602,,,0,,,0
n7060277175,,Pharmacie Saint-Paul,,5.3715597,-3.9648145,,,0,,,0
n7060277177,,Warren Palmeraie,,5.3603634,-3.9618018,,,0,,,0
n7060486566,,Après barrage,,5.3622726,-3.959375,,,0,,,0
n7060486567,,Station,,5.362842,-3.9595487,,,0,,,0
n7060486568,,Foursquare,,5.3659533,-3.9604227,,,0,,,0
n7060486569,,King Cash,,5.3667122,-3.9603172,,,0,,,0
n7060486570,,Chez Miss Zahui,,5.3695475,-3.9602964,,,0,,,0
n7060486571,,Carrefour Saint Viateur,,5.3833115,-3.9563294,,,0,,,0
n7060486572,,Palmeraie SIPIM 4,,5.3849164,-3.9533937,,,0,,,0
n7060486573,,Palmeraie SIPIM 4,,5.384859,-3.9533441,,,0,,,0
n7060486574,,Carrefour Saint Viateur,,5.3835051,-3.9558144,,,0,,,0
n7060486576,,Warren Palmeraie,,5.3609493,-3.961907,,,0,,,0
n7066056999,,Abobo Gare,,5.4208804,-4.0184881,,,0,,,0
n7066057000,,A l'Arrêt,,5.4242953,-4.0192654,,,0,,,0
n7066057001,,A la Pompe,,5.4374636,-4.0342335,,,0,,,0
n7066057003,,Carrefour N'dotré,,5.4433257,-4.0691039,,,0,,,0
n7066057005,,Carrefour N'dotré,,5.443419,-4.0692913,,,0,,,0
n7066057006,,Blé d'Oré,,5.4434682,-4.0678744,,,0,,,0
n7066057007,,Céleste,,5.4435515,-4.0653184,,,0,,,0
n7066057008,,Plaque Rouge,,5.4436197,-4.0636905,,,0,,,0
n7066057009,,Carrefour Diallo,,5.4437241,-4.0598745,,,0,,,0
n7066057010,,Saphirs,,5.443826,-4.0555298,,,0,,,0
n7066057012,,Abobo Gare,,5.4217468,-4.0180128,,,0,,,0
n7066086746,,SODECI,,5.3969777,-3.9915461,,,0,,,0
n7066086747,,SOCOCE 2 Plateaux,,5.3718141,-3.9982422,,,0,,,0
n7066086748,,La vie,,5.3480868,-4.0024044,,,0,,,0
n7066086749,,Écoles des Architectes,,5.3470961,-4.0025103,,,0,,,0
n7066086751,,Mairie de Cocody,,5.3334295,-4.0041921,,,0,,,0
n7066086752,,Lycée Classique d'Abidjan,,5.3329481,-4.0044522,,,0,,,0
n7066086753,,Carrefour Mermoz,,5.339732,-4.0036603,,,0,,,0
n7066086754,,RTI,,5.3418979,-4.0033861,,,0,,,0
n7066086755,,BMW,,5.3582735,-4.0011296,,,0,,,0
n7066239480,,Carrefour Duncan,,5.3783072,-3.9978513,,,0,,,0
n7066239481,,Aghien sinsou,,5.3844504,-3.9860141,,,0,,,0
n7066239483,,Termunis Aghien,,5.3836643,-3.9823508,,,0,,,0
n7066239484,,Aghien sinsou,,5.3842341,-3.9851202,,,0,,,0
n7066277285,,Termunis Aghien,,5.38365,-3.9824129,,,0,,,0
n7066312406,,Abobo Gendarmerie,,5.4267083,-4.0211061,,,0,,,0
n7066312407,,Au Feu,,5.4383201,-4.0400586,,,0,,,0
n7066312408,,Agripac,,5.443984,-4.049303,,,0,,,0
n7066312409,,Céleste,,5.4434869,-4.0653548,,,0,,,0
n7066312410,,Carrefour Diallo,,5.443623,-4.0600615,,,0,,,0
n7066312411,,Blé d'Oré,,5.4433989,-4.067652,,,0,,,0
n7066312412,,Carrefou N'dotré,,5.4425174,-4.0693468,,,0,,,0
n7066312413,,Lavage,,5.4394855,-4.0686564,,,0,,,0
n7066312414,,Garage,,5.437834,-4.0683965,,,0,,,0
n7066312415,,2ème Porte,,5.4321703,-4.0686605,,,0,,,0
n7066312416,,Première Porte,,5.4305892,-4.0690669,,,0,,,0
n7066312418,,Carrefour Zone,,5.3695122,-4.0801289,,,0,,,0
n7066312420,,Carrefour Zone,,5.3695567,-4.0803618,,,0,,,0
n7066312421,,Premier,,5.3745151,-4.0777685,,,0,,,0
n7066312422,,Prison Civile,,5.3889235,-4.0783838,,,0,,,0
n7066312423,,Barrage,,5.3926346,-4.0804343,,,0,,,0
n7066312424,,Cité Ado,,5.4005297,-4.0843471,,,0,,,0
n7066312425,,Garage,,5.4287382,-4.0697767,,,0,,,0
n7066312426,,Sotrapim,,5.4325555,-4.0686597,,,0,,,0
n7066312427,,Abobo Gendarmerie,,5.427181,-4.0211289,,,0,,,0
n7066654372,,Carrefour Zoo,,5.3792124,-4.0022273,,,0,,,0
n7066654373,,Carrefour Sainte Cécile,,5.3771676,-3.9931682,,,0,,,0
n7066654374,,Carrefour Sainte Cécile,,5.3771769,-3.992562,,,0,,,0
n7066654375,,Pharmacie Arc-en-ciel,,5.3723568,-3.9903539,,,0,,,0
n7066654376,,Pharmacie Saint Bernard,,5.3673458,-3.9796103,,,0,,,0
n7066654377,,Pharmacie Saint Bernard,,5.3673715,-3.9796985,,,0,,,0
n7066654378,,Carrefour Vallon,,5.3770962,-3.9932553,,,0,,,0
n7066654379,,Carrefour Gadji,,5.3789855,-3.9997047,,,0,,,0
n7068199654,,Carrefour CHU,,5.3492659,-3.9919008,,,0,,,0
n7071584250,,Yopougon IGES,,5.3190808,-4.0803581,,,0,,,0
n7071584251,,Cabine Bleue,,5.3291632,-4.0758406,,,0,,,0
n7071584252,,Dialogue,,5.345451,-4.0734266,,,0,,,0
n7071584253,,Kabadougou,,5.3529499,-4.0742031,,,0,,,0
n7071584254,,Motar,,5.3598,-4.0678546,,,0,,,0
n7071584255,,Brigade d'Adjamé,,5.3572334,-4.0262935,,,0,,,0
n7071584256,,Sicomex,,5.3574483,-4.0739858,,,0,,,0
n7071584257,,Kabadougou,,5.3529459,-4.0739939,,,0,,,0
n7071584258,,La Poste,,5.3521848,-4.0737994,,,0,,,0
n7071584259,,Dialogue,,5.3454484,-4.0732348,,,0,,,0
n7071584260,,William-Ponty,,5.3438661,-4.0732549,,,0,,,0
n7071584261,,Saint André,,5.3424867,-4.0732643,,,0,,,0
n7071584262,,Ancien Lavage,,5.341062,-4.0732509,,,0,,,0
n7071584263,,16ème,,5.3380482,-4.0732938,,,0,,,0
n7071584264,,Yopougon IGES,,5.3190728,-4.0802675,,,0,,,0
n7076835390,,Niangon Sud à Gauche,,5.3166085,-4.0889874,,,0,,,0
n7076835391,,Église des Assemblés de Dieu de Niangon-Sud,,5.3228805,-4.0877382,,,0,,,0
n7076835392,,Marché,,5.32477,-4.0792564,,,0,,,0
n7076835393,,Saint André,,5.3415894,-4.0734105,,,0,,,0
n7076835394,,Adjamé Nouvelle Gare,,5.3591428,-4.0290092,,,0,,,0
n7076835395,,Adjamé Nouvelle Gare,,5.3593604,-4.028861,,,0,,,0
n7076835397,,Cosmos Yopougon,,5.348406,-4.0732683,,,0,,,0
n7076835398,,Carrefour Texaco - Saguidiba,,5.326606,-4.0917099,,,0,,,0
n7076835399,,Centre Social,,5.315878,-4.0949781,,,0,,,0
n7076873473,,Lavage,,5.3558069,-4.0161093,,,0,,,0
n7076873474,,Église Évangélique la Victoire Gesco,,5.3653489,-4.0934305,,,0,,,0
n7076873475,,Carrefour Ananeraie,,5.3551016,-4.1025641,,,0,,,0
n7076873476,,Resto Glacier Boulangerie,,5.3530385,-4.1033049,,,0,,,0
n7076873477,,2ème,,5.3449316,-4.1071916,,,0,,,0
n7076873478,,Yopougon marché Bagnon,,5.3404104,-4.1097672,,,0,,,0
n7076873479,,Boutique,,5.361685,-4.0998886,,,0,,,0
n7076873480,,2ème,,5.3442292,-4.1077065,,,0,,,0
n7076873481,,Moayé,,5.3423766,-4.1087124,,,0,,,0
n7076873482,,Yopougon marché Bagnon,,5.3404397,-4.1098228,,,0,,,0
n7076873484,,Centre de Santé Médecine Prophétique,,5.3480615,-4.1055688,,,0,,,0
n7076942285,,Centre médical Les archanges,,5.3534032,-4.1033024,,,0,,,0
n7076942286,,Rond-point de Gesco,,5.359287,-4.1011097,,,0,,,0
n7076942287,,A l'étage,,5.3632459,-4.0981807,,,0,,,0
n7076942288,,Gesco BATIM,,5.3645037,-4.0963393,,,0,,,0
n7076942289,,Fourrière,,5.3668524,-4.0971507,,,0,,,0
n7076942290,,En bas du Pont,,5.3634943,-4.0823543,,,0,,,0
n7076942291,,Station OLA,,5.362424,-4.0803753,,,0,,,0
n7076942292,,Gare Kobenan Agban,,5.3618166,-4.0175125,,,0,,,0
n7077860787,,BC (Belle Cité),,5.4421097,-4.0207091,,,0,,,0
n7077860789,,Station,,5.4399903,-4.0204509,,,0,,,0
n7077860790,,Carrefour Commissaire,,5.4376433,-4.01246,,,0,,,0
n7077860791,,JAUG,,5.4349504,-4.0123668,,,0,,,0
n7077860792,,Célibataire,,5.4333677,-4.0123426,,,0,,,0
n7077860793,,Pharmacie la Mé,,5.4230761,-4.0186451,,,0,,,0
n7077860796,,Adjamé Nouvelle Gare,,5.3601659,-4.0287991,,,0,,,0
n7077860797,,Adjamé Nouvelle Gare,,5.3599225,-4.0286243,,,0,,,0
n7077860798,,Après le Pont,,5.3636722,-4.0293138,,,0,,,0
n7077860799,,Macaci,,5.3772737,-4.0259609,,,0,,,0
n7077860800,,BC (Belle Cité),,5.4422706,-4.0206327,,,0,,,0
n7077917683,,Etage Noir,,5.4155715,-4.0000655,,,0,,,0
n7077917684,,À l'École,,5.4219587,-3.997913,,,0,,,0
n7077935885,,Manioc,,5.4232043,-3.9925513,,,0,,,0
n7077935886,,Elite/ Carrefour Marché,,5.4315403,-3.9889867,,,0,,,0
n7077935887,,Pharmacie Belle-Ville,,5.4334458,-3.9887057,,,0,,,0
n7077935888,,Pharmacie Belle-Ville,,5.433538,-3.9886196,,,0,,,0
n7077935889,,Boulangerie,,5.4327142,-3.9887479,,,0,,,0
n7077935890,,Elite/ Carrefour Marché,,5.4315313,-3.9889269,,,0,,,0
n7077935891,,[Arrêt],,5.4300173,-3.9891576,,,0,,,0
n7077935892,,Fofana CDCI,,5.4264012,-3.9896987,,,0,,,0
n7077935893,,Conteneur,,5.4236689,-3.9901212,,,0,,,0
n7077935894,,Maternité,,5.4224126,-3.9903116,,,0,,,0
n7077935895,,Cité Grâce,,5.4154033,-3.9931306,,,0,,,0
n7077935896,,Carrefour Angré,,5.4147389,-3.995691,,,0,,,0
n7077935897,,Abobo Gare Mairie,,5.4196489,-4.015655,,,0,,,0
n7078020131,,Collège Djessou,,5.4488985,-4.0517014,,,0,,,0
n7078020132,,PK 18 ancien marché,,5.4501674,-4.0526924,,,0,,,0
n7078020133,,Carrefour Marché,,5.459566,-4.054167,,,0,,,0
n7078020134,,Gare d'Anyama,,5.4805949,-4.0533234,,,0,,,0
n7078020135,,Gare d'Anyama,,5.4808672,-4.0531236,,,0,,,0
n7078020142,,Impôt,,5.4797886,-4.053314,,,0,,,0
n7078020143,,Berté,,5.4671649,-4.0533181,,,0,,,0
n7078020144,,Ancienne Gendarmerie,,5.4613637,-4.05377,,,0,,,0
n7078020146,,Abobo Gare,,5.4223472,-4.0183461,,,0,,,0
n7078189936,,COOPEC,,5.4167304,-4.0098824,,,0,,,0
n7078189937,,Petro Ivoire Angré,,5.4046655,-3.992281,,,0,,,0
n7078209296,,15e Arrondissement,,5.432693,-4.013354,,,0,,,0
n7078209297,,Collège Elites,,5.4272496,-4.0186773,,,0,,,0
n7078209298,,Adjamé Nouvelle Gare,,5.3599299,-4.0289535,,,0,,,0
n7078209300,,Adjamé Nouvelle Gare,,5.3595346,-4.028787,,,0,,,0
n7078209301,,Ancien Garage,,5.379115,-4.0248987,,,0,,,0
n7078209302,,Filtisac,,5.3929515,-4.0210323,,,0,,,0
n7078209303,,Banco,,5.4109146,-4.0163626,,,0,,,0
n7078209304,,Mobil,,5.4145101,-4.0162272,,,0,,,0
n7078209306,,JAUG,,5.4349342,-4.0124505,,,0,,,0
n7078451669,,Bracodi,,5.3272386,-4.0927203,,,0,,,0
n7078451670,,Station Shell,,5.3309578,-4.0908596,,,0,,,0
n7078451671,,Bon Prix,,5.3355379,-4.0895319,,,0,,,0
n7078451672,,Canal,,5.3355259,-4.0881895,,,0,,,0
n7078451673,,École,,5.3423158,-4.0768088,,,0,,,0
n7078451674,,Sable,,5.3565898,-4.0665682,,,0,,,0
n7078451675,,Première Station,,5.3583062,-4.0669021,,,0,,,0
n7078451676,,Brigade d'Adjamé,,5.357423,-4.0264906,,,0,,,0
n7078451678,,Cosmos Yopougon,,5.3488787,-4.0732435,,,0,,,0
n7078451679,,Sicogi,,5.3393334,-4.0792798,,,0,,,0
n7078451680,,Carrefour Texaco - Saguidiba,,5.3269759,-4.0916267,,,0,,,0
n7078451681,,Carrefour Super marché,,5.3267896,-4.1053796,,,0,,,0
n7079601690,,1er Pont,,5.3593995,-4.0656745,,,0,,,0
n7079601691,,Siporex,,5.3600535,-4.0749877,,,0,,,0
n7079601692,,Carrefour BAE,,5.3647662,-4.0851595,,,0,,,0
n7079601693,,Yoplait,,5.365998,-4.0898102,,,0,,,0
n7079601694,,Bon Prix,,5.3660404,-4.0955651,,,0,,,0
n7079693847,,Gare lagunaire Aqualines Treichville,,5.311038,-4.0153262,,,0,,,0
n7079782626,,Gare lagunaire Aqualines Abatta,,5.3263049,-3.9211819,,,0,,,0
n7082269144,,Abobo Gare Mairie,,5.4213115,-4.0153718,,,0,,,0
n7082269146,,Petro Ivoire Angré,,5.4044846,-3.9914757,,,0,,,0
n7082269147,,Star 5,,5.4048277,-3.9944986,,,0,,,0
n7082269148,,Abobo Gare Mairie,,5.4213352,-4.0154935,,,0,,,0
n7082416533,,1er Pont,,5.3582975,-4.0662497,,,0,,,0
n7082416534,,Station Total,,5.3569436,-4.0664729,,,0,,,0
n7082416535,,Bel Air - Station Shell,,5.3471802,-4.0632664,,,0,,,0
n7082416536,,Pharmacie Garage,,5.332673,-4.0621962,,,0,,,0
n7082416537,,Carrefour sapeur-pompier,,5.3291458,-4.0611622,,,0,,,0
n7082416538,,Ivoire Boutique Superette,,5.3236189,-4.0582057,,,0,,,0
n7082416539,,Yopougon Kowëit,,5.3222509,-4.0547088,,,0,,,0
n7082416540,,Boulagerie,,5.3235134,-4.0567224,,,0,,,0
n7082416541,,Carrefour Gandhi,,5.3235121,-4.059459,,,0,,,0
n7082416542,,Carrefour Bicici,,5.3382425,-4.0623269,,,0,,,0
n7082416543,,Afriquia,,5.3516201,-4.063471,,,0,,,0
n7082468461,,Station Shell,,5.3621697,-4.0804191,,,0,,,0
n7082468462,,En bas du Pont,,5.3632192,-4.0823784,,,0,,,0
n7082468463,,Station Pétro Ivoire,,5.3511513,-4.103179,,,0,,,0
n7082468464,,SODECI,,5.3511513,-4.1011566,,,0,,,0
n7082468466,,Carrefour Véritas,,5.3470734,-4.099381,,,0,,,0
n7082468467,,Resto chawamar pizza café,,5.3428005,-4.1003653,,,0,,,0
n7082468468,,Carrefour Antenne,,5.3412623,-4.1003761,,,0,,,0
n7082468470,,Société Ivoirienne de Banque,,5.334053,-4.1027311,,,0,,,0
n7082468471,,Pharmacie Maty,,5.3329928,-4.1032246,,,0,,,0
n7082468472,,Lubafrique,,5.3304224,-4.1039863,,,0,,,0
n7082468474,,Pharmacie Maty,,5.332894,-4.1033627,,,0,,,0
n7082468475,,Carrefour Anador,,5.3355406,-4.1016743,,,0,,,0
n7082468476,,Maquis Ivoire,,5.3370835,-4.1005511,,,0,,,0
n7082468477,,Pharmacie Cité Maroc,,5.3401753,-4.1004807,,,0,,,0
n7082468478,,Carrefour Antenne,,5.3414439,-4.1004505,,,0,,,0
n7082468479,,Resto chawamar pizza café,,5.3426857,-4.1004793,,,0,,,0
n7082468480,,Carrefour Tiken Jah,,5.34452,-4.100488,,,0,,,0
n7082468481,,Carrefour Véritas,,5.3466808,-4.0996411,,,0,,,0
n7082468482,,Carrefour Sorbonne,,5.3509103,-4.0994455,,,0,,,0
n7082468483,,SODECI,,5.3510995,-4.1000053,,,0,,,0
n7082468484,,Station Pétro Ivoire,,5.3510868,-4.1036001,,,0,,,0
n7082486685,,Pharmacie Alicia,,5.351441,-4.1040212,,,0,,,0
n7082486686,,CAT,,5.3582108,-4.1015174,,,0,,,0
n7082486687,,Gesco BATIM,,5.3650468,-4.0958118,,,0,,,0
n7082486688,,Bon Prix,,5.3658523,-4.0955642,,,0,,,0
n7082486689,,Après le 3ème Pont,,5.3655906,-4.0862945,,,0,,,0
n7082486690,,Station Total,,5.3662288,-4.0905055,,,0,,,0
n7083105177,,Gare en haut,,5.3505424,-4.022934,,,0,,,0
n7083105178,,À l'École,,5.3461013,-3.948838,,,0,,,0
n7083105179,,Carrefour Akouédo,,5.3464071,-3.9456602,,,0,,,0
n7083105180,,Carrefour Decharge,,5.3632112,-3.9368927,,,0,,,0
n7083105181,,Signature Immobilier,,5.363529,-3.9353223,,,0,,,0
n7083105182,,Laurier 9,,5.363768,-3.9328493,,,0,,,0
n7083105183,,Groupe scolaire Les Adorables,,5.3616557,-3.9302824,,,0,,,0
n7083105184,,Quincaillerie Dieudonné,,5.3601923,-3.9286637,,,0,,,0
n7083115485,,AB Center,,5.3582588,-3.9263168,,,0,,,0
n7083115486,,Menuiserie,,5.3717597,-3.9306999,,,0,,,0
n7083115487,,Nouveau Camp,,5.3676362,-3.9447965,,,0,,,0
n7083115488,,Commissariat,,5.3599412,-3.9610648,,,0,,,0
n7083115489,,9 Kilo,,5.3584685,-3.9636008,,,0,,,0
n7083153372,,Gare Kobenan Agban,,5.3616957,-4.017532,,,0,,,0
n7083153373,,Carrefour Liberté,,5.3551604,-4.0110666,,,0,,,0
n7083153374,,Après barrage,,5.3617171,-3.9584242,,,0,,,0
n7083153375,,Socoprix,,5.3628707,-3.9563683,,,0,,,0
n7083153376,,Deux Poteaux,,5.3653997,-3.9496641,,,0,,,0
n7083153377,,Carrefour CFA,,5.3663857,-3.9475834,,,0,,,0
n7083153378,,Carrefour Garage,,5.3620482,-3.9071712,,,0,,,0
n7083153379,,Lycée Garçon de Bingerville,,5.3577481,-3.8908419,,,0,,,0
n7083153380,,COOPEC,,5.3567487,-3.8828442,,,0,,,0
n7083153381,,Escalier,,5.3560129,-3.8818196,,,0,,,0
n7083153382,,Nouvelle Gare Bingerville,,5.3532556,-3.8770667,,,0,,,0
n7083153383,,Nouvelle Gare Bingerville,,5.3531168,-3.8766638,,,0,,,0
n7083153384,,Carrefour Sicogi,,5.3545185,-3.8797328,,,0,,,0
n7083191185,,CIE,,5.357393,-3.8872685,,,0,,,0
n7083191186,,Djama,,5.3612004,-3.8954768,,,0,,,0
n7083191187,,Ancien Barrage,,5.3604072,-3.9027549,,,0,,,0
n7083191188,,Kessé,,5.3739985,-3.911971,,,0,,,0
n7083191189,,Nouveau Camp,,5.3672576,-3.945502,,,0,,,0
n7083191190,,Deux Poteaux,,5.3652948,-3.9494079,,,0,,,0
n7083191191,,Gare Kobenan Agban,,5.3619274,-4.0173121,,,0,,,0
n7083218788,,Adjamé Agban Village,,5.3587756,-4.0309511,,,0,,,0
n7083218789,,Cité Fairmont,,5.3589712,-4.0324257,,,0,,,0
n7083218790,,Carrefour Policier,,5.3578075,-4.045132,,,0,,,0
n7083218791,,2ème Carrefour,,5.352845,-4.0454954,,,0,,,0
n7083218792,,Depôt,,5.3511353,-4.0453331,,,0,,,0
n7083218793,,Maquis,,5.3495717,-4.045364,,,0,,,0
n7083218794,,Station Mossikro,,5.3410112,-4.0466139,,,0,,,0
n7083218795,,Pharmacie Notre Dame des Victoires,,5.3403169,-4.0479054,,,0,,,0
n7083218796,,Boutique,,5.340185,-4.049576,,,0,,,0
n7083218797,,Hôtel,,5.3417076,-4.0548382,,,0,,,0
n7083218798,,Au Tournant,,5.342657,-4.0596588,,,0,,,0
n7083218799,,Pharmacie les Béatitudes,,5.3407255,-4.0586637,,,0,,,0
n7083218800,,Carrefour Marché,,5.3398362,-4.0575117,,,0,,,0
n7083218801,,Offoumou Yapo,,5.3314746,-4.0519327,,,0,,,0
n7083218802,,Yopougon Bouassi,,5.3294396,-4.0498935,,,0,,,0
n7083218805,,Terminus,,5.327673,-4.0502664,,,0,,,0
n7083218806,,Carrefour Gnawa,,5.3268618,-4.0522599,,,0,,,0
n7083218807,,Gendarmerie,,5.3271455,-4.0552251,,,0,,,0
n7083218808,,Caféier,,5.3290977,-4.0561411,,,0,,,0
n7083218809,,La Poste,,5.33334,-4.055099,,,0,,,0
n7083218810,,Au Tournant,,5.342471,-4.0600849,,,0,,,0
n7083218811,,Garage,,5.3425655,-4.0571027,,,0,,,0
n7083218812,,Chantier,,5.3423412,-4.0564294,,,0,,,0
n7083218813,,[Arrêt],,5.3408844,-4.0526462,,,0,,,0
n7083218814,,Boutique,,5.340194,-4.0493128,,,0,,,0
n7083218815,,Cirocco,,5.3469335,-4.0452909,,,0,,,0
n7083218817,,[Arrêt],,5.3587375,-4.0315734,,,0,,,0
n7084919707,,Cité Fairmont,,5.3587248,-4.0307674,,,0,,,0
n7084919708,,Chantier,,5.342213,-4.0563664,,,0,,,0
n7084919709,,Pharmacie Toits-Rouges,,5.3318044,-4.0554665,,,0,,,0
n7084919710,,Ofosucom toît rouge,,5.3308523,-4.0564066,,,0,,,0
n7084919711,,Yopougon Camp Militaire,,5.3225614,-4.0624255,,,0,,,0
n7084919712,,Pharmacie Toits-Rouges,,5.3317056,-4.0556704,,,0,,,0
n7084919713,,Lavage,,5.3388013,-4.055382,,,0,,,0
n7084919714,,Maquis,,5.3493727,-4.0454672,,,0,,,0
n7084919715,,Cité Fairmont,,5.3589612,-4.0315774,,,0,,,0
n7084943041,,Akadjoba,,5.3243128,-4.0800526,,,0,,,0
n7084943042,,Garage,,5.3239361,-4.0857339,,,0,,,0
n7084943043,,Timotel,,5.3218056,-4.0878019,,,0,,,0
n7084943044,,Collège Gloris,,5.3176327,-4.0883571,,,0,,,0
n7084943045,,Terminus 27 Niangon Sud à Gauche,,5.3159568,-4.0902708,,,0,,,0
n7084943047,,Carrefour à gauche,,5.3176447,-4.0947756,,,0,,,0
n7084943048,,Pharmacie Beyniouah,,5.3219979,-4.0932548,,,0,,,0
n7084943049,,SODECI,,5.3246304,-4.0926708,,,0,,,0
n7084943050,,Carrefour Bar Éclat,,5.3254884,-4.092548,,,0,,,0
n7084943051,,Super marché moins cher,,5.3276462,-4.0913665,,,0,,,0
n7084943052,,Carrefour Menuiserie,,5.3290717,-4.0908273,,,0,,,0
n7084943053,,Station Pétro Ivoire,,5.3351782,-4.0909012,,,0,,,0
n7084943054,,Magasin,,5.3356193,-4.0838456,,,0,,,0
n7084943055,,Carrefour Terminus 47,,5.3393061,-4.0838107,,,0,,,0
n7084943056,,Pharmacie des 3 Ponts,,5.3423185,-4.0804312,,,0,,,0
n7085040027,,Adjamé Agban,,5.3586447,-4.0298058,,,0,,,0
n7085040028,,Garage,,5.3539293,-4.033113,,,0,,,0
n7085040029,,Pharmacie d'Attécoubé - Au feu,,5.3508722,-4.0318644,,,0,,,0
n7085040030,,Arrêt Mouton,,5.347056,-4.0307164,,,0,,,0
n7085040031,,Au feu,,5.3412813,-4.0312914,,,0,,,0
n7085040032,,En bas du pont,,5.3084008,-4.018859,,,0,,,0
n7085040033,,Cimivoire,,5.297832,-4.014139,,,0,,,0
n7085040034,,Pharmacie du Port,,5.2888022,-4.0082864,,,0,,,0
n7085040035,,Movis,,5.2786537,-4.0083864,,,0,,,0
n7085040036,,SEA-invest,,5.2772242,-4.008381,,,0,,,0
n7085040037,,Après le Pont,,5.2698953,-4.0057216,,,0,,,0
n7085040038,,Vridi Port,,5.2700516,-4.0054943,,,0,,,0
n7085040040,,Movis,,5.2787225,-4.0085158,,,0,,,0
n7085040041,,Pharmacie du Port,,5.2889938,-4.008385,,,0,,,0
n7085040042,,Cimivoire,,5.2976598,-4.0140975,,,0,,,0
n7085040043,,Après le feu,,5.2998665,-4.0166918,,,0,,,0
n7085040044,,CDCI,,5.3026687,-4.0205978,,,0,,,0
n7085040045,,Dinor,,5.3039894,-4.0218256,,,0,,,0
n7085040046,,Après le Pont,,5.307699,-4.0202612,,,0,,,0
n7085040047,,Garage,,5.3264057,-4.0274254,,,0,,,0
n7085040048,,Ancien ONUCI,,5.340202,-4.0306695,,,0,,,0
n7085040049,,Pharmacie d'Agban,,5.358829,-4.0296637,,,0,,,0
n7085152205,,Carrefour Sorbonne,,5.3511772,-4.0996081,,,0,,,0
n7085152206,,Carrefour Tiken Jah,,5.3446637,-4.1003804,,,0,,,0
n7085152207,,Banque Atlantique,,5.3422431,-4.1003779,,,0,,,0
n7085152208,,Maquis Ivoire,,5.3369609,-4.1004579,,,0,,,0
n7085152209,,Station First Petroleum,,5.3281584,-4.1049112,,,0,,,0
n7085152210,,Carrefour Ananeraie,,5.3551229,-4.1026352,,,0,,,0
n7085185967,,Magasin,,5.3354311,-4.0838188,,,0,,,0
n7098748067,,Adjamé Agban Village,,5.3588343,-4.0309384,,,0,,,0
n7098748068,,Pont Ferrail,,5.3650785,-4.028751,,,0,,,0
n7098748069,,Station Shell,,5.363732,-4.0254573,,,0,,,0
n7098748070,,Pont piéton,,5.3615635,-4.0223479,,,0,,,0
n7098748071,,Carrefour Agban,,5.3607831,-4.0179726,,,0,,,0
n7098748072,,ChicShop,,5.3592149,-3.9627157,,,0,,,0
n7098748073,,Après barrage,,5.36098,-3.9597076,,,0,,,0
n7098748074,,Petit portail Génie 2000,,5.3711625,-3.9350903,,,0,,,0
n7098748075,,Panneau Orange,,5.3744618,-3.921926,,,0,,,0
n7098748076,,Nouveau Chantier,,5.364712,-3.9084198,,,0,,,0
n7098748077,,Nouvelle Gare Bingerville,,5.3531502,-3.8776186,,,0,,,0
n7098748078,,Nouvelle Gare Bingerville,,5.3530073,-3.8775542,,,0,,,0
n7098748079,,Ancien marché,,5.3571219,-3.8836147,,,0,,,0
n7098748080,,Carrefour Marché,,5.3573322,-3.8862889,,,0,,,0
n7098748081,,Carrefour Garage,,5.361681,-3.906856,,,0,,,0
n7098748082,,Adaman,,5.3685214,-3.9098829,,,0,,,0
n7098748083,,Socoprix,,5.3624675,-3.956674,,,0,,,0
n7098748084,,Riviera 2,,5.3527149,-3.979792,,,0,,,0
n7160556541,,Saint Jean,,5.336062,-4.0035772,,,0,,,0
n7160556542,,Lycée Moderne de Cocody,,5.335168,-3.9959684,,,0,,,0
n7160556543,,Carrefour Mosquée Golf,,5.3390831,-3.9787459,,,0,,,0
n7160556544,,Carrefour Anono,,5.3464111,-3.9751786,,,0,,,0
n7160556546,,Riviera 2,,5.3527309,-3.9768831,,,0,,,0
n7160556547,,Riviera 2,,5.3523977,-3.9766934,,,0,,,0
n7160556548,,Station Service First Petroleum Riviéra 2,,5.3510631,-3.9763856,,,0,,,0
n7160556549,,Leader Price,,5.3402488,-3.9747494,,,0,,,0
n7160556550,,Rond-Point,,5.3381016,-3.9756735,,,0,,,0
n7160556551,,Maison du PDCI-RDA,,5.3350058,-3.9966651,,,0,,,0
n7160556553,,Saint Jean,,5.3358477,-4.0036435,,,0,,,0
n7160672808,,Saint Jean,,5.336514,-4.0040472,,,0,,,0
n7160672809,,Carrefour la Vie,,5.3493821,-4.0024419,,,0,,,0
n7160672810,,ENA,,5.3607992,-3.9978634,,,0,,,0
n7160672811,,2 Plateaux Mobile,,5.369372,-3.9983663,,,0,,,0
n7160672812,,Espace Opera,,5.3852048,-3.9931762,,,0,,,0
n7160672813,,Pharmacie des Allées,,5.4086542,-3.987211,,,0,,,0
n7160672814,,Boulangerie le Jour du Pain,,5.4098331,-3.9852141,,,0,,,0
n7160672815,,Petro Ivoire Angré,,5.4049572,-3.9905812,,,0,,,0
n7160672816,,Sococé,,5.3744845,-3.9983301,,,0,,,0
n7160672817,,Mobile,,5.3684947,-3.9981115,,,0,,,0
n7160672818,,Saint Jean,,5.3364806,-4.0038018,,,0,,,0
n7160738662,,PFO Africa CI,,5.3455104,-4.002918,,,0,,,0
n7160738664,,Petro Ivoire Angré,,5.4045593,-3.9906241,,,0,,,0
n7160738665,,Les Oscars,,5.3945907,-3.9918455,,,0,,,0
n7160738666,,Espace Opera,,5.3855546,-3.9929134,,,0,,,0
n7160738667,,Snedai,,5.3771042,-3.9979123,,,0,,,0
n7167642497,,Pharmacie Vridi SIR,,5.262302,-3.98256,,,0,,,0
n7167642498,,Petit Bassam,,5.2568994,-3.9781907,,,0,,,0
n7167642499,,Centre Pilote Des Jeunes de Port-Bouët,,5.2616476,-3.9643854,,,0,,,0
n7167642500,,La Poste,,5.2640221,-3.9844832,,,0,,,0
n7167642501,,Vridi Cité,,5.2666329,-3.9883375,,,0,,,0
n7167642502,,Vridi Cité,,5.2667103,-3.9883335,,,0,,,0
n7167642503,,Paroisse St Jean Marie Vianney,,5.2656006,-3.9860174,,,0,,,0
n7167642504,,La Poste,,5.2640154,-3.9842887,,,0,,,0
n7167642506,,Petit Bassam,,5.2569989,-3.9781136,,,0,,,0
n7167642507,,Cimétière de Port-Bouët,,5.2572273,-3.9730664,,,0,,,0
n7167642508,,Station,,5.2568347,-3.9717186,,,0,,,0
n7167642509,,Marché de Port-Bouët,,5.2577,-3.9648172,,,0,,,0
n7167707751,,Au 19,,5.2557943,-3.9962031,,,0,,,0
n7167707752,,Vridi Canal,,5.2543307,-4.0062949,,,0,,,0
n7167707753,,Vridi Canal,,5.2543874,-4.0062211,,,0,,,0
n7167707754,,Pharmacie Vridi Village,,5.2556167,-3.9973108,,,0,,,0
n7167707755,,Marché de Port-Bouët,,5.2567278,-3.9652102,,,0,,,0
n7167781666,,Jean folly,,5.2412963,-3.9096469,,,0,,,0
n7167781667,,Marché Adjoufou,,5.2430912,-3.9209591,,,0,,,0
n7167781668,,Marché de Port-Bouët,,5.2575638,-3.9646751,,,0,,,0
n7167781669,,Marché de Port-Bouët,,5.2576092,-3.9648521,,,0,,,0
n7167781670,,Eglise Méthodiste Unie Port-Bouët,,5.253743,-3.9622208,,,0,,,0
n7167781671,,Marché Adjoufou,,5.2433664,-3.92158,,,0,,,0
n7167781672,,[Arrêt],,5.240686,-3.9044675,,,0,,,0
n7167781673,,Eglise Catholique,,5.2404109,-3.9028153,,,0,,,0
n7167781674,,Carrefour Abraham,,5.238433,-3.8899219,,,0,,,0
n7167781675,,Carrefour Abraham,,5.2379215,-3.8867462,,,0,,,0
n7167781676,,Anani - Rond-point,,5.2371222,-3.8737408,,,0,,,0
n7170470245,,Abobo Gare,,5.4218592,-4.0180993,,,0,,,0
n7170470246,,Carrefour Mosquée,,5.4225247,-4.0187028,,,0,,,0
n7170470247,,Abobo Gendarmerie,,5.4276862,-4.0201874,,,0,,,0
n7170470249,,BC (Belle Cité),,5.4458699,-4.0206977,,,0,,,0
n7170470250,,BC (Belle Cité),,5.4461903,-4.0207118,,,0,,,0
n7170470251,,Carrefour Ecole,,5.4426577,-4.0205347,,,0,,,0
n7170470252,,Sainte Marie,,5.4334418,-4.0202069,,,0,,,0
n7170470260,,Abobo Gare,,5.4220721,-4.0182079,,,0,,,0
n7170486849,,Abobo Gendarmerie,,5.4258758,-4.0200131,,,0,,,0
n7170486850,,Marché de Nuit,,5.4362234,-4.0298554,,,0,,,0
n7170486851,,Taxi Gare,,5.4438379,-4.0534082,,,0,,,0
n7170486852,,Bon Prix,,5.4437084,-4.057509,,,0,,,0
n7170486853,,Carrefour N'dotré,,5.4433467,-4.0688568,,,0,,,0
n7170486854,,Paris Baguette,,5.4434882,-4.0682969,,,0,,,0
n7170486856,,Nouvelle Gare,,5.4392306,-4.042085,,,0,,,0
n7170486858,,Rond Point Gendarmerie,,5.4261402,-4.0202571,,,0,,,0
n7171335585,,Ciné Cool,,5.4178225,-4.0120778,,,0,,,0
n7171335586,,Samaké,,5.4152691,-4.0062815,,,0,,,0
n7171335587,,Carrefour Angré,,5.4148052,-3.9955347,,,0,,,0
n7171335588,,Carrefour Paweur,,5.4250381,-3.989972,,,0,,,0
n7171335589,,Carrefour Mosquée,,5.441591,-3.9832601,,,0,,,0
n7171335590,,Carrefour COSIM,,5.4424655,-3.9820893,,,0,,,0
n7171335591,,Biabou,,5.4456736,-3.9781947,,,0,,,0
n7171335593,,Biabou,,5.4455655,-3.9781143,,,0,,,0
n7171335594,,Clinique,,5.4412279,-3.9836597,,,0,,,0
n7171335595,,Carrefour Cimetière,,5.4384643,-3.9865337,,,0,,,0
n7171370581,,Abobo Gendarmerie,,5.4269906,-4.0202639,,,0,,,0
n7171370582,,Camp Commando,,5.4351053,-4.0203416,,,0,,,0
n7171370583,,Complexe sportif d’Abobo,,5.4383201,-4.0161279,,,0,,,0
n7171370584,,Carrefour Bassolé,,5.4411498,-4.0087451,,,0,,,0
n7171384785,,Houphouët-Boigny,,5.4434935,-4.008837,,,0,,,0
n7171384786,,Houphouët-Boigny,,5.4435552,-4.0087707,,,0,,,0
n7171384787,,Carrefour Zouglou,,5.4396993,-4.0086123,,,0,,,0
n7171384788,,Carrefour Commissaire,,5.4383909,-4.0122722,,,0,,,0
n7171384789,,Abobo Gare,,5.4214927,-4.0176574,,,0,,,0
n7171428176,,Abobo Gare Mairie,,5.421466,-4.0153517,,,0,,,0
n7171428177,,Centre d'action Culturelle d'abobo,,5.4207791,-4.0147077,,,0,,,0
n7171428179,,Petro Ivoire Angré,,5.4047816,-3.9909969,,,0,,,0
n7171428180,,Abobo Gare Mairie,,5.4214106,-4.0154231,,,0,,,0
n7171567234,,Warren Palmeraie,,5.3600674,-3.9617317,,,0,,,0
n7171567235,,Pharmacie Ste Béatrice,,5.3736313,-3.9615925,,,0,,,0
n7171567236,,CIE 8e Tranche Djibi,,5.3883221,-3.9750579,,,0,,,0
n7171567237,,Marché,,5.4006213,-3.9802185,,,0,,,0
n7171567238,,Pharmacie Les Lauréats,,5.3976539,-3.9862789,,,0,,,0
n7171567239,,22e Arrondissement,,5.3982668,-3.9911894,,,0,,,0
n7171567240,,Pharmacie Bien Être,,5.3910869,-3.9756567,,,0,,,0
n7183549114,,Warren Palmeraie,,5.360012,-3.9617759,,,0,,,0
n7183549115,,Garage,,5.3676412,-3.9638372,,,0,,,0
n7183549116,,Pharmacie 8e Tranche,,5.4009705,-3.9782092,,,0,,,0
n7183549117,,Terminus 81/82,,5.4037182,-3.9849425,,,0,,,0
n7183549119,,CNPS,,5.3868604,-3.9744987,,,0,,,0
n7183549120,,Groupe Scolaire les Petites Abeilles,,5.3829463,-3.9690886,,,0,,,0
n7183549121,,[Arrêt],,5.3704548,-3.9645336,,,0,,,0
n7184140909,,Unilever,,5.282873,-4.0084568,,,0,,,0
n7184140910,,Port de Pêche,,5.2885117,-4.0103699,,,0,,,0
n7184140911,,Carrefour,,5.2872865,-4.0101573,,,0,,,0
n7184140912,,Unilever,,5.2832736,-4.0082999,,,0,,,0
n7184140913,,Au 19,,5.2560547,-3.9968066,,,0,,,0
n7184140914,,Pharmacie Vridi,,5.2583544,-3.9819203,,,0,,,0
n7184140915,,Terre rouge,,5.2575398,-3.9791577,,,0,,,0
n7184140917,,Marché de Port-Bouët,,5.2568921,-3.9648025,,,0,,,0
n7184205208,,Carrefour Aéroport,,5.2475404,-3.9438638,,,0,,,0
n7184205209,,Carrefour Portail Cité,,5.2497072,-3.942984,,,0,,,0
n7184205210,,Depôt SOTRA,,5.2507516,-3.9425462,,,0,,,0
n7184205211,,Boutique,,5.2547807,-3.9396112,,,0,,,0
n7184205212,,Aéroport,,5.253914,-3.9340845,,,0,,,0
n7184205213,,Aéroport - Aeria Maintenance,,5.2581781,-3.9322968,,,0,,,0
n7184205214,,Aéroport - Aeria Maintenance,,5.2581568,-3.9322217,,,0,,,0
n7184205215,,OLA,,5.2566764,-3.9328433,,,0,,,0
n7184205216,,P1,,5.2553683,-3.9341147,,,0,,,0
n7184205217,,Aéroport,,5.2536415,-3.9341455,,,0,,,0
n7184205218,,Garage,,5.2527722,-3.9416523,,,0,,,0
n7184205220,,Carrefour Aéroport,,5.2475124,-3.9437988,,,0,,,0
n7187396845,,Grand Marché de Koumassi,,5.2932083,-3.9591739,,,0,,,0
n7187396847,,Grand Marché de Koumassi,,5.2934734,-3.9580715,,,0,,,0
n7187396848,,Cimétière de Koumassi,,5.2942051,-3.9550298,,,0,,,0
n7187396849,,Pharmacie Campement,,5.3045089,-3.945327,,,0,,,0
n7187396850,,Lycée municipal de Koumassi,,5.3120416,-3.9452391,,,0,,,0
n7187396851,,Koumassi Grand Marché,,5.3128809,-3.9436278,,,0,,,0
n7187396852,,Centre Médical Social,,5.3096393,-3.9481969,,,0,,,0
n7187396853,,Inchallah,,5.2987428,-3.9552297,,,0,,,0
n7187396854,,Cimétière de Koumassi,,5.2949657,-3.9559197,,,0,,,0
n7187396856,,Grand Marché de Koumassi,,5.2935121,-3.9575793,,,0,,,0
n7190927829,,Grand Marché de Koumassi,,5.2933198,-3.9577335,,,0,,,0
n7190927830,,EPP BAD,,5.2900534,-3.962068,,,0,,,0
n7190927831,,Grand Carrefour de Koumassi,,5.2875642,-3.97036,,,0,,,0
n7190927832,,Le Réservoir,,5.2772175,-3.9670019,,,0,,,0
n7190927833,,Carrefour Ancien Koumassi,,5.2765939,-3.9664668,,,0,,,0
n7190927834,,Ancien Koumassi - Terminus,,5.2754601,-3.9658794,,,0,,,0
n7190927835,,Carrefour Ancien Koumassi,,5.2766833,-3.9669308,,,0,,,0
n7190927836,,Centre Matthew Ray,,5.2903926,-3.9612848,,,0,,,0
n7190927837,,Grand Marché de Koumassi,,5.2918068,-3.9574633,,,0,,,0
n7190927838,,King Cash,,5.2939274,-3.95621,,,0,,,0
n7190993874,,Gare de Wôrô-Wôrô d'Anoumabo,,5.3068711,-3.9639898,,,0,,,0
n7190993875,,Carrefour Sans fil,,5.3029271,-3.9636525,,,0,,,0
n7190993876,,Groupe Scolaire Entente,,5.3016105,-3.961783,,,0,,,0
n7190993877,,Paroisse Saint François,,5.3000942,-3.9611205,,,0,,,0
n7190993879,,Grand Marché de Koumassi,,5.2938646,-3.9596432,,,0,,,0
n7190993880,,Grand Marché de Koumassi,,5.2936743,-3.9596734,,,0,,,0
n7190993881,,Pharmacie Saint François,,5.2951479,-3.9600456,,,0,,,0
n7190993882,,Trois Ampoules,,5.2972365,-3.9623845,,,0,,,0
n7190993883,,Carrefour Sans fil,,5.3029972,-3.9637269,,,0,,,0
n7190993884,,Gare de Wôrô-Wôrô d'Anoumabo,,5.3068745,-3.9640515,,,0,,,0
n7191121578,,Grand Marché de Koumassi,,5.2935832,-3.9576034,,,0,,,0
n7191121579,,Mosquée Sangaré,,5.3076256,-3.9406237,,,0,,,0
n7191121580,,Pharmacie Le Roc,,5.30922,-3.9380045,,,0,,,0
n7191121581,,Koumassi Campement,,5.3105527,-3.9363013,,,0,,,0
n7191121582,,Koumassi Campement,,5.3104966,-3.9362437,,,0,,,0
n7191121583,,Boulangerie la Baguette,,5.3099892,-3.9369008,,,0,,,0
n7191121584,,Commissariat 20ᵉ arrondissement,,5.3054249,-3.9433891,,,0,,,0
n7191135685,,Lycée Ste Therèse Mesano,,5.3001916,-3.9487756,,,0,,,0
n7191135686,,Maison Blanche Koumasssi,,5.2971323,-3.9564461,,,0,,,0
n7191232911,,Grand Marché de Koumassi,,5.2936443,-3.9569852,,,0,,,0
n7191232912,,Pharmacie Saint Albert,,5.2922849,-3.9574988,,,0,,,0
n7191232913,,Cimétière de Koumassi,,5.2925199,-3.955286,,,0,,,0
n7191232914,,Site des garagistes Koumassi,,5.290181,-3.9547254,,,0,,,0
n7191232915,,Bourse du bois Koumassi,,5.2863056,-3.9522893,,,0,,,0
n7191232917,,Gare de Wôrô-Wôrô Soweto,,5.2860031,-3.9512948,,,0,,,0
n7191232918,,Nouveau marché Soweto,,5.2856199,-3.9516382,,,0,,,0
n7191232919,,Cimétière de Koumassi,,5.2940516,-3.9552887,,,0,,,0
n7191232920,,Grand Marché de Koumassi,,5.2937124,-3.9566593,,,0,,,0
n7191438553,,Trois Ampoules,,5.2971043,-3.9621967,,,0,,,0
n7191438554,,Paroisse Saint Etienne de Koumassi,,5.2903325,-3.9623979,,,0,,,0
n7191438555,,Hôpital General de Koumassi,,5.2869253,-3.9687426,,,0,,,0
n7191438557,,Hôpital General de Koumassi,,5.2869099,-3.9688338,,,0,,,0
n7191438558,,Paroisse Saint Etienne de Koumassi,,5.2905448,-3.9625025,,,0,,,0
n7643846396,,Église Saint Bernard,,5.3693145,-3.9804304,,,0,,,0
n7833549603,,Gare communale,,5.296482,-3.9546812,,,0,,,0
n7833549604,,Gare de Wôrô-Wôrô Soweto,,5.2860179,-3.9514276,,,0,,,0
n7833549607,,Gare communale,,5.2964646,-3.9547938,,,0,,,0
n7833694092,,Gare communale,,5.2968231,-3.9550613,,,0,,,0
n7833694093,,Sicogi,,5.2880261,-3.9654825,,,0,,,0
n7833694095,,Sicogi,,5.2882335,-3.9654467,,,0,,,0
n7833694096,,Groupe Scolaire Pépinière,,5.2846993,-3.9640746,,,0,,,0
n7833694097,,Rois des Rois,,5.2848849,-3.9579805,,,0,,,0
n7834704383,,Akromiambla,,5.3121998,-3.9528392,,,0,,,0
n7834704384,,Sicogi,,5.288236,-3.965532,,,0,,,0
n7834718785,,Akromiambla,,5.3122339,-3.952876,,,0,,,0
n7834718787,,Sicogi,,5.2889063,-3.9656199,,,0,,,0
n7834785518,,Pharmacie Aniel,,5.2900598,-3.9626563,,,0,,,0
n7834816424,,Sicogi,,5.2880316,-3.9653188,,,0,,,0
n7834816425,,Soweto,,5.2861033,-3.9528921,,,0,,,0
n7834816426,,Soweto,,5.2860139,-3.9528573,,,0,,,0
n7834873583,,Gare Wôro-Wôrô 9 Kilo,,5.3572694,-3.9638315,,,0,,,0
n7834873584,,Akouédo,,5.3484106,-3.9409258,,,0,,,0
n7834978086,,Gare Wôro-Wôrô 9 Kilo,,5.3573836,-3.9640441,,,0,,,0
n7835761635,,Leader Price,,5.3551851,-3.9607108,,,0,,,0
n7835761636,,DC10,,5.3291098,-3.9516033,,,0,,,0
n7835761637,,Mosquée Cité Eden,,5.3284441,-3.9405157,,,0,,,0
n7835761638,,DC10,,5.3290243,-3.9515631,,,0,,,0
n7835761640,,Mosquée Cité Eden,,5.3283533,-3.9405184,,,0,,,0
n7835761641,,Rue Filaho,,5.3283446,-3.9478462,,,0,,,0
n7835761642,,Institut Britanique,,5.332898,-3.9574948,,,0,,,0
n7835784410,,Sol Beni au Bateau,,5.3245403,-3.9602816,,,0,,,0
n7835784411,,Sol Beni au Bateau,,5.324551,-3.9604077,,,0,,,0
n7835784412,,Pharmacie Saint-Pierre des Rosées,,5.3538338,-3.9574814,,,0,,,0
n7835819027,,Gare de taxi Riviera Bonoumin,,5.3586607,-3.9652504,,,0,,,0
n7835819028,,Pharmacie Saint Jean Paul II,,5.365377,-3.9691316,,,0,,,0
n7835819029,,Abri 2000,,5.3747889,-3.9705129,,,0,,,0
n7835819030,,Abri 2000,,5.3748563,-3.9703144,,,0,,,0
n7835819031,,Église des Assemblées de Dieu,,5.3704748,-3.9684811,,,0,,,0
n7835819032,,Paul Ndré,,5.3678324,-3.967706,,,0,,,0
n7835819033,,Gare de taxi Riviera Bonoumin,,5.3586367,-3.9652947,,,0,,,0
n7835899826,,O'Burger,,5.3633147,-3.9597063,,,0,,,0
n7835899827,,Institut de beauté Spa,,5.3942199,-3.9569932,,,0,,,0
n7835899828,,CHU Angré,,5.3996973,-3.9565184,,,0,,,0
n7835899829,,Station,,5.3628888,-3.9593676,,,0,,,0
n7835899830,,Enica,,5.3790062,-3.9531248,,,0,,,0
n7835899831,,Pharmacie Est,,5.3975251,-3.9566445,,,0,,,0
n7835899832,,CHU Angré,,5.3996713,-3.9563301,,,0,,,0
n7835947934,,Honi Poissonnerie,,5.4024899,-3.9615704,,,0,,,0
n7835947935,,Lavage,,5.3998309,-3.964954,,,0,,,0
n7835947937,,Rosier Programme 6,,5.3962654,-3.9691731,,,0,,,0
n7835947938,,Chez Miss Zahui,,5.3696036,-3.9602534,,,0,,,0
n7835947939,,Station,,5.3627385,-3.9597807,,,0,,,0
n7836077585,,Station,,5.3630296,-3.9597036,,,0,,,0
n7836077586,,Guiro,,5.3717059,-3.9580681,,,0,,,0
n7836077587,,Star 14,,5.382929,-3.9688332,,,0,,,0
n7836077588,,Cash Center 8ème Tranche,,5.3859298,-3.9743873,,,0,,,0
n7836077589,,SGBCI,,5.3874012,-3.9747937,,,0,,,0
n7836077590,,Immeuble Sylla,,5.3925937,-3.9762086,,,0,,,0
n7836077591,,Petro Ivoire Angré,,5.404315,-3.990144,,,0,,,0
n7836077592,,Petro Ivoire Angré,,5.4044465,-3.9905114,,,0,,,0
n7836077593,,Station,,5.3630911,-3.9594112,,,0,,,0
n7836121074,,Leader Price,,5.3396092,-3.9751464,,,0,,,0
n7836121075,,Flambeau,,5.3406787,-3.9746837,,,0,,,0
n7836121076,,Marché,,5.3454243,-3.974897,,,0,,,0
n7836121077,,Carrefour Garage,,5.3477904,-3.9755957,,,0,,,0
n7836121078,,Riviera 2,,5.3527522,-3.9767919,,,0,,,0
n7836121079,,Marché,,5.3457127,-3.9748567,,,0,,,0
n7836121081,,Leader Price,,5.3395678,-3.9750579,,,0,,,0
n7837854395,,Rue 12,,5.3070794,-3.9639549,,,0,,,0
n7837854396,,Rue 12,,5.3016045,-4.0105623,,,0,,,0
n7837854397,,Rue 12,,5.3016739,-4.0105274,,,0,,,0
n7837854398,,Marché Samsung,,5.2997777,-4.0073812,,,0,,,0
n7837854399,,Boulevard,,5.2947647,-3.9785112,,,0,,,0
n7837854401,,Anoumabo sans fil,,5.3070821,-3.9640468,,,0,,,0
n7839982486,,Maison Blanche,,5.3117709,-3.9607728,,,0,,,0
n7839982587,,Carrefour Milieu,,5.311633,-3.9687983,,,0,,,0
n7839982685,,Carrefour Lycée,,5.3034246,-3.9761717,,,0,,,0
n7839982686,,Au Bambou,,5.3117442,-3.9663823,,,0,,,0
n7839982785,,Carrefour Milieu,,5.3116811,-3.968808,,,0,,,0
n7839982786,,Maison Blanche,,5.3117845,-3.9606816,,,0,,,0
n7839982885,,Carrefour Lycée,,5.3032314,-3.9759833,,,0,,,0
n7840094085,,Gare Sotra Marcory,,5.3083247,-3.9835699,,,0,,,0
n7840094185,,Maison Blanche,,5.3117251,-3.9608181,,,0,,,0
n7840094285,,Pharmacie Roma,,5.3088982,-3.9772231,,,0,,,0
n7840094286,,Gare Sotra Marcory,,5.3084368,-3.9839226,,,0,,,0
n7840247685,,CTAO,,5.3082486,-3.9566176,,,0,,,0
n7840247785,,Ferraille,,5.3086859,-3.9640535,,,0,,,0
n7840247786,,Gare d'Adjamé,,5.3117605,-3.9641654,,,0,,,0
n7840676797,,Institut Froebel,,5.3116507,-3.9737027,,,0,,,0
n7840676798,,Carrefour Diabaté,,5.3082779,-3.9614738,,,0,,,0
n7840676799,,Carrefour Amangou,,5.3116247,-3.9707039,,,0,,,0
n7840690990,,Carrefour Marché,,5.3082903,-3.9639437,,,0,,,0
n7840690991,,Gare Sotra Marcory,,5.3083041,-3.9836619,,,0,,,0
n7840697489,,En bas du pont,,5.303307,-3.9761672,,,0,,,0
n7840697490,,CTAO,,5.3083149,-3.9566179,,,0,,,0
n7840790185,,Hibiscus,,5.2994889,-3.9796793,,,0,,,0
n7840790285,,Mairie de Marcory,,5.2911823,-3.99011,,,0,,,0
n7840790286,,Hibiscus,,5.2995687,-3.9797324,,,0,,,0
n7840790387,,Mairie de Marcory,,5.2908229,-3.9902304,,,0,,,0
n7840850687,,Elysée Viera,,5.3519217,-3.9717467,,,0,,,0
n7840850688,,Chez Alpha,,5.3534973,-3.9697257,,,0,,,0
n7840850689,,Station Riviera 2,,5.3514046,-3.9763371,,,0,,,0
n7840862585,,Station Riviera 2,,5.3513028,-3.9762374,,,0,,,0
n7840862887,,9 Kilo,,5.3573796,-3.964374,,,0,,,0
n7841011316,,Saint Jean,,5.3356527,-4.0038849,,,0,,,0
n7841011317,,Lycée Classique d'Abidjan,,5.3301139,-4.004589,,,0,,,0
n7841011318,,Hôtel Ivoire,,5.3288874,-4.0047406,,,0,,,0
n7841011319,,Gare de Warren Blockauss,,5.3250928,-4.001539,,,0,,,0
n7841011320,,Gare de Warren Blockauss,,5.3251031,-4.0016634,,,0,,,0
n7841011321,,Parking,,5.3265833,-4.0015179,,,0,,,0
n7841011322,,Hôtel Ivoire,,5.327853,-4.0042856,,,0,,,0
n7841011323,,Lycée Classique d'Abidjan,,5.3317777,-4.0045944,,,0,,,0
n7841011324,,Saint Jean,,5.3356721,-4.0041317,,,0,,,0
n7842766285,,Gare de Warren Blockauss,,5.3250459,-4.0015463,,,0,,,0
n7842766286,,CHU de Cocody,,5.3467182,-3.9945931,,,0,,,0
n7842766287,,INFS,,5.3465232,-3.9950551,,,0,,,0
n7842766486,,Station Ola,,5.3441411,-3.9983945,,,0,,,0
n7842766585,,INSAAC,,5.345435,-3.9971446,,,0,,,0
n7842767185,,Sup Elite,,5.3419503,-3.9993044,,,0,,,0
n7842767186,,Allocodrome,,5.338118,-3.9998201,,,0,,,0
n7842767187,,CHU de Cocody,,5.3462642,-3.9928664,,,0,,,0
n7842852286,,CIE,,5.3385483,-4.0037783,,,0,,,0
n7842852287,,La vie,,5.3480575,-4.002625,,,0,,,0
n7842852485,,SGBCI,,5.3391525,-4.0037032,,,0,,,0
n7842905485,,Fondation Children of Africa,,5.331295,-4.0009084,,,0,,,0
n7842905486,,Banque Mondiale,,5.3290303,-4.0010901,,,0,,,0
n7842905585,,Feu de la patisserie,,5.3350402,-4.0002445,,,0,,,0
n7842905586,,Pharmacie La Piété,,5.333784,-4.0003525,,,0,,,0
n7842905685,,Feu de la patisserie,,5.335163,-4.0001801,,,0,,,0
n7843256286,,Jacques Prevet,,5.3460559,-3.9494763,,,0,,,0
n7843264787,,Akouédo,,5.3486104,-3.9407814,,,0,,,0
n7843264988,,Roi du Pain,,5.3462155,-3.945997,,,0,,,0
n7843272185,,Cité Universitaire,,5.3532937,-3.9741714,,,0,,,0
n7843272285,,Akouédo,,5.348655,-3.9408264,,,0,,,0
n7843272486,,Station Riviera 2,,5.3513368,-3.9761486,,,0,,,0
n7843272685,,Jacques Prevet,,5.3459542,-3.9495562,,,0,,,0
n7843524985,,Station Riviera 2,,5.3512227,-3.9763494,,,0,,,0
n7843524986,,Pharmacie de la 2,,5.3530206,-3.976519,,,0,,,0
n7843525285,,Cité Belles Fleurs Riviera 3,,5.3463684,-3.9526092,,,0,,,0
n7843525286,,M'pouto - CIAD,,5.328332,-3.9410193,,,0,,,0
n7843525385,,Carrefour Sol Béni,,5.3312269,-3.957818,,,0,,,0
n7843525386,,Ecole Libanaise,,5.3284448,-3.9453229,,,0,,,0
n7843525585,,Mosquée Cité Eden,,5.328365,-3.9402086,,,0,,,0
n7843525885,,Institut Britanique,,5.3327685,-3.9576074,,,0,,,0
n7843525886,,Lamiyia,,5.3359572,-3.9581345,,,0,,,0
n7843927985,,Siporex - Gare SBTA,,5.3557302,-4.0745615,,,0,,,0
n7843927986,,Poisson d’Afrique,,5.3467349,-4.0722866,,,0,,,0
n7843927987,,Siporex - Pharmacie,,5.3556578,-4.074541,,,0,,,0
n7843928085,,Toit Rouge Jean-Paul 2,,5.330652,-4.0473904,,,0,,,0
n7843928086,,Yopougon Bouassi,,5.3294262,-4.0500458,,,0,,,0
n7843928185,,Toit Rouge Jean-Paul 2,,5.3306046,-4.0473468,,,0,,,0
n7843928285,,Maquis chez Raoul,,5.3309398,-4.0515082,,,0,,,0
n7843928385,,Offoumou Yapo,,5.3317363,-4.0523297,,,0,,,0
n7844053285,,5 étoiles,,5.3366368,-4.0622411,,,0,,,0
n7844053286,,Carrefour Koweit,,5.3221935,-4.0540805,,,0,,,0
n7844053385,,Ghandi,,5.3233833,-4.0598372,,,0,,,0
n7844054485,,Carrefour Koweit,,5.3221381,-4.0541,,,0,,,0
n7847553385,,Siporex,,5.3556938,-4.0736002,,,0,,,0
n7847553386,,Andokoi - Zone Industrielle,,5.3690635,-4.0806779,,,0,,,0
n7847553387,,Siporex,,5.3556551,-4.0735647,,,0,,,0
n7847553485,,Zone Industrielle,,5.3691917,-4.0801911,,,0,,,0
n7847553585,,Garage,,5.3618693,-4.0688038,,,0,,,0
n7855287155,,Carrefour sapeur-pompier,,5.3283115,-4.0611394,,,0,,,0
n7855287156,,Cité Gem2,,5.3278994,-4.062754,,,0,,,0
n7855287157,,Marché,,5.3256788,-4.0623867,,,0,,,0
n7855287158,,Hôtel Lagunaire,,5.3244122,-4.0623306,,,0,,,0
n7855287159,,Yopougon Camp Militaire,,5.3230698,-4.0623259,,,0,,,0
n7855287160,,Camp militaire - King Cash,,5.3189849,-4.0615875,,,0,,,0
n7855287161,,Carrefour,,5.3247987,-4.062418,,,0,,,0
n7855287162,,Yopougon Camp Militaire,,5.3232825,-4.0624124,,,0,,,0
n7855287164,,Camp militaire - King Cash,,5.318986,-4.0616871,,,0,,,0
n7855287166,,Carrefour sapeur-pompier,,5.3283527,-4.0611894,,,0,,,0
n7855330728,,Carrefour,,5.3289869,-4.0709496,,,0,,,0
n7855330729,,CNPS,,5.3281345,-4.0654311,,,0,,,0
n7855330730,,Kouté Terminus 40,,5.3302866,-4.0741618,,,0,,,0
n7855330732,,Kouté Terminus 40,,5.3303458,-4.0741175,,,0,,,0
n7855330733,,Carrefour Kouté,,5.3290522,-4.0693829,,,0,,,0
n7855330734,,CNPS,,5.3282352,-4.0657525,,,0,,,0
n7855330735,,Pharmacie Nankoko,,5.3280605,-4.0633929,,,0,,,0
n7866306285,,Yopougon Gabriel Gare,,5.3563641,-4.0726058,,,0,,,0
n7866306286,,Yopougon Prison Civil,,5.3923934,-4.0835211,,,0,,,0
n7866306485,,Yopougon Prison Civil,,5.3922892,-4.0835378,,,0,,,0
n7866306685,,Yopougon Gabriel Gare,,5.3563962,-4.0726501,,,0,,,0
n7866467385,,Lavage le Sticker,,5.3437542,-4.0692453,,,0,,,0
n7866467386,,Ghandi,,5.3248704,-4.0598189,,,0,,,0
n7866467485,,Camp militaire,,5.3187601,-4.0617654,,,0,,,0
n7866467486,,Siporex,,5.3554485,-4.0745623,,,0,,,0
n7866467585,,CNPS,,5.3280703,-4.0656275,,,0,,,0
n7869419886,,Mossikro,,5.3409601,-4.046634,,,0,,,0
n7869419985,,Clinique Chinoise,,5.3466995,-4.0677269,,,0,,,0
n7869420085,,Bonnet Rouge,,5.3466982,-4.0658829,,,0,,,0
n7869420086,,Bonnet Rouge,,5.3466344,-4.0661276,,,0,,,0
n7869420186,,Gabriel Gare,,5.3564776,-4.0715805,,,0,,,0
n7869420285,,Boulangerie Patisserie au Blé Doré,,5.350995,-4.0685386,,,0,,,0
n7869930486,,Derrière Rail,,5.4150481,-4.033528,,,0,,,0
n7869930487,,Gare des Taxis,,5.414946,-4.0301672,,,0,,,0
n7869930985,,1er Carrefour,,5.4149947,-4.0315439,,,0,,,0
n7869930986,,Petit Carrefour,,5.4148759,-4.0290166,,,0,,,0
n7869930987,,Abobo Gare Mairie,,5.4198898,-4.0179059,,,0,,,0
n7873445787,,King Deco,,5.3360947,-4.0623316,,,0,,,0
n7873450686,,Yopougon Complexe,,5.3404965,-4.0622572,,,0,,,0
n7873450785,,Brésil,,5.3357048,-4.0622424,,,0,,,0
n7873450786,,Pharmacie Laoulo,,5.3332265,-4.0623491,,,0,,,0
n7873450885,,Carrefour Gandhi,,5.3237311,-4.0595019,,,0,,,0
n7873450886,,Yopougon Kowëit,,5.3222442,-4.0544339,,,0,,,0
n7875553955,,Banque BHCI,,5.3408149,-4.0730457,,,0,,,0
n7875553956,,Carrefour marché de Selmer,,5.3408336,-4.0680018,,,0,,,0
n7875553957,,Complexe,,5.3408149,-4.0631363,,,0,,,0
n7875553958,,Carrefour Lama Fofana,,5.337894,-4.0550119,,,0,,,0
n7875553959,,Coopec Selmer,,5.3407428,-4.0667083,,,0,,,0
n7875553960,,Banque BHCI,,5.3407328,-4.0730511,,,0,,,0
n7875631029,,Espace Karamel,,5.3408163,-4.065966,,,0,,,0
n7875631030,,Petit Prix,,5.340859,-4.059066,,,0,,,0
n7875631031,,Carrefour Lama Fofana,,5.337896,-4.0551084,,,0,,,0
n7875631032,,Carrefour marché de Selmer,,5.3407215,-4.0677845,,,0,,,0
n7876023212,,Picasso,,5.339007,-4.0622002,,,0,,,0
n7876023213,,Clinique les Oliviers,,5.3331731,-4.0622297,,,0,,,0
n7876023214,,Eco Prix,,5.3312476,-4.0620419,,,0,,,0
n7876023215,,Carrefour sapeur-pompier,,5.3286918,-4.0609691,,,0,,,0
n7876023217,,Poisson d’Afrique,,5.3312169,-4.0622016,,,0,,,0
n7876023218,,Pharmacie Nouveau Quartier,,5.3386518,-4.0623558,,,0,,,0
n7876057936,,Rond-point du Palais de justice,,5.325454,-4.0769248,,,0,,,0
n7876057937,,[Arrêt],,5.3260553,-4.0739022,,,0,,,0
n7876057940,,Snedai,,5.3264284,-4.0599383,,,0,,,0
n7876057941,,Rond-point du Palais de justice,,5.3251856,-4.0770448,,,0,,,0
n7876367204,,Pharmacie Nankoko,,5.3282084,-4.0632087,,,0,,,0
n7876367205,,Carrefour Asanvon,,5.332464,-4.0670992,,,0,,,0
n7876367206,,Saguidiba,,5.3321289,-4.073153,,,0,,,0
n7876367208,,Saguidiba,,5.3322464,-4.0731516,,,0,,,0
n7876367209,,Carrefour Lonaci,,5.3324186,-4.0686053,,,0,,,0
n7876367210,,Harmonie,,5.3321916,-4.0654081,,,0,,,0
n7876448804,,Carrefour Gandhi,,5.3236844,-4.0603106,,,0,,,0
n7876448805,,carrefour Santé Village,,5.3098276,-4.0439826,,,0,,,0
n7876448806,,Abobo Doumé Bateau-bus,,5.3113566,-4.0359709,,,0,,,0
n7876448807,,Abobo Doumé Bateau-bus,,5.3113192,-4.0358596,,,0,,,0
n7876448808,,Marché Abobo Doumé,,5.3078112,-4.0384948,,,0,,,0
n7876565391,,"Gare de Woro Woro, Deux Plateau - Vallon",,5.3782458,-4.006315,,,0,,,0
n7876565392,,Aghien,,5.3850112,-3.9903492,,,0,,,0
n7876565393,,Espace Opera,,5.3852742,-3.9927494,,,0,,,0
n7876565394,,Termunis Pont Soro,,5.3849912,-3.9830348,,,0,,,0
n7876565395,,Restaurant Rehobaoth,,5.3909614,-3.9864593,,,0,,,0
n7876580785,,Sable,,5.3566645,-4.0663335,,,0,,,0
n7876580786,,Carrefour Pitch,,5.3466294,-4.0604427,,,0,,,0
n7876580787,,Station Total Bel Air,,5.3483532,-4.0634353,,,0,,,0
n7876580788,,Sable,,5.3564098,-4.0665004,,,0,,,0
n7876580885,,Carrefour Centre Medical Saint Sauveur,,5.346561,-4.0593634,,,0,,,0
n7876580985,,Mossikro,,5.3409057,-4.0467218,,,0,,,0
n7876590801,,Salon de beauté,,5.3842087,-3.9944972,,,0,,,0
n7876590802,,Cascades,,5.3806037,-3.9854421,,,0,,,0
n7876590804,,Cascades,,5.3805984,-3.9853267,,,0,,,0
n7876590805,,Espace Opera,,5.3852295,-3.9927699,,,0,,,0
n7876590806,,Station Service Total Las Palmas,,5.3807853,-3.9950672,,,0,,,0
n7876590807,,Lavage Professionel,,5.3799935,-3.9962286,,,0,,,0
n7876590808,,Gare Warren Zoo,,5.378183,-4.0061947,,,0,,,0
n7876632885,,Afriquia,,5.3519124,-4.0633616,,,0,,,0
n7876632886,,Carrefour Gecos-Formation,,5.3474352,-4.057112,,,0,,,0
n7876632887,,Millionnaire Antenne,,5.3482564,-4.0504588,,,0,,,0
n7876632985,,Bel Air,,5.3467262,-4.0629204,,,0,,,0
n7876633085,,Carrefour Pitch,,5.3467182,-4.060438,,,0,,,0
n7876633086,,Carrefour Gecos-Formation,,5.3473044,-4.0570879,,,0,,,0
n7876633185,,Millionnaire Antenne,,5.3481897,-4.0505487,,,0,,,0
n7876641853,,Carrefour Gadji,,5.3788893,-3.9992072,,,0,,,0
n7876641854,,Station Service Shell,,5.3845559,-3.9874028,,,0,,,0
n7876641855,,Organisation Mondiale de la Santé,,5.3838522,-3.9931373,,,0,,,0
n7878290488,,Carrefour CFOMIS,,5.3308723,-4.063784,,,0,,,0
n7878315786,,Carrefour Lonaci,,5.3323445,-4.0686475,,,0,,,0
n7878317585,,Carrefour Sicogi 10,,5.3322643,-4.0724613,,,0,,,0
n7878317586,,Canaan,,5.332416,-4.0662792,,,0,,,0
n7878317785,,Carrefour Marché,,5.3295183,-4.0635265,,,0,,,0
n7878317885,,Saint Mathias,,5.3321769,-4.0704614,,,0,,,0
n7878348685,,Carrefour Saint Laurent,,5.3251045,-4.0699256,,,0,,,0
n7878348686,,Carrefour Saint Laurent,,5.3250637,-4.0707015,,,0,,,0
n7878348885,,Garage,,5.3236683,-4.0642983,,,0,,,0
n7878384486,,Carrefour Sebgé,,5.3259751,-4.0491828,,,0,,,0
n7878395385,,La Référence,,5.3268664,-4.0500927,,,0,,,0
n7878395585,,Immeuble Elite,,5.3300959,-4.0467238,,,0,,,0
n7878395586,,Ciollège OSCAD,,5.3276162,-4.0471885,,,0,,,0
n7878395785,,Carrefour Koweit,,5.3221311,-4.0540623,,,0,,,0
n7878542186,,Boulagerie Blé Doré,,5.3235689,-4.056587,,,0,,,0
n7878542187,,Carrefour Cité El Shaddai,,5.3233512,-4.0562242,,,0,,,0
n7881213785,,Carrefour Saint Laurent,,5.3254203,-4.0701476,,,0,,,0
n7881213885,,Garage,,5.3284541,-4.0694314,,,0,,,0
n7881213886,,Carrefour Kouté,,5.3288574,-4.0692852,,,0,,,0
n7881343885,,Clinique du Lavage,,5.3408023,-4.0722685,,,0,,,0
n7881343886,,Complexe,,5.3406921,-4.0625569,,,0,,,0
n7881343985,,Complexe,,5.3408243,-4.0625777,,,0,,,0
n7881344086,,Station Total Selmer,,5.3407308,-4.0642869,,,0,,,0
n7881452485,,Keneya,,5.3466333,-4.0736738,,,0,,,0
n7881452486,,Garage,,5.3476298,-4.0759399,,,0,,,0
n7881452487,,Nouveau Goudron,,5.3553044,-4.0793105,,,0,,,0
n7881452686,,Nouveau Goudron,,5.3553026,-4.0793834,,,0,,,0
n7881452786,,Pharmacie de l'Amitié,,5.3535344,-4.0793096,,,0,,,0
n7881452787,,CDCI,,5.3521277,-4.0792825,,,0,,,0
n7881452788,,Keneya,,5.3466974,-4.0738378,,,0,,,0
n7881639185,,Gare CTE,,5.3619334,-4.0667988,,,0,,,0
n7881639186,,Pharmacie La Délivrance,,5.3687764,-4.0794294,,,0,,,0
n7881639187,,Slot,,5.3707562,-4.0759019,,,0,,,0
n7881639285,,Carrefour harriste,,5.3649484,-4.068142,,,0,,,0
n7881639385,,Carrefour Marché,,5.3664905,-4.0709361,,,0,,,0
n7881639485,,Carrefour Marché,,5.3664498,-4.0711594,,,0,,,0
n7881639585,,Zone Industrielle,,5.3690143,-4.0801185,,,0,,,0
n7884163082,,Gare Carrefour Deux Plateaux,,5.3648622,-4.0156022,,,0,,,0
n7884163083,,Espace Service Moov,,5.3684306,-4.0041485,,,0,,,0
n7884163084,,2 Plateaux Vallon,,5.3618046,-3.9899864,,,0,,,0
n7884215686,,Pharmacie du Vallon,,5.363501,-3.9898664,,,0,,,0
n7884215687,,École International Claire Fontaine,,5.3634943,-3.9916286,,,0,,,0
n7884215688,,ENA,,5.3623954,-3.9967865,,,0,,,0
n7884215689,,Gare Carrefour Deux Plateaux,,5.3648656,-4.0155056,,,0,,,0
n7884296055,,Pressing Grâce,,5.3655098,-4.0134859,,,0,,,0
n7884296056,,École PMU,,5.370342,-3.9999213,,,0,,,0
n7884296057,,Ecole Blanche Neige,,5.3731206,-3.9999401,,,0,,,0
n7884296058,,Pizzaria,,5.3743827,-3.995436,,,0,,,0
n7884296059,,Commissariat du 12è,,5.3739558,-3.9920966,,,0,,,0
n7884296060,,Carrefour Rue du commissariat du 12è,,5.3739931,-3.9951865,,,0,,,0
n7884296061,,Commissariat du 12è,,5.3738963,-3.992104,,,0,,,0
n7884296062,,Boulangerie le Roi du Pain,,5.3748443,-3.9981464,,,0,,,0
n7884343660,,Adjamé Liberté,,5.3541756,-4.0164605,,,0,,,0
n7884343661,,Somafix,,5.3483299,-4.0189844,,,0,,,0
n7884343662,,Adjamé Liberté,,5.3465433,-4.022584,,,0,,,0
n7884343663,,Saint Michel,,5.346594,-4.0225464,,,0,,,0
n7884343665,,Adjamé Liberté,,5.3542023,-4.0165651,,,0,,,0
n7884348009,,Mobilia,,5.380778,-3.9942377,,,0,,,0
n7884438888,,Carrefour CHU,,5.3552719,-4.0889686,,,0,,,0
n7884438889,,Carrefour Marché,,5.3553373,-4.0865962,,,0,,,0
n7884438890,,Sable,,5.3559989,-4.0670034,,,0,,,0
n7884438891,,Bon Prix,,5.3558474,-4.0701073,,,0,,,0
n7884438892,,Gabriel Gare,,5.3558046,-4.0714934,,,0,,,0
n7884438893,,Marché Siporex,,5.3556257,-4.0761239,,,0,,,0
n7884438894,,Carrefour Marché Siporex,,5.3554922,-4.0792564,,,0,,,0
n7884438895,,Carrefour Zone,,5.3553086,-4.0851887,,,0,,,0
n7884438897,,Carrefour CHU,,5.3551898,-4.088968,,,0,,,0
n7884491886,,Petit Carrefour,,5.4147571,-4.0287128,,,0,,,0
n7884491887,,Derrière Rail,,5.4149794,-4.0332518,,,0,,,0
n7884492185,,Abobo Gendarmerie,,5.425723,-4.0210149,,,0,,,0
n7884492285,,Carrefour 21ème,,5.4146569,-4.0240257,,,0,,,0
n7884492286,,Derrière Rail,,5.4151109,-4.0332719,,,0,,,0
n7884492385,,Abobo Gendarmerie,,5.4257877,-4.0211282,,,0,,,0
n7884545387,,Après le Pont,,5.3645077,-4.0827928,,,0,,,0
n7884545388,,Carrefour Zone,,5.3556551,-4.084834,,,0,,,0
n7884552460,,Zone Industrielle,,5.3700756,-4.0821706,,,0,,,0
n7884552461,,Micao - Fin goudron,,5.377721,-4.0963514,,,0,,,0
n7884552462,,Micao - Fin goudron,,5.3778165,-4.0963045,,,0,,,0
n7884616329,,Au Mouton,,5.3469626,-4.0857071,,,0,,,0
n7884616330,,Carrefour Koudous,,5.3469666,-4.0873016,,,0,,,0
n7884616331,,Carrefour CHU,,5.3549795,-4.0892825,,,0,,,0
n7884616333,,Carrefour CHU,,5.3549741,-4.0891524,,,0,,,0
n7884616334,,Au Mouton,,5.347028,-4.0857513,,,0,,,0
n7884616335,,Au feu du Phoenix,,5.3479239,-4.0789492,,,0,,,0
n7884632289,,Abobo Marché,,5.4239373,-4.0152481,,,0,,,0
n7884635486,,Mosquée Ado Kenedy,,5.4235888,-3.9979184,,,0,,,0
n7884635587,,Carrefour 14ème,,5.4235007,-4.0143898,,,0,,,0
n7884635588,,Carrefour Express,,5.4225454,-4.0028007,,,0,,,0
n7884640186,,Mosquée Ado Kenedy,,5.4236816,-3.9978822,,,0,,,0
n7884683655,,Gabriel Gare,,5.3556885,-4.0715349,,,0,,,0
n7884683656,,Mairie de Yopougon,,5.3439422,-4.0678959,,,0,,,0
n7884683657,,Église pentecote,,5.3484554,-4.0679267,,,0,,,0
n7884683658,,Groupe scolaire etran,,5.3509817,-4.0704668,,,0,,,0
n7884683659,,Lavage Auto,,5.3542063,-4.071596,,,0,,,0
n7884683661,,Gabriel Gare,,5.3556885,-4.0716007,,,0,,,0
n7884683662,,Collège Moderne Amadou Hampaté Ba,,5.3504389,-4.0678,,,0,,,0
n7884683663,,Mairie de Yopougon,,5.3439355,-4.0677913,,,0,,,0
n7884688605,,Bel Air,,5.34659,-4.0638658,,,0,,,0
n7884688606,,Restaurant Wamh,,5.34751,-4.0678865,,,0,,,0
n7884688607,,Supermarché,,5.3510738,-4.07068,,,0,,,0
n7884688610,,Bel Air,,5.3467222,-4.0639651,,,0,,,0
n7884719686,,Abobo Marché,,5.42369,-4.0155796,,,0,,,0
n7884719785,,Abobo Marché,,5.4237584,-4.01568,,,0,,,0
n7884719885,,Carrefour Kennedy,,5.4184273,-4.0060213,,,0,,,0
n7884720085,,Marché du Dokui,,5.3958635,-4.0009902,,,0,,,0
n7884720185,,Marché du Dokui,,5.3958201,-4.0014119,,,0,,,0
n7884720285,,Rond Point,,5.396511,-4.002914,,,0,,,0
n7884722630,,Parc auto,,5.3479787,-4.0953496,,,0,,,0
n7884722631,,Pharmacie Bethesda,,5.3489601,-4.0953469,,,0,,,0
n7884722632,,Coopec Ananeraie,,5.3473431,-4.0953362,,,0,,,0
n7884722633,,Supermarché Nasr,,5.3505023,-4.095304,,,0,,,0
n7884722634,,Station Total Ananeraie,,5.35489,-4.0953362,,,0,,,0
n7884722635,,Station Total Ananeraie,,5.3548806,-4.0952021,,,0,,,0
n7884722637,,Coopec Ananeraie,,5.3473384,-4.0952309,,,0,,,0
n7884794185,,Plaque 1,,5.4354484,-4.0067402,,,0,,,0
n7884794285,,Abobo Marché,,5.4240728,-4.0153943,,,0,,,0
n7884829885,,Abobo Marché,,5.4237948,-4.0151221,,,0,,,0
n7885028586,,Carrefour Perception,,5.4877199,-4.0515527,,,0,,,0
n7885028587,,Au marché,,5.4961561,-4.0516723,,,0,,,0
n7885028588,,Carrefour Terrain,,5.5011979,-4.0521667,,,0,,,0
n7885028589,,Carrefour Garage,,5.5128381,-4.0597819,,,0,,,0
n7885028590,,Carrefour Sylla,,5.486412,-4.0513673,,,0,,,0
n7885028591,,Policier,,5.4835085,-4.0513001,,,0,,,0
n7885028987,,Carrefour Maternité,,5.4986063,-4.0512827,,,0,,,0
n7885028988,,Carrefour Garage,,5.4871743,-4.051409,,,0,,,0
n7885073685,,Carrefour Garage,,5.5133877,-4.0596771,,,0,,,0
n7885074885,,Ancienne Gendarmerie,,5.4618976,-4.0537521,,,0,,,0
n7887860476,,Au feu du Phoenix,,5.3478318,-4.0789533,,,0,,,0
n7887860477,,Coopec Ananeraie,,5.3469572,-4.0952142,,,0,,,0
n7887860478,,Coopec Ananeraie,,5.3470373,-4.0952235,,,0,,,0
n7887860479,,Carrefour Niangon,,5.3470439,-4.089347,,,0,,,0
n7887876462,,Clinique Chinoise,,5.346606,-4.0675552,,,0,,,0
n7887876463,,Espace Open,,5.3465887,-4.070503,,,0,,,0
n7887876464,,Pharmacie Keneya,,5.346606,-4.0729371,,,0,,,0
n7887876466,,Pharmacie Keneya,,5.3467062,-4.072925,,,0,,,0
n7888055021,,Bel Air,,5.3466221,-4.0625837,,,0,,,0
n7888087745,,Pharmacie du Cinéma Boissy,,5.3273859,-4.0506479,,,0,,,0
n7888087746,,Carrefour sapeur-pompier,,5.3288267,-4.0606271,,,0,,,0
n7888129900,,Station Service Shell,,5.3205156,-4.0439746,,,0,,,0
n7888143686,,Carrefour Cissé,,5.4827269,-4.0513681,,,0,,,0
n7888143986,,Gare d'Anyama,,5.4809714,-4.0529385,,,0,,,0
n7888144686,,Carrefour Garage,,5.4871256,-4.0515089,,,0,,,0
n7888144687,,Mairie d'Anyama,,5.5066317,-4.0535554,,,0,,,0
n7888144688,,Au marché,,5.4961498,-4.0515786,,,0,,,0
n7888144689,,Carrefour Perception,,5.4878197,-4.0514177,,,0,,,0
n7888144786,,Carrefour Sylla,,5.4864074,-4.0514774,,,0,,,0
n7888144885,,Policier,,5.4835065,-4.0513936,,,0,,,0
n7888144985,,Poteau,,5.4890099,-4.0515874,,,0,,,0
n7888144986,,La Poste,,5.4952481,-4.0517798,,,0,,,0
n7888144987,,Carrefour Maternité,,5.4983565,-4.0514003,,,0,,,0
n7888144989,,Gare d'Anyama,,5.4807017,-4.0530103,,,0,,,0
n7888145085,,Mairie d'Anyama,,5.507161,-4.0538237,,,0,,,0
n7888145285,,Ecole Plateau,,5.5004937,-4.0517811,,,0,,,0
n7888148152,,Sable,,5.3552725,-4.0656804,,,0,,,0
n7888217787,,Carrefour Bassolé,,5.4410755,-4.0086811,,,0,,,0
n7888218088,,Houphouët-Boigny,,5.4429356,-4.0088395,,,0,,,0
n7888218089,,4 Etages,,5.4386075,-4.0078209,,,0,,,0
n7888218090,,Plaque 2,,5.438703,-4.0058866,,,0,,,0
n7888218686,,Plaque 1,,5.4354247,-4.0066666,,,0,,,0
n7888223366,,Mossikro,,5.3409859,-4.0463497,,,0,,,0
n7888223367,,Collège privé Oscad,,5.3318912,-4.0408096,,,0,,,0
n7888223368,,Formation Sanitaire Urbaine d' Abobodoumé-Locodjro,,5.3159421,-4.035484,,,0,,,0
n7888223369,,carrefour Santé Village,,5.3095539,-4.0440953,,,0,,,0
n7888223370,,carrefour Santé Village,,5.30964,-4.043982,,,0,,,0
n7888223371,,Formation Sanitaire Urbaine d' Abobodoumé-Locodjro,,5.3159381,-4.0355726,,,0,,,0
n7888223372,,Foyer Des Jeunes De Locodjro,,5.3251706,-4.0372288,,,0,,,0
n7888223373,,Mossikro,,5.3409071,-4.046347,,,0,,,0
n7888224385,,Houphouët-Boigny,,5.4429873,-4.0087401,,,0,,,0
n7888224485,,Au Lycée,,5.4276392,-4.0145706,,,0,,,0
n7888269186,,Gendarmerie Bandji,,5.4259072,-4.0205985,,,0,,,0
n7888269187,,BC Carrefour Niamkey,,5.4437109,-4.0267102,,,0,,,0
n7888284985,,BC Carrefour Niamkey,,5.4436183,-4.0266352,,,0,,,0
n7888285085,,Abobo Gendarmerie,,5.4259967,-4.0197636,,,0,,,0
n7888312787,,Gros Pneu,,5.441069,-4.0204892,,,0,,,0
n7888315788,,BC (Belle Cité),,5.4458966,-4.0206387,,,0,,,0
n7888321685,,Abobo Gendarmerie,,5.4271989,-4.0200077,,,0,,,0
n7888340985,,Lavage,,5.4351095,-4.0119393,,,0,,,0
n7888340986,,Habitat Grâce,,5.4355545,-4.0028133,,,0,,,0
n7888341085,,Boulangerie,,5.4353675,-4.0072833,,,0,,,0
n7888341086,,Boulangerie,,5.4353009,-4.0072159,,,0,,,0
n7888341087,,Pharmacie,,5.4352314,-4.0088454,,,0,,,0
n7888341185,,Habitat Grâce,,5.435444,-4.0027991,,,0,,,0
n7888341285,,Plaque 1,,5.4353169,-4.0067215,,,0,,,0
n7888341685,,Abobo Marché,,5.4261747,-4.0146574,,,0,,,0
n7888460985,,Pharmacie Clotcha,,5.4234646,-4.0028452,,,0,,,0
n7888460986,,Carrefour Paweur,,5.4249004,-3.9903128,,,0,,,0
n7888460988,,Commissariat,,5.420603,-3.9905722,,,0,,,0
n7888461085,,Abobo Baoulé,,5.4211595,-3.9905211,,,0,,,0
n7888461185,,Abobo Gare Mairie,,5.4201316,-4.016639,,,0,,,0
n7891132286,,Abobo Gendarmerie,,5.4265617,-4.01992,,,0,,,0
n7891134485,,Camp Commando,,5.4349889,-4.0186305,,,0,,,0
n7891134585,,Complexe sportif d’Abobo,,5.4382139,-4.0162955,,,0,,,0
n7891134586,,Avenue Kaza,,5.4381206,-4.0189253,,,0,,,0
n7891172191,,Carrefour Diamant,,5.417609,-3.9911906,,,0,,,0
n7891177185,,Abobo Baoulé,,5.4211662,-3.9905884,,,0,,,0
n7891177186,,Samaké,,5.4154309,-4.0060163,,,0,,,0
n7891432685,,Derrière Rail,,5.4150836,-4.0334253,,,0,,,0
n7891521786,,SGBCI,,5.4017155,-4.0064494,,,0,,,0
n7891521787,,Menuiserie,,5.4106591,-4.006392,,,0,,,0
n7891521788,,Samaké,,5.4155205,-4.006376,,,0,,,0
n7891523887,,Carrefour Policier,,5.3987447,-4.0065442,,,0,,,0
n7891523888,,Carrefour Kennedy,,5.4184893,-4.0060904,,,0,,,0
n7891527285,,Azur Mobile,,5.3998315,-4.0065976,,,0,,,0
n7891527286,,1ère Boutique,,5.40722,-4.0064467,,,0,,,0
n7891527385,,Au Lycée,,5.427052,-4.0146076,,,0,,,0
n7894268185,,34e,,5.4200004,-3.9907569,,,0,,,0
n7894268186,,Defao,,5.4401007,-3.9850842,,,0,,,0
n7894269685,,Carrefour Mosquée,,5.4415198,-3.9832038,,,0,,,0
n7894269785,,Carrefour Paweur,,5.4251684,-3.9898671,,,0,,,0
n7894269885,,Samaké,,5.415268,-4.0061692,,,0,,,0
n7902826896,,Carrefour Marché,,5.3552785,-4.0862086,,,0,,,0
n7902826897,,Station Total Ananeraie,,5.3550115,-4.0954489,,,0,,,0
n7902826898,,Carrefour Ananeraie,,5.3547404,-4.1026117,,,0,,,0
n7902826899,,Bonikro,,5.3489187,-4.1048969,,,0,,,0
n7902826900,,À l'école,,5.337665,-4.1141653,,,0,,,0
n7902826901,,Institut Pasteur,,5.3383847,-4.1407728,,,0,,,0
n7902826902,,Carrefour Église,,5.3409284,-4.1665462,,,0,,,0
n7902826903,,Carrefour SAPH,,5.339003,-4.1730425,,,0,,,0
n7902826904,,Sous Préfecture Songon,,5.3187971,-4.201777,,,0,,,0
n7902826905,,Carrefour École,,5.3186315,-4.2127244,,,0,,,0
n7902826912,,Songon Dagbé Jérusalem,,5.3208174,-4.2184228,,,0,,,0
n7902826913,,Songon Dagbé,,5.3212714,-4.2280781,,,0,,,0
n7902826914,,Carrefour Jacqueville,,5.3210565,-4.2309594,,,0,,,0
n7902826915,,Songon-Thé,,5.3216346,-4.2369273,,,0,,,0
n7902826916,,Pharmacie de Songon,,5.325019,-4.2517532,,,0,,,0
n7902826917,,Pharmacie de Songon,,5.3250798,-4.2517667,,,0,,,0
n7902826918,,Marché de Songon,,5.3254597,-4.2494472,,,0,,,0
n7902826919,,Songon-Thé,,5.3220539,-4.2374101,,,0,,,0
n7902826920,,Carrefour Jacqueville,,5.3211266,-4.2312786,,,0,,,0
n7902826921,,A la Porte,,5.3199869,-4.2161576,,,0,,,0
n7902826922,,Kassamblé,,5.3187316,-4.2118272,,,0,,,0
n7902826923,,Carrefour PFO,,5.3193372,-4.2055099,,,0,,,0
n7902826924,,Sous Préfecture Songon,,5.3188972,-4.2016992,,,0,,,0
n7902826925,,Adiapoto 1,,5.3191443,-4.1938645,,,0,,,0
n7902826926,,Carrefour Gravier,,5.3315213,-4.1857803,,,0,,,0
n7902826927,,Nouveau Goudron,,5.3379715,-4.1768271,,,0,,,0
n7902826928,,Espace Brique,,5.3418031,-4.1640061,,,0,,,0
n7902826929,,Marché Km 17,,5.3375505,-4.1269638,,,0,,,0
n7902826930,,Pharmacie Inox,,5.3378473,-4.113126,,,0,,,0
n7902877638,,Sable,,5.355344,-4.0656059,,,0,,,0
n7902959147,,Siporex,,5.3543072,-4.0740039,,,0,,,0
n7902959148,,Garage,,5.3354351,-4.0887111,,,0,,,0
n7902959149,,Pharmacie Niangon Nord,,5.3293087,-4.1025755,,,0,,,0
n7902959150,,Saint André,,5.3422998,-4.074592,,,0,,,0
n7902959151,,Kabadougou,,5.3533518,-4.0741803,,,0,,,0
n7902973078,,Terminus bus 47,,5.3395411,-4.0827969,,,0,,,0
n7902973079,,Station Pétro Ivoire,,5.3354417,-4.0905686,,,0,,,0
n7902973080,,Carrefour Bouby,,5.3324273,-4.0907697,,,0,,,0
n7902973081,,Église Sainte-Rita,,5.3275715,-4.0968141,,,0,,,0
n7903002099,,CMA,,5.3551584,-4.0904137,,,0,,,0
n7903002100,,Arrêt Annaneraie 2e,,5.3584551,-4.0949889,,,0,,,0
n7903002102,,Gare Gesco,,5.3670934,-4.1019043,,,0,,,0
n7903535327,,Carrefour Académie,,5.3238606,-4.1069488,,,0,,,0
n7903535328,,Carrefour Chambéry,,5.3237525,-4.1093025,,,0,,,0
n7903535329,,À l'école,,5.3190974,-4.1123645,,,0,,,0
n7903535330,,Yopougon Diop,,5.3133707,-4.1114532,,,0,,,0
n7903535331,,Yopougon Diop,,5.3133753,-4.1115303,,,0,,,0
n7903535332,,Carrefour Bawin,,5.3145559,-4.1109541,,,0,,,0
n7903535333,,À l'église,,5.315156,-4.1106179,,,0,,,0
n7903535334,,Carrefour Diop,,5.3156589,-4.1103794,,,0,,,0
n7903535335,,À l'école,,5.3163336,-4.1103451,,,0,,,0
n7903535336,,Carrefour Académie,,5.3239435,-4.1069152,,,0,,,0
n7903583520,,[Arrêt],,5.3354818,-4.0732804,,,0,,,0
n7903583521,,Saguidiba,,5.3324427,-4.0733153,,,0,,,0
n7966220394,,Terre rouge,,5.2405805,-3.8997066,,,0,,,0
n7966220395,,Delice Market,,5.245862,-3.8996999,,,0,,,0
n7966220396,,Marché,,5.2474903,-3.8996905,,,0,,,0
n7966220397,,Lycée Moderne de Gonzague,,5.2504925,-3.8997374,,,0,,,0
n7966220398,,Boulangerie,,5.2524543,-3.8997442,,,0,,,0
n7966220399,,Nouvelle Station,,5.2546565,-3.8997737,,,0,,,0
n7966220400,,Carrefour deux poteaux,,5.2635079,-3.8998716,,,0,,,0
n7966220401,,Carrefour deux poteaux,,5.2634625,-3.8997388,,,0,,,0
n7966220402,,Carrefour Orange Money,,5.2516343,-3.8996449,,,0,,,0
n7966220403,,Terre rouge,,5.2411174,-3.8995939,,,0,,,0
n7966266330,,Groupe Scolaire Saint Syr,,5.2435573,-3.8997053,,,0,,,0
n7966266331,,Benogosso,,5.2754921,-3.8907923,,,0,,,0
n7966266332,,Benogosso,,5.2755322,-3.8907386,,,0,,,0
n7966266333,,Groupe Scolaire Nyl's,,5.2644087,-3.8967548,,,0,,,0
n7966266334,,Lycée Moderne de Gonzague,,5.2506621,-3.8996382,,,0,,,0
n7966272062,,Direction de la Sotra,,5.367763,-4.0775263,,,0,,,0
n7966272063,,Marché 23è,,5.3618513,-4.072058,,,0,,,0
n7966272064,,Marché 23è,,5.3617999,-4.0720566,,,0,,,0
n7966272065,,Prestige,,5.3618025,-4.0730209,,,0,,,0
n7966272066,,La Prudence,,5.3642207,-4.0749742,,,0,,,0
n7966272067,,Zone Industrielle,,5.3691143,-4.080232,,,0,,,0
n7966345985,,Bangui,,5.4262376,-4.0710971,,,0,,,0
n7966345986,,Carrefou N'dotré,,5.4429301,-4.0695213,,,0,,,0
n7966345987,,Cité Ado,,5.4012685,-4.0842383,,,0,,,0
n7966345988,,Prison Civile,,5.3890766,-4.0783595,,,0,,,0
n7966346085,,N'dotré,,5.443069,-4.0693992,,,0,,,0
n7966538189,,Première Porte,,5.4304569,-4.0691669,,,0,,,0
n7966538190,,Agripac,,5.444149,-4.0489883,,,0,,,0
n7966560585,,BAE,,5.3606195,-4.0850285,,,0,,,0
n7966666988,,Clinique,,5.4412441,-3.9838059,,,0,,,0
n7966666990,,Boulangerie,,5.4439634,-3.9798044,,,0,,,0
n7966666991,,Au Kiosque,,5.4431754,-3.980906,,,0,,,0
n7966666992,,Carrefour Colombe,,5.4287315,-3.9893585,,,0,,,0
n7966688489,,Etage Noir,,5.4155488,-3.9993821,,,0,,,0
n7966688490,,Fofana CDCI,,5.4264159,-3.9898099,,,0,,,0
n7966688694,,Foyer des Jeunes,,5.421857,-3.9904877,,,0,,,0
n7966701585,,Carrefour Ecole,,5.4422167,-3.9822543,,,0,,,0
n7966767630,,42,,5.3185506,-4.0779495,,,0,,,0
n7966767631,,Savant 2,,5.3148642,-4.0786163,,,0,,,0
n7966767632,,Beago Wolosso,,5.3093083,-4.0748427,,,0,,,0
n7966767633,,Oulaï,,5.309815,-4.0761371,,,0,,,0
n7966767634,,Ferronnerie,,5.3102972,-4.0770377,,,0,,,0
n7966767635,,Boutique,,5.3109371,-4.078598,,,0,,,0
n7966780488,,Beago Wolosso,,5.3092338,-4.0748175,,,0,,,0
n7966780489,,Palais de justice,,5.3244106,-4.0776034,,,0,,,0
n7966780597,,Garage,,5.3130809,-4.0787054,,,0,,,0
n7966780701,,Palais de justice,,5.3246952,-4.0773716,,,0,,,0
n7966781186,,Savant 2,,5.3148688,-4.0787247,,,0,,,0
n7966786685,,Garage,,5.3131796,-4.078575,,,0,,,0
n7966786785,,Ferronnerie,,5.3102486,-4.0769078,,,0,,,0
n7966865688,,Yopougon Kowëit,,5.3221334,-4.0542883,,,0,,,0
n7966877485,,Zone Industrielle,,5.3690422,-4.0788151,,,0,,,0
n7966877785,,Zone Industrielle,,5.369169,-4.0789747,,,0,,,0
n7966968957,,Casier,,5.2426692,-3.9159822,,,0,,,0
n7966968958,,Belleville,,5.258285,-3.9157932,,,0,,,0
n7966968959,,Belleville,,5.2582836,-3.9157006,,,0,,,0
n7966968960,,Boutique Rouge,,5.2559108,-3.9157298,,,0,,,0
n7966968961,,Carrefour Collège Simone Gbagbo,,5.2551453,-3.9157301,,,0,,,0
n7966968962,,Groupe Scolaire Les Caïmans,,5.2546839,-3.9157194,,,0,,,0
n7966968963,,Pharmacie,,5.2526026,-3.9157221,,,0,,,0
n7966968964,,Casier,,5.2428682,-3.9158803,,,0,,,0
n7966993885,,Zone Industrielle,,5.3688105,-4.0789687,,,0,,,0
n7966994285,,Gare Gesco,,5.3672343,-4.1021242,,,0,,,0
n7966994385,,Zone Industrielle,,5.3685455,-4.0789305,,,0,,,0
n7967051296,,Mobiobo,,5.242325,-3.9100016,,,0,,,0
n7967051297,,Garba Choco,,5.2439269,-3.9097934,,,0,,,0
n7967051298,,Carrefour Garage,,5.254573,-3.9075792,,,0,,,0
n7967051299,,Carrefour Garage,,5.2545169,-3.9075739,,,0,,,0
n7967051300,,Carrefour des Ecoles,,5.2515141,-3.9078759,,,0,,,0
n7967051301,,Carrefour la Joie,,5.2484692,-3.9081824,,,0,,,0
n7967051302,,Mobiobo,,5.2423203,-3.909959,,,0,,,0
n7967074786,,Yopougon Locodjro,,5.3145387,-4.0353996,,,0,,,0
n7967074787,,Carrefour Jérusalem,,5.3166071,-4.0355028,,,0,,,0
n7967074788,,Boulangerie,,5.3232924,-4.0362532,,,0,,,0
n7967074789,,Jean-Paul 2,,5.3323392,-4.0414178,,,0,,,0
n7967074790,,Garage,,5.3409358,-4.0459772,,,0,,,0
n7967074791,,Attécoubé Garage,,5.3535013,-4.0325926,,,0,,,0
n7967074792,,Cirocco,,5.3470039,-4.0452164,,,0,,,0
n7967074793,,Paharmacie Agban,,5.3586388,-4.0305579,,,0,,,0
n7967074794,,Belle-Montée,,5.3230567,-4.035952,,,0,,,0
n7967074886,,Marché,,5.3252739,-4.037112,,,0,,,0
n7967074887,,Yopougon Locodjro,,5.3145988,-4.0352325,,,0,,,0
n7967074987,,Marché,,5.3257301,-4.0371618,,,0,,,0
n7967074988,,Attécoubé Garage,,5.3533995,-4.0330855,,,0,,,0
n7967075485,,Jean-Paul 2,,5.3324444,-4.0414129,,,0,,,0
n7967102342,,Corridor,,5.2395398,-3.896319,,,0,,,0
n7967102343,,Boulangerie G&Z,,5.2480366,-3.893972,,,0,,,0
n7967102344,,Ancien terminus,,5.2525518,-3.8930386,,,0,,,0
n7967102345,,Eléphant,,5.2554444,-3.8928764,,,0,,,0
n7967102346,,Terminus Eléphant,,5.2554444,-3.8927932,,,0,,,0
n7967102347,,Ancien terminus,,5.2527127,-3.8929763,,,0,,,0
n7967102348,,Aya Débout,,5.2518293,-3.8930554,,,0,,,0
n7967102349,,Boutique Rouge,,5.2484679,-3.8938118,,,0,,,0
n7967102350,,Boulangerie G&Z,,5.2480245,-3.8939117,,,0,,,0
n7967102360,,Corridor,,5.2396063,-3.8963082,,,0,,,0
n7967112827,,Carrefour Hôpital,,5.2412309,-3.8961755,,,0,,,0
n7967112828,,Ecole,,5.2425677,-3.8959569,,,0,,,0
n7967112829,,Lavage,,5.2439633,-3.895749,,,0,,,0
n7967112830,,A l'Antenne,,5.2528803,-3.8882348,,,0,,,0
n7967112831,,Carrefour Boutique Bleue,,5.2524129,-3.8840036,,,0,,,0
n7967112832,,Boulangerie,,5.2506888,-3.8842108,,,0,,,0
n7967112833,,Collège Abraham,,5.2487904,-3.884817,,,0,,,0
n7967112834,,Connexion,,5.2477307,-3.8850966,,,0,,,0
