stop_lat,stop_lon,location_type,stop_name,stop_id,parent_station
5.3164439,-4.0893341,0,Yopougon Niangon-Terminus 27,node/768587345,
5.3198783,-4.0804016,0,Yopougon Sideci - Terminus 42,node/768587373,
5.3158647,-4.0148847,0,Gare lagunaire Aqualines du Plateau,node/1227889258,
5.3608351,-4.0171229,0,Agban,node/2381298633,
5.3438972,-4.018311,0,Fraternité Matin,node/2444131222,
5.3423485,-4.0732432,0,Saint André lavage,node/2460519991,
5.3413464,-4.0238611,0,Arrêt,node/2493226931,
5.2942027,-3.9551669,0,Gare Koumassi,node/2493730483,
5.3121324,-3.945225,0,Terminus 05 Lycée Municipal de Koumassi,node/2760843854,
5.3396167,-4.0832298,0,Terminus bus 47,node/2948146673,
5.3396157,-4.0912463,0,Arrêt du Maroc,node/3067761599,
5.3400629,-4.0973067,0,Mosquée du Maroc,node/3067766555,
5.3423254,-4.0738295,0,Saint André,node/3075945505,
5.3427541,-4.0668084,0,[Arret sans nom],node/3137208051,
5.3436761,-4.0709484,0,2 poteaux,node/3137217828,
5.3446768,-4.0679411,0,Newton,node/3137243386,
5.3531115,-3.979568,0,Riviéra 2,node/3145728412,
5.3117096,-3.9487208,0,Eglise Evangélique Internationnal Foursquare,node/3218806159,
5.3368705,-4.0037743,0,Saint Jean,node/3326195828,
5.3470567,-4.0884501,0,Pharmacie Port-Bouët II,node/3666057101,
5.3493507,-4.0734547,0,Figayo,node/3950172145,
5.3616481,-3.9973698,0,"ENA Cocody, Boulevard Latrille",node/4029208102,
5.2742845,-3.9787018,0,Pharmacie de Bietry,node/4107240891,
5.3296306,-4.061373,0,Terminus 85,node/4411562346,
5.2948647,-4.004071,0,Terminus CHU Treichville,node/4999458824,
5.30185,-4.011123,0,Ex-pharmacie Mockey,node/5057165424,
5.3369029,-4.0039817,0,Carrefour St Jean,node/5057297311,
5.4158258,-3.9933116,0,Terminus 704 abobo Belleville,node/5068855021,
5.328322,-3.940785,0,Terminus M'pouto - CIAD,node/5143730222,
5.3284442,-3.9410686,0,Terminus M'pouto - CIAD,node/5143751833,
5.3437686,-4.0711802,0,[Arret sans nom],node/5281604034,
5.3078259,-4.0374018,0,Gare lagunaire Aqualines Yopougon,node/5390465849,
5.3555889,-4.0205264,0,Stif,node/5414376221,
5.3415133,-4.0623618,0,Complexe sportif de Yopougon,node/5739489700,
5.3493427,-4.073208,0,Figayo,node/5927302128,
5.3419897,-4.1003513,0,Arrêt,node/5934409413,
5.3671401,-4.1020437,0,Yopougon Gesco - Terminus du bus 34,node/5936892363,
5.3802448,-3.967352,0,Pharmacie Val de Grace,node/5953580661,
5.3618751,-3.9593077,0,Carrefour Palmeraie,node/5953580667,
5.3582581,-3.9643623,0,Station Shell Riviera 3,node/5953580668,
5.3286164,-3.9498433,0,CIAD,node/5954541435,
5.3347766,-3.9902179,0,Boulevard de France,node/5954541439,
5.3492831,-4.0024723,0,Carrefour de la Vie,node/5954541440,
5.3989296,-3.991548,0,Carrefour 22ème,node/5957239662,
5.3855754,-3.9931428,0,Carrefour Opéra,node/5957239663,
5.3615936,-3.9975968,0,ENA,node/5957239665,
5.328578,-4.0050058,0,Hotel Ivoire,node/5957239666,
5.3975314,-3.9860303,0,Pharmacie Les Laureades,node/5958266385,
5.3806539,-3.9881294,0,Petro Ivoire 7è Tranche,node/5958266386,
5.373758,-3.9845519,0,Commisariat 30è Art.,node/5958266387,
5.3701109,-3.9813021,0,Terminus 202 Attoban,node/5958266388,
5.3673274,-3.9797109,0,Parmacie St Bernard,node/5958266389,
5.3573659,-3.9782153,0,Pharmacie St Ange,node/5958266390,
5.3558222,-3.9779596,0,Collège André Malraux,node/5958266391,
5.3541895,-3.9773239,0,Riviera 2,node/5958266392,
5.3247785,-4.0207447,0,Saint Paul Plateau,node/6098848385,
5.3238162,-4.0205509,0,Hôtel de Ville,node/6136850508,
5.3234932,-4.0205339,0,Hotel de Ville,node/6136850509,
5.3226907,-4.0205256,0,Terminus Hotel de Ville,node/6136858285,
5.3317403,-4.021322,0,Cathédrale Saint paul,node/6195348341,
5.4148488,-4.0333199,0,Terminus bus 51/52,node/6281030720,
5.4351428,-4.0144508,0,Gare Abobo Sogephia,node/6474137921,
5.4364247,-4.0125419,0,BICICI,node/6474137923,
5.4382745,-4.0147435,0,Cours Sociaux,node/6474137925,
5.4381179,-4.019424,0,Avenue Kaza,node/6474137927,
5.4355472,-4.0202491,0,Camp Commando,node/6474137929,
5.4306474,-4.0200922,0,Station Shell,node/6474137931,
5.4263959,-4.0198488,0,Gendarmerie Abobo,node/6474137932,
5.4234101,-4.0187446,0,Terminus Gendarmerie Abobo,node/6474137934,
5.4171616,-4.0166455,0,2ème Arrêt,node/6474137936,
5.4131456,-4.015971,0,Banco,node/6474137938,
5.4089746,-4.0160152,0,Anador,node/6474137940,
5.392647,-4.0207427,0,Université Nangui Abrogoua,node/6474137942,
5.3774907,-4.0255918,0,Macaci,node/6474137944,
5.3592442,-4.027655,0,Gare Nord,node/6474137946,
5.3591608,-4.0274455,0,Gare Nord,node/6474137948,
5.3533564,-4.0257671,0,Grande Mosquée Adjamé,node/6474137950,
5.347769,-4.0256668,0,Foire de Chine,node/6474137952,
5.3431984,-4.0259753,0,Mairie d'Adjamé,node/6474137954,
5.3312372,-4.0238205,0,Terminus tours Administratives,node/6474137956,
5.3278045,-4.0238801,0,Immeuble Sogefiha,node/6474137958,
5.3145043,-4.0181049,0,Gare Sud,node/6474137967,
5.3179651,-4.019718,0,Présidence,node/6474137979,
5.3225013,-4.0197472,0,Galerie du Parc,node/6474137980,
5.3339569,-4.0247204,0,Camp Galliéni,node/6474137981,
5.3386571,-4.026107,0,Institut National de la Santé Publique,node/6474137982,
5.343713,-4.0260496,0,Mairie d'Adjamé,node/6474137983,
5.3459921,-4.0258452,0,Marché Forum,node/6474137984,
5.3503682,-4.0255664,0,Pharmacie du Banco,node/6474138985,
5.3534527,-4.0259071,0,Grande Mosquée Adjamé,node/6474138986,
5.3586829,-4.028099,0,Gare Nord,node/6474138987,
5.3765774,-4.0263861,0,Macaci,node/6474138988,
5.3906844,-4.021035,0,Filtisac,node/6474138989,
5.4085961,-4.0162969,0,Anador,node/6474138990,
5.4135848,-4.0162419,0,Banco,node/6474138991,
5.4183764,-4.0173344,0,Saint-Joseph 2ème Arrêt,node/6474138992,
5.4237125,-4.0190818,0,Terminus Gendarmerie Abobo,node/6474138993,
5.4315506,-4.020231,0,Bar Ivoire Abobo,node/6474138994,
5.4363436,-4.0203886,0,DGI Abobo,node/6474138995,
5.4382274,-4.0189201,0,Avenue Kaza,node/6474138996,
5.4383936,-4.0138587,0,Carrefour Akeïkoi,node/6474138997,
5.3149589,-4.0190673,0,Terminus Gare Sud,node/6474138999,
5.4350792,-4.0127537,0,Cité Universitaire Abobo,node/6474139031,
5.4354761,-4.0154322,0,Quai 15,node/6474139033,
5.3580852,-3.9641507,0,Station Shell Riviera 3,node/6815808830,
5.3620442,-3.9591336,0,Carrefour Palmeraie,node/6815808831,
5.3865761,-3.9744202,0,CNPS 9ème Tranche,node/6815808833,
5.4010646,-3.9780418,0,Marché COCOVICO,node/6815808834,
5.3738506,-3.9618125,0,Quick Market,node/6815808839,
5.3737728,-3.9618581,0,Quick Market,node/6815808840,
5.3776142,-3.9635563,0,Commissariat 35è Art.,node/6815808842,
5.3866021,-3.9745308,0,CNPS 9ème Tranche,node/6815808843,
5.4010482,-3.9781939,0,Marché COCOVICO,node/6815808844,
5.3698807,-3.9587098,0,Pharmacie du bonheur,node/6815808845,
5.383206,-3.9725319,0,Groupe Scolaire St Marc,node/6815808846,
5.282599,-3.9692172,0,Camp Commando de Koumassi,node/6819328985,
5.2892136,-3.9707407,0,Grand carrefour de Koumassi,node/6819329085,
5.2921087,-3.9741109,0,Hôtel Ibis Marcory,node/6819329086,
5.2916293,-3.973691,0,Hôtel Ibis Marcory,node/6819329185,
5.3008419,-3.9897184,0,Chimtec Grand carrefour Marcory,node/6819329285,
5.335819,-3.9767155,0,Ambassade des USA,node/6820855646,
5.3309825,-3.9728877,0,Hotel du Golf,node/6820855647,
5.3310297,-3.9730064,0,Hotel du Golf,node/6820855648,
5.3312498,-3.9579229,0,Ex Terminus Sotra;Carrefour Sol Beni,node/6820855649,
5.332764,-4.021605,0,Cathédrale Saint paul,node/6831076677,
5.3299678,-4.0205671,0,Église Méthodiste Unie de Côte d'Ivoire,node/6831076678,
5.3148704,-4.0185085,0,Gare Sud,node/6831076682,
5.2988832,-3.9867521,0,Cap Sud,node/6832290086,
5.2996481,-4.0022393,0,Gare de bassam,node/6899034705,
5.3004143,-3.9997862,0,Gendarmerie,node/6899034706,
5.303315,-4.0037983,0,Notre-dame,node/6899034707,
5.3072484,-4.005186,0,Pharmacie Nanan Yamousso,node/6899034708,
5.3099574,-4.0061407,0,Après le pont,node/6899034709,
5.3534116,-4.0160603,0,Adjamé liberté,node/6899034710,
5.3534437,-4.014858,0,Adjamé liberté,node/6899053345,
5.3535364,-4.0120307,0,Gare de Bingerville,node/6899053346,
5.325075,-4.0152949,0,Feux du plateau,node/6899053347,
5.3101491,-4.0061218,0,Nanan Yamousso,node/6899053348,
5.2996797,-4.0024275,0,Gare de bassam,node/6899053349,
5.4200067,-4.0174383,0,Abobo Gare Mairie,node/6899241573,
5.4143755,-4.0159818,0,Mobil,node/6899241574,
5.3846161,-4.0215029,0,Lavage,node/6899241575,
5.37725,-4.0257575,0,Macaci,node/6899241576,
5.3543459,-4.0164004,0,Adjamé Liberté,node/6899241577,
5.349107,-4.0212174,0,Marché Gouro,node/6899264970,
5.3547097,-4.0163905,0,Adjamé Liberté,node/6899264971,
5.358734,-4.016791,0,Station Total,node/6899264972,
5.4215493,-4.0171184,0,Abobo Gare Mairie,node/6899264973,
5.4195759,-4.0153363,0,Carrefour Marché,node/6902638988,
5.4186048,-4.0135168,0,Petro Ivoire,node/6902638989,
5.4168519,-4.0101975,0,Au Bar,node/6902638990,
5.4157998,-4.0080786,0,Petit Carrefour,node/6902638991,
5.4152517,-4.0066972,0,Samaké,node/6902638992,
5.3994804,-4.0064894,0,Azur,node/6902638993,
5.3780522,-4.0070352,0,Panneau ZOO,node/6902638994,
5.4197843,-4.0157753,0,Abobo Gare Mairie,node/6902638995,
5.4176548,-4.0117095,0,Ciné Cool,node/6902638996,
5.4144283,-4.0062697,0,Boulangerie Samake,node/6902638997,
5.410863,-4.0062877,0,Menuiserie,node/6902638998,
5.4101067,-4.0063067,0,Tchapatcha,node/6902638999,
5.4092677,-4.0063409,0,Chaine Avion,node/6902639000,
5.4051188,-4.0063993,0,Pharmacie Dokui,node/6902639001,
5.4036347,-4.0064176,0,SODECI,node/6902639002,
5.4020967,-4.0064567,0,Étage Noir,node/6902639003,
5.4001879,-4.0064867,0,Mobil,node/6902639004,
5.3968179,-4.006353,0,Arrêt Dokui,node/6902639005,
5.3929293,-4.005793,0,Ancien Feu,node/6902639006,
5.3872276,-4.005732,0,Bangui,node/6902639007,
5.3851864,-4.0060126,0,Vidange,node/6902639008,
5.382931,-4.0063262,0,HMA,node/6902639009,
5.3721147,-4.0118134,0,Carrefour paillet,node/6902639010,
5.3653117,-4.0157876,0,Carrefour 2 Plateaux,node/6902639011,
5.3553627,-4.0160705,0,Gare des gbakas d’Abobo par le zoo,node/6902639012,
5.4184847,-4.0136214,0,Petro Ivoire,node/6902868224,
5.4176463,-4.0120067,0,Ciné Cool,node/6902868225,
5.4167077,-4.0102981,0,Au Bar,node/6902868226,
5.4051935,-4.0065403,0,Pharmacie Dokui,node/6902868227,
5.4036701,-4.0065873,0,SODECI,node/6902868228,
5.40212,-4.0066315,0,Étage Noir,node/6902868229,
5.4002027,-4.0066597,0,Mobil,node/6902868230,
5.3994577,-4.0066034,0,Azur,node/6902868231,
5.3965911,-4.0064518,0,Arrêt Dokui,node/6902868232,
5.3928327,-4.0059301,0,Ancien Feu,node/6902868233,
5.387253,-4.005859,0,Bangui,node/6902868234,
5.3852715,-4.0061326,0,Vidange,node/6902868235,
5.3829176,-4.0064505,0,HMA,node/6902868236,
5.3716859,-4.0122239,0,Carrefour paillet,node/6902868237,
5.365405,-4.0159576,0,Carrefour 2 Plateaux,node/6902868238,
5.3633371,-4.0168128,0,Willy Agban,node/6902868239,
5.3668297,-4.0152077,0,Cimetière,node/6902868240,
5.3765337,-4.0094557,0,CIE,node/6902868241,
5.3789939,-4.0070149,0,ZOO,node/6902868242,
5.3900553,-4.0056173,0,Eglise,node/6902868243,
5.41329,-4.0099567,0,Pharmacie Racines,node/6902868244,
5.4197639,-4.0160257,0,Abobo Gare Mairie,node/6902868245,
5.4500232,-4.0135154,0,Christine Bar,node/6902975747,
5.4607326,-4.0109926,0,Terminus Akéikoi village,node/6902975748,
5.45899,-4.0107733,0,A l'école,node/6902975749,
5.455207,-4.0112928,0,Destin,node/6902975750,
5.4542173,-4.0119566,0,Monnaie,node/6902975751,
5.4528753,-4.0128592,0,André Bar,node/6902975752,
5.4510493,-4.0133357,0,Carrefour marché,node/6902975753,
5.446249,-4.0143571,0,A l'étage,node/6902975754,
5.4394513,-4.0141843,0,Boulangerie,node/6902975755,
5.4384053,-4.0140378,0,Carrefour Akéikoi,node/6902975756,
5.4225885,-4.0161726,0,Gare Gbaka Akeïkoi,node/6902975757,
5.4510779,-4.0134484,0,Carrefour marché,node/6903084141,
5.4530404,-4.0129173,0,André Bar,node/6903084142,
5.4542793,-4.0120751,0,Monnaie,node/6903084143,
5.438503,-4.0142825,0,Au goudron,node/6903097494,
5.4227551,-4.0160694,0,Gare Abobo,node/6903097495,
5.4230451,-4.013945,0,Au tournant,node/6903097496,
5.4278782,-4.0146817,0,Au Feu,node/6903097497,
5.433455,-4.0124107,0,Célibataire,node/6903097498,
5.4352003,-4.0124925,0,JAUG,node/6903097499,
5.4383233,-4.0135883,0,Cité,node/6903097500,
5.449017,-4.0138345,0,Boulangerie,node/6903097501,
5.4500084,-4.0136722,0,Christine Bar,node/6903097502,
5.4552984,-4.01134,0,Destin,node/6903097503,
5.4594779,-4.0109968,0,A l'ecole,node/6903097504,
5.460775,-4.0111868,0,Terminus Akéikoi Village,node/6903097505,
5.4429021,-4.0144891,0,Mosquée,node/6903193216,
5.4463091,-4.0144891,0,A l'étage,node/6903193217,
5.42194,-4.0165181,0,Abobo Gare Mairie,node/6903268819,
5.4223082,-4.0163197,0,Gare Abobo Kennedy-Marché/ Mosquée Ado,node/6903268820,
5.4211585,-4.0100057,0,Station,node/6903268821,
5.4236887,-4.0015221,0,Kennedy Marché,node/6903268822,
5.4221255,-4.011717,0,Mosquée,node/6903296476,
5.4186623,-4.0060106,0,Carrefour Kennedy,node/6903296477,
5.4186129,-4.0059221,0,Carrefour Kennedy,node/6903296478,
5.4213432,-4.0039185,0,Makan Traoré,node/6903296479,
5.4236156,-4.0015453,0,Au marché,node/6903296480,
5.423623,-4.0021714,0,A Gauche,node/6903296481,
5.4214359,-4.0037249,0,Makan Traoré,node/6903296482,
5.3286546,-3.9324706,0,Cocody Riviera M'badon,node/6903347574,
5.3293417,-3.9332267,0,Nouveau marché,node/6903347575,
5.329969,-3.9339946,0,Ancien marché,node/6903347576,
5.3307517,-3.9350317,0,Centre de santé Municipal de M'Badon,node/6903347577,
5.331008,-3.9352626,0,La ferme,node/6903347578,
5.3353839,-3.9393933,0,Pharmacie,node/6903347579,
5.3384154,-3.9427407,0,2 poteaux,node/6903347580,
5.339948,-3.945032,0,Antenne,node/6903347581,
5.345935,-3.9457017,0,Carrefour Akouédo,node/6903347582,
5.3461517,-3.9471733,0,École,node/6903347583,
5.3458217,-3.9505483,0,2ème rond-point,node/6903347584,
5.3503568,-4.0227501,0,Gare en haut,node/6903370485,
5.4210882,-4.0100339,0,Station,node/6903374200,
5.4196516,-4.00729,0,Immeuble Cercueil,node/6903374201,
5.4195595,-4.0074563,0,Immeuble Cercueil,node/6903374202,
5.4234508,-3.9978515,0,Terminus mosquée Ado Kenedy,node/6903397403,
5.4215774,-3.9978489,0,A l'école,node/6903397404,
5.4198617,-3.9979409,0,[Arret sans nom],node/6903397405,
5.4185867,-3.9980283,0,Dahico,node/6903397406,
5.4157689,-3.9992242,0,Étage Noir,node/6903397407,
5.415578,-4.0059533,0,Samake,node/6903406997,
5.4156671,-4.0037419,0,Eglise,node/6903406998,
5.415458,-4.0037763,0,Eglise,node/6903504058,
5.4155835,-4.0007226,0,Monastère,node/6903504059,
5.415434,-4.0008192,0,Monastère,node/6903504060,
5.4157731,-3.999403,0,Étage Noir,node/6903504061,
5.4185995,-3.9981732,0,Dahico,node/6903504062,
5.4339087,-4.0272132,0,Hôtel du centre,node/6903525051,
5.437375,-4.0337387,0,A la Pompe,node/6903525052,
5.4377181,-4.0360617,0,Dépôt,node/6903525053,
5.4390697,-4.0444772,0,Anokoi,node/6903525054,
5.439303,-4.0444823,0,Anokoi,node/6903525055,
5.4422211,-4.0479148,0,Marahoué,node/6903525056,
5.4439581,-4.0487972,0,Agripac,node/6903525057,
5.447775,-4.0509604,0,Terminus,node/6903525058,
5.4479797,-4.0508555,0,Terminus,node/6903525059,
5.4446545,-4.0489498,0,Agripac,node/6903525060,
5.4425017,-4.0477433,0,Marahoué,node/6903525061,
5.4379717,-4.0360937,0,Dépôt,node/6903525062,
5.4376377,-4.033852,0,A la Pompe,node/6903525063,
5.4367133,-4.030245,0,Marché de Nuit,node/6903525064,
5.4340417,-4.026894,0,Hôtel du centre,node/6903525065,
5.4217034,-4.018191,0,Abobo Gare,node/6903525066,
5.3489387,-4.0206447,0,Complexe,node/6903535584,
5.350348,-4.0224464,0,Gare en haut,node/6903544086,
5.3481387,-4.0180948,0,Maternité,node/6903544087,
5.3521055,-4.014163,0,Adjamé Liberté,node/6903544088,
5.3547793,-4.0029137,0,2ème pont,node/6903544089,
5.3301187,-3.9339759,0,Marché,node/6903544090,
5.4263231,-4.0203577,0,Gendarmerie,node/6903602207,
5.4298704,-4.0233336,0,Mosquée Blanche,node/6903602208,
5.4332219,-4.0262471,0,Solibra,node/6903602209,
5.4359152,-4.0288774,0,Château,node/6903602210,
5.4383388,-4.0383071,0,A l'escalier,node/6903602211,
5.4497913,-4.0521369,0,PK 18 ancien marché,node/6903602212,
5.4220421,-4.0184916,0,Gare abobo,node/6903602213,
5.4260466,-4.0204342,0,Gendarmerie,node/6903602214,
5.426524,-4.0208376,0,Gendarmerie Avant le Feu,node/6903602215,
5.4297276,-4.0236152,0,Mosquée Blanche,node/6903602216,
5.4330817,-4.0264367,0,Solibra,node/6903602217,
5.4357519,-4.0290698,0,Château,node/6903602218,
5.4365893,-4.0306363,0,Marché de Nuit,node/6903602219,
5.4380495,-4.0384581,0,A l'escalier,node/6903602220,
5.4382834,-4.0411411,0,Nouvelle Gare,node/6903602221,
5.4448006,-4.0493193,0,Agripac Avant le Feu,node/6903602222,
5.4493883,-4.0520966,0,Station Total,node/6903602223,
5.4499639,-4.052542,0,PK 18 ancien marché,node/6903602224,
5.370557,-3.9761316,0,Attoban camp,node/6903639366,
5.3694267,-3.9776678,0,Escalier,node/6903639367,
5.3673899,-3.9794185,0,Pharmacie Saint Bernard,node/6903639368,
5.3658448,-3.9793174,0,Carrefour Garage,node/6903639369,
5.365069,-3.9792552,0,Polyclinique Sacré-Coeur,node/6903639370,
5.3642087,-3.9790994,0,Jules ferry,node/6903639371,
5.362115,-3.9788028,0,Hôtel Manhatan,node/6903639372,
5.3589924,-3.978316,0,Doraville,node/6903639373,
5.3571667,-3.9780678,0,Pharmacie Saint ange,node/6903639374,
5.356275,-3.9777617,0,André Malraux,node/6903639375,
5.3505392,-4.0228251,0,Gare en haut,node/6903639376,
5.3672689,-3.9796695,0,Pharmacie Saint Bernard,node/6903968407,
5.3655779,-3.9794498,0,Carrefour garage,node/6903968408,
5.343795,-4.0345833,0,Attécoubé Terminus 04,node/6904171063,
5.346448,-4.0345467,0,[Arret sans nom],node/6904171064,
5.3490624,-4.033957,0,Marché,node/6904171065,
5.3501257,-4.032333,0,Station Afriquia,node/6904171066,
5.3524283,-4.0328135,0,Carrefour Attecoubé,node/6904171067,
5.3574167,-4.0309717,0,[Arret sans nom],node/6904171068,
5.3513557,-4.0254169,0,Arrêt,node/6904171070,
5.3412757,-4.0261722,0,Adjamé Santé,node/6904171071,
5.3381159,-4.025807,0,Institut National de la Santé Publique,node/6904171072,
5.3318344,-4.0230192,0,Arrêts tours Administratives,node/6904171073,
5.3266073,-4.0206008,0,Cité financière Plateau,node/6904171074,
5.3237991,-4.0196512,0,SIB Alpha 2000,node/6904171075,
5.3206169,-4.0196681,0,Primature,node/6904171076,
5.3089287,-4.0157481,0,Résidence Cheick Yacouba Sylla,node/6904171077,
5.3094876,-4.0142576,0,Marché Treichville,node/6904171078,
5.3109791,-4.0099697,0,[Arret sans nom],node/6904171079,
5.3126563,-4.006092,0,Biafra,node/6904171080,
5.3076251,-3.9933399,0,Banque Atlantique,node/6904171081,
5.3052787,-3.9888629,0,Hôtel Hamanieh,node/6904171082,
5.3043423,-3.9869873,0,Sainte Thérèse,node/6904171083,
5.3064581,-3.9858381,0,Commissariat du 9 ème,node/6904171084,
5.3088083,-3.9839517,0,Gare Marcory,node/6904188585,
5.3589119,-4.0281877,0,Gare Nord,node/6905326498,
5.4366266,-4.0307925,0,Château,node/6905326503,
5.3843543,-4.0219308,0,Préfecture de Police,node/6905344262,
5.4375564,-4.0351608,0,Arrêt Centre Bus,node/6905344263,
5.4384645,-4.0390169,0,Terminus 45 À l'escalier,node/6905344264,
5.4378844,-4.0351391,0,Arrêt Centre Bus,node/6905344265,
5.4365245,-4.0299554,0,Château,node/6905344266,
5.4328931,-4.0259685,0,Arrêt,node/6905344267,
5.4284112,-4.0222108,0,Gendarmerie,node/6905344268,
5.3836534,-4.0219627,0,Préfecture de Police,node/6905344273,
5.4284566,-4.0225102,0,Gendarmerie,node/6905553518,
5.4327155,-4.0261674,0,[Arret sans nom],node/6905553519,
5.3485701,-4.0256884,0,Foire de Chine,node/6905719605,
5.3299376,-4.0206943,0,Église Méthodiste Unie de Côte d'Ivoire,node/6905719606,
5.3251345,-4.0201163,0,60 logements Plateau,node/6905719607,
5.3087867,-4.0177138,0,Hôpital du port,node/6905719608,
5.3097288,-4.0148424,0,Maison du Congres,node/6905719609,
5.3073425,-4.0116929,0,Pharmacie du Rond-point,node/6905719610,
5.3090218,-4.0069793,0,[Arret sans nom],node/6905719611,
5.3080275,-4.005442,0,Nanan Yamousso,node/6905719612,
5.3048828,-4.0043543,0,Paroisse Notre-Dame de Treichville,node/6905719613,
5.3045623,-4.0015648,0,Pharmacie de l'Entente,node/6905719614,
5.3055251,-3.998829,0,Marché de Belleville,node/6905719615,
5.3075214,-3.9931172,0,Banque Atlantique,node/6905719616,
5.3049722,-3.9887868,0,Hôtel Hamanieh,node/6905719617,
5.3055778,-3.986118,0,Commissariat du 9éme,node/6905719618,
5.308097,-3.9847286,0,Station Shell,node/6905719619,
5.3584965,-4.0284151,0,[Arret sans nom],node/6905719620,
5.357702,-4.0304951,0,[Arret sans nom],node/6905719621,
5.3515438,-4.0321715,0,Carrefour Attecoubé,node/6905719622,
5.3489601,-4.03386,0,Banque Atlantique,node/6905719623,
5.3471108,-4.0344246,0,Commissariat du 10ᵉ arrondissement,node/6905719624,
5.3437946,-4.0344802,0,Attécoubé Terminus 04,node/6905719625,
5.3251603,-4.0219475,0,Saint Paul,node/6905772459,
5.3282245,-4.0239746,0,Immeuble Sogephia Hévéa,node/6905772460,
5.3337809,-4.0245113,0,Musée du Plateau,node/6905772461,
5.4383593,-4.0160546,0,Cours Sociaux,node/6905772466,
5.3590397,-4.0275686,0,Gare Nord,node/6905842305,
5.3252327,-4.0224693,0,Long Champs,node/6905842307,
5.293902,-3.9560075,0,Gare Koumassi,node/6906463287,
5.2928524,-3.9602508,0,Pharmacie Ehilie,node/6906463288,
5.2913568,-3.966735,0,Mosquée,node/6906463289,
5.2956714,-3.980944,0,Échangeur de Marcory,node/6906463290,
5.2998527,-3.98845,0,Grand carrefour Marcory,node/6906463291,
5.2998184,-3.9976917,0,Collège Moderne Autoroute,node/6906463292,
5.2999823,-4.0026734,0,Gare de Bassam,node/6906463293,
5.3018099,-4.003273,0,Ecobank,node/6906463294,
5.3534012,-4.0155251,0,Adjamé Liberté,node/6906463296,
5.4365892,-4.0124238,0,BICICI,node/6906507833,
5.3546594,-4.0164467,0,Adjamé - Liberté,node/6906575629,
5.3631417,-4.0169033,0,Williams-Ville,node/6906575630,
5.3658197,-4.0157829,0,Carrefour 2 plateaux,node/6906575631,
5.3662557,-4.0156117,0,[Arret sans nom],node/6906575632,
5.3716139,-4.0122293,0,Paillet,node/6906575633,
5.374069,-4.0112578,0,[Arret sans nom],node/6906575634,
5.3898833,-4.005605,0,[Arret sans nom],node/6906575635,
5.4045622,-4.0065311,0,[Arret sans nom],node/6906575636,
5.4113412,-4.0064187,0,[Arret sans nom],node/6906575637,
5.4126483,-4.0064133,0,ANADER,node/6906575638,
5.4148754,-4.0064263,0,Samake,node/6906590689,
5.41527,-4.0068417,0,Samake,node/6906590691,
5.4101483,-4.0063152,0,Chaîne avion,node/6906590692,
5.4073533,-4.0063867,0,1ere Boutique,node/6906590693,
5.3659384,-4.0155634,0,Carrefour 2 plateaux,node/6906590694,
5.3546002,-4.0162927,0,Adajmé Liberté,node/6906590695,
5.35345,-4.015528,0,Adjamé Liberté,node/6906596960,
5.3100359,-4.0060884,0,Nanan Yamousso,node/6906596961,
5.3054677,-4.0044435,0,Karwil,node/6906596962,
5.3031308,-4.0036369,0,Notre-dame,node/6906596963,
5.3003893,-4.0026404,0,Gare de Bassam,node/6906596964,
5.2998444,-3.9983918,0,Collège Moderne Autoroute,node/6906596965,
5.2987234,-3.9859637,0,Cap Sud,node/6906596966,
5.2959351,-3.981013,0,Échangeur Marcory,node/6906596967,
5.2912433,-3.9675638,0,Auto-école,node/6906596968,
5.2919737,-3.964494,0,Arrêt,node/6906596969,
5.292783,-3.9610541,0,Boulangerie,node/6906596970,
5.3790616,-4.0069936,0,ZOO,node/6906699462,
5.4074152,-4.0065336,0,1ere Boutique,node/6906699463,
5.3723989,-4.0116794,0,Paillet,node/6906699464,
5.3898979,-4.0054621,0,[Arret sans nom],node/6906699465,
5.3967647,-4.0065122,0,Arrêt Dokui,node/6906699466,
5.3968689,-4.0063445,0,Arrêt Dokui,node/6906699467,
5.4121402,-4.0062842,0,ANADER,node/6906699468,
5.4169293,-4.0106347,0,[Arret sans nom],node/6906699469,
5.4170815,-4.0106159,0,[Arret sans nom],node/6906699470,
5.4197017,-4.0159368,0,Abobo Mairie,node/6906699471,
5.4197512,-4.0156192,0,Abobo Mairie,node/6906699472,
5.3675641,-4.0235294,0,Gare Williamsville,node/6907121506,
5.3658243,-4.0207037,0,Mosquée,node/6907121507,
5.3643529,-4.0189161,0,Croix Bleue,node/6907121508,
5.3576606,-4.0160715,0,Agban avant le pont,node/6907121509,
5.3501391,-4.0169929,0,Pharmacie le Belier,node/6907121510,
5.3417336,-4.0230855,0,Indenié,node/6907121511,
5.3220152,-4.018503,0,Mairie du Plateau,node/6907121512,
5.3219502,-4.0170059,0,Institut Français,node/6907121513,
5.3195012,-4.0144649,0,CNPS,node/6907121514,
5.3088742,-3.984068,0,Gare Marcory,node/6907121515,
5.342209,-4.0033579,0,RTI,node/6907141795,
5.3459837,-4.0029046,0,Archibat,node/6907141796,
5.3356901,-4.0007897,0,Marché de Cocody,node/6907141797,
5.3232894,-4.0021679,0,Gare Blockauss,node/6907141798,
5.3278237,-4.0013589,0,Banque Mondiale,node/6907141799,
5.3355267,-4.0007635,0,Marché de Cocody,node/6907141800,
5.3384172,-4.0038072,0,CIE,node/6907141801,
5.351632,-4.0021657,0,Palm Club,node/6907141802,
5.3587491,-4.0274511,0,Gare Nord,node/6907141803,
5.3543654,-4.0180323,0,Texaco,node/6907147644,
5.3478735,-4.0101289,0,Pont lycée technique,node/6907147645,
5.3442806,-4.0038018,0,SODEMI,node/6907147646,
5.3404792,-4.0033259,0,Sgbci,node/6907147647,
5.336444,-3.9999757,0,Marché de Cocody,node/6907147648,
5.3334363,-4.0003179,0,PMI,node/6907147649,
5.3280617,-4.00118,0,Banque mondiale,node/6907147650,
5.323287,-4.0020444,0,Gare Blockauss,node/6907147651,
5.3528511,-4.0168481,0,Boulangerie Top baquette,node/6907154300,
5.3472669,-4.017115,0,220 logements,node/6907154301,
5.3589598,-4.0273707,0,Gare Nord,node/6907157792,
5.3559786,-4.0213836,0,Renault,node/6907157793,
5.3534802,-4.0158064,0,Adjamé Liberté,node/6907157794,
5.339615,-4.000587,0,CERAP - INADES,node/6907157795,
5.3464621,-3.9946557,0,Gare Campus Cocody,node/6908599212,
5.343718,-4.0013186,0,ISTC,node/6908599213,
5.4354972,-4.0153091,0,Quai 49,node/6908599215,
5.3456864,-3.9968976,0,INSAAC,node/6908618074,
5.427395,-4.016795,0,EPV Konaté,node/6908618077,
5.4286546,-4.0147611,0,Lycée Moderne d'Abobo,node/6908618078,
5.4339703,-4.012329,0,[Arret sans nom],node/6908728765,
5.432656,-4.013431,0,[Arret sans nom],node/6908728766,
5.4273213,-4.0162121,0,[Arret sans nom],node/6908728767,
5.343821,-4.0008199,0,ISTC,node/6908728771,
5.3462119,-3.9937238,0,Gare Campus Cocody,node/6908728772,
5.43182,-4.0147361,0,[Arret sans nom],node/6908782549,
5.429723,-4.014638,0,[Arret sans nom],node/6908782550,
5.3450487,-3.9978676,0,Cité des Arts,node/6908782552,
5.3466283,-3.993895,0,université méthodiste de Côte D'Ivoire,node/6908782553,
5.357415,-4.0160582,0,[Arret sans nom],node/6908914485,
5.3491257,-4.0171632,0,Cours socio éducatif,node/6908914486,
5.3082112,-3.9996571,0,Piscine d’État de Treichville,node/6908914487,
5.3090397,-3.9839441,0,Gare Marcory,node/6908914488,
5.3555536,-4.0161239,0,Boulangerie Top Qualité,node/6908914489,
5.3513262,-4.0170747,0,Liberté,node/6908914490,
5.3503722,-4.0170975,0,Pharmacie le Belier,node/6908914491,
5.3418097,-4.0230188,0,Indenié,node/6908914492,
5.3421743,-4.025647,0,Banque SIB,node/6908914493,
5.321186,-4.0183783,0,Bicici plateau,node/6908914494,
5.321624,-4.0167837,0,Pyramide,node/6908914495,
5.3184312,-4.0145266,0,Siège Moov,node/6908914496,
5.3641726,-4.0188664,0,Croix Bleue,node/6908914498,
5.3653249,-4.0202826,0,Infirmerie Sinikeya,node/6908914499,
5.3670874,-4.0235066,0,Gare Williamsville,node/6908914500,
5.3589877,-4.0318263,0,Petro Ivoire,node/6909039462,
5.3468603,-4.0257324,0,Pharmacie Sainte Marie,node/6909039464,
5.3080247,-4.0159526,0,Cité Policière,node/6909039468,
5.2958623,-4.0046789,0,CHU,node/6909039469,
5.2927793,-3.9984496,0,PTT Km4,node/6909039470,
5.2914467,-3.9957435,0,Pharmacie Santé Publique,node/6909039471,
5.3585383,-4.0375583,0,Terminus Cité Fairmont,node/6909108442,
5.305135,-4.0149536,0,arrêt,node/6909108450,
5.29123,-3.9902017,0,Services Techniques du District,node/6909108451,
5.3088407,-3.9840127,0,Gare Marcory,node/6909121487,
5.2971256,-4.0074831,0,Parc des Sports,node/6909208699,
5.2895393,-3.990781,0,"SIYOA, Boulevard de Marseille",node/6909208700,
5.36188,-4.0724972,0,[Arret sans nom],node/6909225529,
5.3647534,-4.0745652,0,[Arret sans nom],node/6909225530,
5.3727101,-4.0961792,0,[Arret sans nom],node/6909225533,
5.3742257,-4.0895635,0,[Arret sans nom],node/6909225534,
5.372722,-4.0867558,0,Nestlé,node/6909225535,
5.3745633,-4.0781781,0,Arrêt,node/6909225536,
5.3703887,-4.0796923,0,[Arret sans nom],node/6909225537,
5.3683786,-4.0786743,0,[Arret sans nom],node/6909225538,
5.3670367,-4.0761986,0,Direction de la Sotra,node/6909225539,
5.3628133,-4.0736157,0,[Arret sans nom],node/6909225540,
5.3612471,-4.0702482,0,[Arret sans nom],node/6909225541,
5.3623019,-4.0678704,0,Lycée Moderne Yopougon Andokoi,node/6909225542,
5.3615148,-4.0667894,0,Centre Ivoire Couture,node/6909225543,
5.3585831,-4.0278578,0,Gare Nord,node/6909225544,
5.3146893,-4.0183049,0,Gare Sud,node/6909225545,
5.2948194,-4.0033954,0,CHU Treichville,node/6909237619,
5.301827,-3.9881326,0,Délices de France,node/6909237622,
5.2913004,-3.9900511,0,Services Techniques du District,node/6909237623,
5.2931333,-3.9994307,0,PTT Km4,node/6909237624,
5.3023437,-4.0141223,0,Quincaillerie Générale,node/6909237625,
5.3049356,-4.0150089,0,Arrêt,node/6909237626,
5.308109,-4.0161832,0,Cité Policière,node/6909237627,
5.3591167,-4.0279602,0,Gare Nord,node/6909237631,
5.358876,-4.0319963,0,Station Petro Ivoire,node/6909237632,
5.3582206,-4.0364602,0,Terminus 02 Cité Fairmont,node/6909237633,
5.3765208,-4.094158,0,[Arret sans nom],node/6909430718,
5.3618706,-4.0668847,0,Gare CTE,node/6909430720,
5.3621938,-4.0678369,0,Lycée Moderne Yopougon Andokoi,node/6909430721,
5.3607938,-4.0710622,0,Station Total,node/6909430722,
5.362382,-4.0736572,0,[Arret sans nom],node/6909430723,
5.365409,-4.0742996,0,[Arret sans nom],node/6909430724,
5.36707,-4.0764347,0,Direction de la Sotra,node/6909430725,
5.3683719,-4.0788862,0,[Arret sans nom],node/6909430726,
5.3690582,-4.080222,0,Station,node/6909430727,
5.3699698,-4.0819788,0,[Arret sans nom],node/6909430728,
5.3741086,-4.0896792,0,JOMACO,node/6909430729,
5.3741528,-4.0958456,0,Dépôt Yopougon zone Industrielle,node/6909430730,
5.2645534,-3.9848298,0,Hôpital Municipal,node/6909521603,
5.2632614,-3.9834323,0,Groupe Scolaire N'Sikan,node/6909521604,
5.257665,-3.9849267,0,CIE,node/6909521605,
5.2558751,-3.9956283,0,arrêt,node/6909521606,
5.26373,-3.9989162,0,Gestoci,node/6909521607,
5.2704314,-4.0062621,0,Pont de Vridi,node/6909521608,
5.2978357,-4.0143099,0,"Etablissements Rey, Port",node/6909521609,
5.3005436,-4.0175241,0,Sicodis,node/6909521610,
5.305037,-4.0231458,0,Terminus 32,node/6909521611,
5.3069377,-4.0211629,0,Grand Moulin Abidjan,node/6909521612,
5.3088247,-4.0179278,0,Hôpital du Pont,node/6909521613,
5.305655,-4.0117363,0,"Avenue 11, Rue 12, Treichville",node/6909521614,
5.3039938,-4.0111588,0,"Avenue 15, Rue 12, Treichville",node/6909521615,
5.3040254,-4.0034158,0,Paroisse Notre Dame,node/6909521616,
5.3056574,-3.9987874,0,Marché Belleville,node/6909521617,
5.3087649,-3.9838718,0,Gare Marcory,node/6909521620,
5.266603,-3.9871428,0,Vridi Cité - Terminus 53,node/6909546905,
5.259526,-3.9818252,0,Pharmacie Vridi Port,node/6909546906,
5.2571616,-3.9892306,0,Stade de la SIR,node/6909546907,
5.2588247,-3.9978983,0,Vridi-Iran,node/6909546908,
5.2676512,-4.0031425,0,"CPMA, Vridi",node/6909546909,
5.277976,-4.0085496,0,PALM-CI,node/6909546910,
5.2821643,-4.0084685,0,Bolloré,node/6909546911,
5.2864977,-4.008455,0,Siège SOTRA,node/6909546912,
5.292271,-4.008424,0,Arrêt,node/6909546913,
5.296841,-4.0131528,0,Ciment Bélier,node/6909546914,
5.3029759,-4.0212547,0,Port Autonome Abidjan,node/6909546915,
5.309804,-4.0149741,0,Maison du Congres,node/6909546916,
5.3059215,-4.0050815,0,Collège Bosco,node/6909546917,
5.3226268,-4.1045,0,Niangon Sud à droite,node/6909707221,
5.3233679,-4.1057378,0,Carrefour Académie,node/6909707223,
5.325714,-4.1059349,0,Caféier,node/6909707224,
5.3310513,-4.1037691,0,Lubafrique,node/6909707225,
5.3338915,-4.1029765,0,2ème arrêt ANADOR,node/6909707226,
5.3358784,-4.1014047,0,Carrefour Anador,node/6909707227,
5.3404237,-4.1004632,0,Pharmacie Cité Maroc,node/6909707228,
5.3407014,-4.0892462,0,CIE,node/6909707229,
5.3450164,-4.0892456,0,[Arret sans nom],node/6909707230,
5.3481316,-4.0875008,0,Grand Centre,node/6909707231,
5.3540742,-4.0874934,0,Port-Bouët II,node/6909707232,
5.3561104,-4.0851103,0,[Arret sans nom],node/6909707233,
5.3604209,-4.0850901,0,BAE,node/6909707234,
5.358951,-4.0277736,0,Gare Nord,node/6909707236,
5.3147518,-4.0183735,0,Gare Sud,node/6909707238,
5.3058324,-4.0049374,0,Feu du Collège Bosco,node/6909737821,
5.3062141,-4.0120606,0,"Avenue 10, Rue 12, Treichville",node/6909737822,
5.3067759,-4.0211598,0,Grand Moulin Abidjan,node/6909737824,
5.3033621,-4.0217286,0,Siège Port Autonome Abidjan,node/6909737825,
5.2945614,-4.0095509,0,Port Autonome Abidjan,node/6909737826,
5.2878677,-4.0082981,0,Siège SOTRA,node/6909737827,
5.2820277,-4.0083516,0,Bolloré,node/6909737828,
5.2787,-4.00841,0,Movis,node/6909737829,
5.2705271,-4.0061063,0,Pont de Vridi,node/6909737830,
5.3309411,-4.0239378,0,Cité Administrative,node/6909812227,
5.3572641,-4.0849641,0,Carrefour Zone,node/6909812228,
5.3552565,-4.0867444,0,[Arret sans nom],node/6909812229,
5.3469666,-4.0880983,0,Pharmacie Port-Bouët II,node/6909812230,
5.3453455,-4.0891591,0,[Arret sans nom],node/6909812231,
5.3400138,-4.0974297,0,Mosquée du Maroc,node/6909812232,
5.3401847,-4.1003975,0,Pharmacie Cité Maroc,node/6909812233,
5.335861,-4.1013081,0,Carrefour Anador,node/6909812234,
5.3305692,-4.1037999,0,Lubafrique,node/6909812235,
5.3273952,-4.1051263,0,[Arret sans nom],node/6909812236,
5.32569,-4.1058531,0,Caféier,node/6909812237,
5.3226401,-4.1045248,0,Niangon Sud à droite,node/6909812238,
5.3568101,-4.0739979,0,Siporex-Sicomex,node/6909923471,
5.3538004,-4.0740046,0,Siporex avant le feu,node/6909923472,
5.3448074,-4.0732898,0,William-Ponty,node/6909923473,
5.3388868,-4.0732871,0,Yopougon 16ème Advans,node/6909923474,
5.3326109,-4.0733247,0,Saguidiba,node/6909923475,
5.3297734,-4.0735526,0,Gare Yopougon Kouté,node/6909923477,
5.3463096,-3.9936456,0,Gare Campus Cocody,node/6910224899,
5.3297134,-4.0738578,0,Gare Yopougon Kouté,node/6910224902,
5.3315587,-4.0735191,0,Saguidiba,node/6910224905,
5.3344863,-4.0734252,0,Côte d'Ivoire-Telecom,node/6910224906,
5.338834,-4.0734096,0,Yopougon 16ème Advans,node/6910224907,
5.3418778,-4.0734078,0,Saint André lavage,node/6910224908,
5.345666,-4.0734038,0,William-Ponty,node/6910224909,
5.3540928,-4.0741883,0,Siporex après le feu,node/6910224910,
5.3566819,-4.0741772,0,Siporex-Sicomex,node/6910224911,
5.2678334,-4.0031259,0,CPMA-Vridi,node/6910272309,
5.2588726,-3.9977641,0,Vridi-Iran,node/6910272310,
5.2565075,-3.9932473,0,"SIR, Vridi",node/6910272311,
5.2577882,-3.9854582,0,CIE,node/6910272312,
5.2582659,-3.9824273,0,"Cité CIE, Vridi",node/6910272313,
5.2600531,-3.9820028,0,Temple des Vainqueurs,node/6910272314,
5.2644761,-3.9850263,0,Hôpital Municipal,node/6910272315,
5.2666602,-3.9874196,0,Terminus Cité Vridi,node/6910272316,
5.3313223,-4.0228166,0,Cité Administrative,node/6910518025,
5.4267852,-4.0201529,0,Gendarmerie Abobo,node/6910584802,
5.350955,-4.0632851,0,Institut des aveugles,node/6910703473,
5.3476916,-4.0632758,0,Bel Air,node/6910703474,
5.3418057,-4.0622364,0,Complexe sportif de Yopougon,node/6910703475,
5.3380456,-4.0622136,0,Nouveau quartier,node/6910703476,
5.3333961,-4.0621975,0,Clinique les Oliviers,node/6910703477,
5.3294751,-4.061462,0,Terminus 85,node/6910743309,
5.333826,-4.0623826,0,Clinique les Oliviers,node/6910743310,
5.3375141,-4.0623477,0,Nouveau quartier,node/6910743311,
5.3460439,-4.0634635,0,Bel Air,node/6910743312,
5.3556644,-4.0660062,0,Sable,node/6910743313,
5.3513983,-4.0634474,0,Institut des aveugles,node/6910743314,
5.3237979,-4.0804794,0,Ben,node/6910755171,
5.3255979,-4.0764964,0,Marejea,node/6910755172,
5.3255738,-4.0718266,0,Iris3,node/6910755173,
5.3198733,-4.0802502,0,Yopougon Sideci - Terminus 42,node/6910755174,
5.3242746,-4.0667291,0,Marché Kouté,node/6910755176,
5.3236042,-4.0615042,0,L'usine du camp,node/6910755177,
5.3236336,-4.0577316,0,Stenb,node/6910755178,
5.3222355,-4.0535085,0,Le petit soleil,node/6910755179,
5.3222275,-4.0507693,0,Yopougon Kowëit,node/6910755180,
5.3222395,-4.0464583,0,La faveur,node/6910755181,
5.3198693,-4.0439746,0,Pharmacie Chenain,node/6910755182,
5.3171339,-4.0439826,0,Iris 3,node/6910755183,
5.3137348,-4.0440027,0,Bon choix,node/6910755184,
5.3095505,-4.0439558,0,Santé Village,node/6910794085,
5.3101983,-4.0353389,0,Gare Abobodoumé,node/6910794088,
5.4258812,-4.01971,0,Arrêt,node/6910797790,
5.4182684,-4.0128435,0,Arrêt,node/6910797791,
5.4156089,-4.0054353,0,Arrêt,node/6910797792,
5.4155902,-3.999584,0,Arrêt,node/6910797793,
5.4038607,-3.9856156,0,Termunis 81/82,node/6910797794,
5.4031254,-3.9792073,0,BICICI,node/6910797795,
5.4011881,-3.9780821,0,Arrêt,node/6910797796,
5.3988302,-3.9776878,0,Arrêt,node/6910797797,
5.3963428,-3.977036,0,Arrêt,node/6910797798,
5.3932466,-3.9761992,0,Arrêt,node/6910797799,
5.3946558,-3.971504,0,Arrêt,node/6910797800,
5.4000986,-3.9649835,0,Cité Diaspora,node/6910797801,
5.4025338,-3.9621642,0,SOCIAM,node/6910797802,
5.4022965,-3.9620463,0,SOCIAM,node/6910797803,
5.399963,-3.9570893,0,CHU Angré,node/6910797804,
5.4154527,-4.0022783,0,Arrêt,node/6910797805,
5.3997812,-3.9570173,0,CHU Angré,node/6910797806,
5.4003923,-3.9592423,0,Arrêt,node/6910797807,
5.4011774,-3.960527,0,Arrêt,node/6910797808,
5.3991713,-3.9657399,0,Arrêt,node/6910797809,
5.3964463,-3.9689626,0,Arrêt,node/6910797810,
5.3933681,-3.9736088,0,Arrêt,node/6910797811,
5.3929368,-3.9754415,0,Arrêt,node/6910797812,
5.3954823,-3.9769683,0,Arrêt,node/6910797813,
5.3963101,-3.9772754,0,Arrêt,node/6910797814,
5.4003569,-3.9781552,0,Arrêt,node/6910797815,
5.4022415,-3.978471,0,Arrêt,node/6910797816,
5.4029505,-3.9794534,0,BICICI,node/6910797817,
5.4042516,-3.9898295,0,Arrêt,node/6910797818,
5.4070126,-3.9911934,0,Saint Ambroise,node/6910797819,
5.4103992,-3.9941237,0,Arrêt,node/6910797820,
5.4136035,-3.9953287,0,Arrêt,node/6910797821,
5.3317315,-4.0043772,0,Lycée Classique d'Abidjan,node/6912410269,
5.3286968,-4.0047695,0,Hotel Ivoire 2,node/6912410270,
5.3278806,-4.0029871,0,Hotel Ivoire,node/6912410271,
5.3277329,-4.0032565,0,Hotel Ivoire,node/6912410272,
5.3327049,-4.0045047,0,Lycée Classique d'Abidjan,node/6912410273,
5.3439798,-4.0037108,0,SODEMI,node/6912410274,
5.3477876,-4.0095505,0,Pont lycée technique,node/6912410275,
5.3290976,-4.0751626,0,Carrefour Express,node/6912654329,
5.3581253,-4.0012691,0,BMW,node/6912729876,
5.3601195,-3.998725,0,SOCITECH,node/6912729877,
5.3648148,-3.9976354,0,MACACI,node/6912729878,
5.367356,-3.9983993,0,Mobil 2 Plateaux,node/6912729879,
5.3718047,-3.9984268,0,Sococé 2 Plateaux,node/6912729880,
5.3745478,-3.9985198,0,BOA,node/6912729881,
5.3755833,-3.9985338,0,SNEDAI,node/6912729882,
5.3776569,-3.9976312,0,Carrefour Duncan,node/6912729883,
5.3809527,-3.9943103,0,Las Palmas,node/6912729884,
5.3388207,-4.0792393,0,Pharmacie du Marché,node/6912805206,
5.3373258,-4.0765581,0,[Arret sans nom],node/6912805207,
5.3384061,-4.0752894,0,Patisserie,node/6912805208,
5.3467623,-4.0652525,0,Ex Chaine Avion Rue Princesse,node/6912805209,
5.3408189,-4.0599974,0,Camp FRCI,node/6912805210,
5.3398655,-4.0572368,0,Carrefour Marché,node/6912805211,
5.3373205,-4.0549944,0,Carrefour Lama Fofana,node/6912805212,
5.3337105,-4.0550186,0,Banque Atlantique,node/6912805213,
5.3316575,-4.0520655,0,Offoumou Yapo,node/6912805214,
5.3293394,-4.0497521,0,Tizra,node/6912805215,
5.3264792,-4.0494691,0,[Arret sans nom],node/6912805216,
5.3247299,-4.0494999,0,[Arret sans nom],node/6912805217,
5.3104606,-4.0354465,0,Gare Abobo Doumé,node/6912805219,
5.3847656,-3.9932407,0,Carrefour Opéra,node/6912820385,
5.3888111,-3.9927523,0,Mahikari,node/6912820386,
5.3926338,-3.992269,0,Ambassade de Chine,node/6912820387,
5.3942154,-3.9921141,0,Les Oscars,node/6912820388,
5.3963811,-3.9918337,0,BHCI,node/6912820389,
5.4005116,-3.9913523,0,Shawarma House,node/6912820390,
5.4038172,-3.9909124,0,Petro Ivoire,node/6912820391,
5.4042033,-3.9882535,0,Notre Dame,node/6912820392,
5.4034748,-3.9819806,0,FIRDA,node/6912820393,
5.4033098,-3.9765606,0,"Ancien Terminus 90, Les Arcades",node/6912820394,
5.4006902,-3.9728354,0,Soleil 2,node/6912820395,
5.3971939,-3.9694727,0,Clinique Médicale Sainte Justine,node/6912820396,
5.3998522,-3.9648829,0,Cité Diaspora,node/6912820397,
5.3972237,-3.9697282,0,Clinique Médicale Sainte Justine,node/6912820398,
5.4031598,-3.9764213,0,"Ancien Terminus 90, Les Arcades",node/6912820399,
5.4033208,-3.9820585,0,FIRDA,node/6912820400,
5.4037772,-3.9856793,0,Termunis 81/82,node/6912820401,
5.4041375,-3.9887434,0,Notre Dame,node/6912820402,
5.4037567,-3.9906882,0,Petro Ivoire,node/6912820403,
5.4002961,-3.9911377,0,Carrefour 22è,node/6912820404,
5.3965825,-3.9915941,0,BHCI,node/6912820405,
5.3926201,-3.9920829,0,Ambassade de Chine,node/6912820406,
5.3895654,-3.9924668,0,Mahikari,node/6912820407,
5.3845481,-3.9930996,0,Opéra,node/6912820408,
5.3809502,-3.9940546,0,Las Palmas,node/6912820409,
5.3779505,-3.9970644,0,Carrefour Duncan,node/6912820410,
5.3753472,-3.9983567,0,Le Roi du Pain,node/6912820411,
5.3725038,-3.9983278,0,Sococé 2 Plateaux,node/6912820412,
5.3677225,-3.9981432,0,Mobil 2 Plateaux,node/6912820413,
5.3654376,-3.9973648,0,MACACI,node/6912820414,
5.3574699,-4.0012391,0,Saint Jacques,node/6912820415,
5.3525544,-4.0018639,0,Palm Club,node/6912820416,
5.3493692,-4.0022742,0,Carrefour la Vie,node/6912820417,
5.344562,-4.0028093,0,Arrêt,node/6912820418,
5.3266074,-4.0255438,0,Sitarail,node/6913011676,
5.3293875,-4.073499,0,Gare Yopougon Kouté,node/6913011677,
5.3134744,-4.0441328,0,Bon choix,node/6913190443,
5.3087112,-4.043768,0,Santé Village,node/6913190444,
5.3166799,-4.0440879,0,[Arret sans nom],node/6913190445,
5.3208014,-4.0441167,0,[Arret sans nom],node/6913190446,
5.3221154,-4.0468311,0,[Arret sans nom],node/6913190447,
5.323918,-4.0496448,0,[Arret sans nom],node/6913190448,
5.3270841,-4.0503167,0,Commissariat de Police du 19ᵉ Arrondissement,node/6913190449,
5.3295798,-4.0501732,0,Tizra,node/6913190450,
5.3313998,-4.0519957,0,Offoumou Yapo,node/6913190451,
5.3337753,-4.0550937,0,La Poste,node/6913190452,
5.3369773,-4.055093,0,Pharmacie Sacré-cœur,node/6913190453,
5.3401473,-4.058547,0,Pharmacie Béatitude,node/6913190454,
5.3407362,-4.0608235,0,Nouveau quartier,node/6913190455,
5.3466167,-4.0650474,0,Ex Chaine Avion Rue Princesse,node/6913190456,
5.3447353,-4.0678006,0,Newton,node/6913190457,
5.3395304,-4.0745628,0,Marche Sicogi,node/6913190458,
5.3379928,-4.0751928,0,Patisserie,node/6913190459,
5.3372574,-4.0770331,0,Pharmacie du Marché,node/6913190460,
5.3372711,-4.0806585,0,Terrain Sogefiha,node/6913190461,
5.3335416,-4.0733126,0,Antenne,node/6913201897,
5.3290163,-4.0757574,0,Cabine Bleue,node/6913201898,
5.3243327,-4.0799806,0,Akadjoba,node/6913201899,
5.3239194,-4.0871836,0,Saint Pierre,node/6913201900,
5.3233739,-4.0925668,0,EPP Niangon,node/6913201901,
5.3197171,-4.0944323,0,Arrêt,node/6913201902,
5.3163701,-4.0947904,0,Arrêt,node/6913201903,
5.3152357,-4.0928994,0,Arrêt Yop 38,node/6913201904,
5.315995,-4.0900334,0,Terminus 27,node/6913201907,
5.3150643,-4.0934497,0,Arrêt,node/6913201908,
5.3172602,-4.0948509,0,EPP SICOGI Niangon Sud,node/6913201909,
5.3202551,-4.0943199,0,Carrefour Marché,node/6913201910,
5.3233885,-4.0926667,0,EPP Niangon,node/6913201911,
5.3240967,-4.0869619,0,Saint Pierre,node/6913201912,
5.3246783,-4.0797426,0,Akadjoba,node/6913201913,
5.3287702,-4.0762905,0,Arrêt de bus,node/6913201914,
5.3146172,-4.0184952,0,Gare Sud,node/6913201915,
5.3144986,-4.0183564,0,Gare Sud,node/6913291219,
5.329485,-3.9977011,0,CNTG-BNETD,node/6913703797,
5.3310059,-3.9970399,0,UCAO,node/6913703798,
5.3350719,-3.9973538,0,Maison du PDCI-RDA,node/6913703799,
5.3084936,-3.9997195,0,Piscine d’État de Treichville,node/6913703800,
5.3074734,-3.990551,0,NSIA,node/6913703801,
5.3086966,-3.9837714,0,Gare Marcory,node/6913703802,
5.3353656,-3.9975172,0,Maison du Parti,node/6913703803,
5.3310313,-3.9969162,0,UCAO,node/6913703804,
5.3293836,-3.9976804,0,CNTG-BNETD,node/6913703805,
5.3556761,-4.0658437,0,Sable,node/6913857608,
5.3407344,-4.0646331,0,"Complexe Sportif, Yopougon",node/6913857611,
5.3424009,-4.0665987,0,Mairie de Yopougon,node/6913857612,
5.3443401,-4.0375561,0,La Marine,node/6913929664,
5.3278599,-4.0262003,0,Sitarail,node/6913929665,
5.3146272,-4.0182404,0,Gare Sud,node/6913929666,
5.3441859,-4.0376761,0,La Marine,node/6913929668,
5.3295615,-4.0737128,0,Gare Yopougon Kouté,node/6913929669,
5.3367091,-4.0216157,0,Gendarmerie,node/6913931703,
5.3369705,-4.0217222,0,Gendarmerie,node/6913974340,
5.400545,-3.9728972,0,Soleil 2,node/6915341517,
5.4035247,-3.9837323,0,Arrêt,node/6915341518,
5.4062326,-3.9906836,0,Arrêt,node/6915341519,
5.4297269,-3.9894234,0,Arrêt,node/6915341520,
5.4313416,-3.9891222,0,Arrêt,node/6915341521,
5.4564179,-3.9725804,0,Abobo Biabou,node/6915341523,
5.4564283,-3.9726482,0,Abobo Biabou,node/6915341525,
5.4454571,-3.978184,0,Arrêt,node/6915341526,
5.4430187,-3.9810371,0,Arrêt,node/6915341527,
5.441543,-3.9831075,0,Arrêt,node/6915341528,
5.4403681,-3.9847859,0,Arrêt,node/6915341529,
5.4391313,-3.9859783,0,Arrêt,node/6915341530,
5.4368688,-3.9875153,0,Arrêt,node/6915341531,
5.4356843,-3.987991,0,Arrêt,node/6915341532,
5.434457,-3.9883619,0,Arrêt,node/6915341533,
5.4327625,-3.9887503,0,Arrêt,node/6915341534,
5.4312302,-3.9889419,0,Arrêt,node/6915341535,
5.4293215,-3.9892581,0,Arrêt,node/6915341536,
5.4264243,-3.9896961,0,Arrêt,node/6915341537,
5.4229496,-3.9902515,0,Arrêt,node/6915341538,
5.4208149,-3.9905681,0,Arrêt,node/6915341539,
5.4195345,-3.9907254,0,Arrêt,node/6915341540,
5.4182159,-3.9909298,0,Arrêt,node/6915341541,
5.4158878,-3.9922122,0,Arrêt,node/6915341542,
5.4154923,-3.9928597,0,Arrêt,node/6915341543,
5.4148205,-3.9947036,0,Arrêt,node/6915341544,
5.4141247,-3.9952879,0,Arrêt,node/6915341545,
5.409531,-3.9932262,0,Arrêt,node/6915341546,
5.4050885,-3.990564,0,Petro Ivoire Angré,node/6915341547,
5.403643,-3.9829561,0,Arrêt,node/6915341548,
5.4033522,-3.9807645,0,Arrêt,node/6915341549,
5.3585446,-3.96346,0,9 Kilo,node/6915487638,
5.360974,-3.9586683,0,Rond-Point de la Palmeraie,node/6915487639,
5.3606149,-3.9598948,0,Carrefour de la Gendarmerie,node/6915487640,
5.3568703,-3.9665508,0,Cap Nord,node/6915487641,
5.3532599,-3.9779824,0,Riviéra 2,node/6915487642,
5.3502292,-3.9881887,0,École de Police,node/6915487643,
5.3492233,-3.9943092,0,École de la Gendarmerie,node/6915487644,
5.3485522,-4.0018322,0,Carrefour de la Vie,node/6915487645,
5.4217637,-4.0185375,0,Mairie d'ABOBO,node/6915647682,
5.4270593,-4.0212736,0,Arrêt,node/6915647683,
5.4303911,-4.0241622,0,Arrêt,node/6915647684,
5.3587403,-3.9635319,0,9 Kilo,node/6915696792,
5.3596047,-3.9620358,0,Chic Shop,node/6915696795,
5.3574857,-3.9657802,0,Cap Nord,node/6915696796,
5.3504609,-3.9881605,0,École de Police,node/6915696797,
5.3494956,-3.9916044,0,Carrefour CHU,node/6915696798,
5.3493834,-3.994457,0,École de la Gendarmerie,node/6915696799,
5.3485982,-4.0029649,0,Carrefour de la Vie,node/6915696800,
5.4333404,-4.0266778,0,Arrêt,node/6915722685,
5.4390733,-4.0446977,0,Anokoi,node/6915722686,
5.4434752,-4.0485036,0,PK 18 Agripac,node/6915722687,
5.4482915,-4.0512502,0,Arrêt,node/6915722688,
5.4503535,-4.0529903,0,Arrêt,node/6915722689,
5.4565524,-4.0545715,0,Arrêt,node/6915722690,
5.4574448,-4.054497,0,Arrêt,node/6915722691,
5.465098,-4.0544278,0,Arrêt,node/6915722692,
5.4662168,-4.0540279,0,Arrêt,node/6915722693,
5.4680953,-4.0530974,0,Arrêt,node/6915722694,
5.4794949,-4.0538658,0,Arrêt,node/6915722695,
5.4828953,-4.0513358,0,Arrêt,node/6915722696,
5.4837187,-4.0513476,0,Arrêt,node/6915722697,
5.4866626,-4.05146,0,Arrêt,node/6915722698,
5.4890597,-4.0515593,0,Arrêt,node/6915722699,
5.4904279,-4.0516047,0,Arrêt,node/6915722700,
5.490915,-4.0516233,0,Arrêt,node/6915722701,
5.4914503,-4.051639,0,Arrêt,node/6915722702,
5.4928779,-4.0516636,0,Arrêt,node/6915722703,
5.4940805,-4.0517658,0,Arrêt,node/6915722704,
5.495095,-4.0517794,0,Arrêt,node/6915722705,
5.4960474,-4.0516644,0,Arrêt,node/6915722706,
5.4970767,-4.0515036,0,Arrêt,node/6915722707,
5.497669,-4.051438,0,Arrêt,node/6915722708,
5.4979794,-4.0513918,0,Arrêt,node/6915722709,
5.4995751,-4.0516497,0,Arrêt,node/6915722710,
5.500507,-4.0519247,0,Arrêt,node/6915722711,
5.5011338,-4.0520934,0,Arrêt,node/6915722712,
5.5015989,-4.0522125,0,Arrêt,node/6915722713,
5.5026911,-4.0525268,0,Arrêt,node/6915722714,
5.5045432,-4.0530594,0,Arrêt,node/6915722715,
5.5053444,-4.0532829,0,Arrêt,node/6915722716,
5.5064599,-4.0531365,0,Mairie d'Anyama,node/6915722717,
5.5064064,-4.0530408,0,Mairie d'Anyama,node/6915722719,
5.4976427,-4.0513828,0,Arrêt,node/6915722720,
5.5027177,-4.0523687,0,Arrêt,node/6915722721,
5.4994894,-4.0514357,0,Arrêt,node/6915722722,
5.4949787,-4.0516383,0,Arrêt,node/6915722723,
5.4888603,-4.051407,0,Arrêt,node/6915722724,
5.4863031,-4.0513417,0,Arrêt,node/6915722725,
5.4825896,-4.0512201,0,Arrêt,node/6915722726,
5.479955,-4.0531887,0,Arrêt,node/6915722727,
5.4757466,-4.0552147,0,Arrêt A l'Ecole,node/6915722728,
5.470731,-4.0531044,0,Arrêt Contrôle,node/6915722729,
5.4669354,-4.0534141,0,Arrêt,node/6915722730,
5.4611068,-4.053759,0,Arrêt Ancienne Gendarmerie,node/6915722731,
5.4526174,-4.0544875,0,Arrêt,node/6915722732,
5.4503748,-4.0526523,0,Arrêt Ancien Marché,node/6915722733,
5.4483606,-4.0510764,0,Arrêt Terminus,node/6915722734,
5.4449974,-4.0491425,0,Arrêt Agripac,node/6915722735,
5.4436482,-4.0484067,0,Arrêt,node/6915722736,
5.28758,-4.0057551,0,Terminus dépôt SOTRA,node/6916152424,
5.2890666,-4.0084018,0,Pharmacie du Port,node/6916152425,
5.2961604,-4.0033572,0,Arrêt du CHU,node/6916152426,
5.2991407,-4.0024808,0,Gare de Bassam,node/6916152427,
5.3478959,-4.0026565,0,Arrêt,node/6916181080,
5.3700062,-3.9983308,0,Grande Pharmacie /Terminus 300FCFA,node/6916181081,
5.4157357,-3.9930971,0,Arrêt,node/6916280433,
5.4149934,-3.9940211,0,Terminus Abobo Baoulé,node/6916280434,
5.4129627,-3.9948875,0,Pharmacie Actuelle,node/6916280435,
5.4103431,-3.9939447,0,Arrêt,node/6916280436,
5.4085794,-3.9923863,0,Arrêt,node/6916280437,
5.4071215,-3.9910921,0,Saint Ambroise,node/6916280438,
5.4055233,-3.990494,0,Arrêt,node/6916280439,
5.4011787,-3.9910264,0,Arrêt,node/6916280440,
5.3991513,-3.9912618,0,Carrefour 22ème,node/6916280441,
5.3973362,-3.991524,0,SODECI,node/6916280442,
5.3945043,-3.9918311,0,Paris Baguette,node/6916280443,
5.3875127,-3.9927256,0,Arrêt,node/6916280444,
5.3797969,-3.9952144,0,Arrêt,node/6916280445,
5.3737207,-3.9983542,0,NSIA,node/6916280446,
5.3700155,-3.9981216,0,SGBGI,node/6916280447,
5.3465781,-4.002571,0,Cité BAD,node/6916280448,
5.3386878,-4.0035403,0,CIE,node/6916280449,
5.3065218,-3.9865047,0,Commissariat du 9 ème,node/6917146061,
5.3061086,-3.9857063,0,Commissariat du 9 ème,node/6917146062,
5.3034179,-3.9807831,0,King Cash,node/6917146063,
5.3015677,-3.9776047,0,Cabinet Médical du 3ème pont,node/6917146064,
5.3005869,-3.9757915,0,Marché de Marcory,node/6917146065,
5.2986259,-3.9722389,0,Paroisse Sainte Bernadette,node/6917146066,
5.2982013,-3.9714765,0,Pharmacie Bagoué,node/6917146067,
5.2968312,-3.9688084,0,Banque of Africa,node/6917146068,
5.2965895,-3.9650103,0,Arrêt,node/6917146069,
5.2975636,-3.9608221,0,Arrêt,node/6917146070,
5.2983628,-3.9572333,0,Place Inchallah,node/6917146071,
5.299281,-3.9531506,0,Koumassi Prodomo,node/6917146072,
5.3001329,-3.9494388,0,Gare Mesano,node/6917146073,
5.3008577,-3.9476752,0,Koumassi Mesano,node/6917146074,
5.3002935,-3.9483867,0,Koumassi Mesano,node/6917146075,
5.2998074,-3.9505841,0,Station Petro Ivoire,node/6917146076,
5.2989496,-3.9543702,0,Palce Inchallah,node/6917146077,
5.2980163,-3.9585451,0,Arrêt,node/6917146078,
5.2972737,-3.9619419,0,Arrêt,node/6917146079,
5.2962808,-3.9660523,0,Arrêt,node/6917146080,
5.296728,-3.9687629,0,Banque of Africa,node/6917146081,
5.2980069,-3.9712863,0,Pharmacie Bagoué,node/6917146082,
5.3006211,-3.9759814,0,Marché de Marcory,node/6917146083,
5.3016585,-3.9778785,0,Cabinet Médical du 3ème pont,node/6917146084,
5.3044464,-3.9828404,0,Arrêt,node/6917151685,
5.3062161,-3.9860886,0,Commissariat du 9 ème,node/6917151686,
5.3077309,-3.988849,0,Arrêt,node/6917151687,
5.3084636,-3.9904413,0,Yan Auto Ecole,node/6917151688,
5.3106101,-4.0352896,0,Gare Abobodoumé,node/6919194336,
5.3270854,-4.0923844,0,Cité Bracodi Rte Cité verte,node/6919312942,
5.332209,-4.1119954,0,Cité Verte,node/6919312943,
5.3316148,-4.109973,0,Collège Sebaco,node/6919312945,
5.3306787,-4.1058974,0,Cité Bracodi Rte Cité verte,node/6919312946,
5.3296893,-4.1035223,0,Banque BNI,node/6919312947,
5.3284241,-4.100539,0,Le repère,node/6919312948,
5.3278005,-4.0976201,0,Carrefour de Niangon,node/6919312949,
5.3241547,-4.0812954,0,Akadjoba,node/6919312950,
5.3103655,-4.0351267,0,Gare Abobodoumé,node/6919312951,
5.322126,-4.053652,0,Le petit soleil,node/6919327587,
5.3235388,-4.0573213,0,Blé Doré,node/6919327588,
5.3241224,-4.0669544,0,Marché Kouté,node/6919327589,
5.3251706,-4.0710314,0,Carrefour Kouté,node/6919327590,
5.325455,-4.0761933,0,Marejea,node/6919327591,
5.3238646,-4.0818366,0,Akadjoba,node/6919327593,
5.3264405,-4.0914322,0,Arrêt,node/6919327594,
5.327729,-4.0976496,0,Carrefour de Niangon,node/6919327595,
5.3283566,-4.1005786,0,Le repère,node/6919327596,
5.3295851,-4.1035169,0,Top Qualitée,node/6919327597,
5.3307695,-4.1063239,0,Cité Bracodi Rte Cité verte,node/6919327598,
5.2982594,-3.9831407,0,Arrêt,node/6919758025,
5.2961308,-3.9792079,0,Arrêt,node/6919758026,
5.2945624,-3.9763809,0,Arrêt,node/6919758027,
5.293456,-3.9743974,0,Arrêt,node/6919758028,
5.2927669,-3.9712223,0,Arrêt,node/6919758029,
5.2932236,-3.9690283,0,Arrêt,node/6919758030,
5.2940469,-3.965347,0,Arrêt,node/6919758031,
5.2951953,-3.9603108,0,Arrêt,node/6919758032,
5.2961324,-3.9565101,0,Arrêt,node/6919758033,
5.297599,-3.9526269,0,Sogefia,node/6919758034,
5.2987064,-3.9478318,0,Arrêt,node/6919758035,
5.3015424,-3.9469644,0,Station Petro Ivoire,node/6919758036,
5.3043266,-3.9453759,0,Arrêt,node/6919758037,
5.3080062,-3.946713,0,Bon Samaritain,node/6919758038,
5.3099762,-3.9473403,0,Pharmacie Fanny,node/6919758039,
5.3109106,-3.9466942,0,Patisserie MC,node/6919758040,
5.311165,-3.9450346,0,Terminus 05 Lycée Municipal de Koumassi,node/6919758041,
5.3023303,-4.0106387,0,"Avenue 19, Rue 12, Treichville",node/6924851825,
5.3047639,-4.0115547,0,FIESTA,node/6924851826,
5.3028704,-4.0006757,0,Treichville Entente,node/6924851828,
5.3015791,-4.0016802,0,Nostalgie,node/6924851829,
5.300882,-4.003555,0,Banque Bicici,node/6924851830,
5.2999593,-4.0062869,0,[Arret sans nom],node/6924851831,
5.3586294,-4.0277536,0,Gare Nord,node/6924851833,
5.3025272,-4.0106307,0,"Avenue 19, Rue 12, Treichville",node/6924979791,
5.3029946,-4.0062426,0,Pharmacie de l'Avenue 27,node/6924979792,
5.3032777,-4.0008245,0,Treichville Entente,node/6924979794,
5.3296238,-4.0208888,0,[Arret sans nom],node/6926746685,
5.3309876,-4.0236032,0,Terminus tours Administratives,node/6926746686,
5.3149603,-4.018979,0,Terminus Gare Sud,node/6926746688,
5.3018048,-4.0096436,0,Station Total,node/6926746689,
5.4538834,-3.9737989,0,Arrêt,node/6926746749,
5.4385456,-3.9864522,0,Arrêt,node/6926746750,
5.4222388,-3.9903197,0,Arrêt,node/6926746751,
5.4154549,-3.9996626,0,Arrêt,node/6926746752,
5.4154484,-4.0016378,0,Arrêt,node/6926746753,
5.4155231,-4.0054049,0,Arrêt,node/6926746754,
5.4152696,-4.0071858,0,Samake,node/6926746755,
5.3590439,-4.0280449,0,Gare Nord,node/6926746757,
5.4155963,-4.0019605,0,Arrêt,node/6926746758,
5.4156232,-3.9928882,0,Arrêt,node/6926746759,
5.4196603,-3.9908193,0,Sotra,node/6926746760,
5.422222,-3.9904401,0,Arrêt,node/6926746761,
5.4265157,-3.9898619,0,Arrêt,node/6926746762,
5.43368,-3.9886816,0,Arrêt,node/6926746763,
5.4374054,-3.9873449,0,Arrêt,node/6926746764,
5.4402786,-3.9850082,0,Arrêt,node/6926746765,
5.443381,-3.9807703,0,Arrêt,node/6926746766,
5.4451883,-3.9785569,0,Arrêt,node/6926746767,
5.3079127,-3.946597,0,Bon Samaritain,node/6926943107,
5.3050831,-3.9451392,0,Pharmacie Campement,node/6926943108,
5.3011838,-3.9835873,0,Hôpital Général de Marcory,node/6926943109,
5.3034579,-4.0046641,0,Pharmacie Notre-Dame,node/6926943110,
5.3146776,-4.0185633,0,Gare Sud,node/6926943111,
5.3311928,-4.0236086,0,Terminus tours Administratives,node/6926943112,
5.3051694,-3.9840318,0,[Arret sans nom],node/6927022357,
5.4159386,-3.9930649,0,Arrêt,node/6927037611,
5.408251,-4.0063405,0,Arrêt,node/6927037612,
5.4057129,-4.0063848,0,Arrêt,node/6927037613,
5.4013897,-4.0064518,0,Arrêt,node/6927037614,
5.3930717,-4.0057893,0,Arrêt,node/6927037615,
5.3875774,-4.0056726,0,Arrêt,node/6927037616,
5.3801858,-4.0066168,0,Arrêt,node/6927037617,
5.3625903,-4.0168427,0,Arrêt,node/6927037618,
5.3503578,-4.0169801,0,Pharmacie le Belier,node/6927037619,
5.3456673,-4.0178358,0,Fraternité Matin,node/6927037620,
5.3411247,-4.0237561,0,Arrêt,node/6927037621,
5.3372751,-4.0237963,0,Arrêt,node/6927037622,
5.3339228,-4.0238252,0,Arrêt,node/6927037623,
5.3310139,-4.0238251,0,Terminus tours Administratives,node/6927037625,
5.3339515,-4.0238861,0,Arrêt,node/6927037626,
5.3377117,-4.0238741,0,Ministère de la défense,node/6927037627,
5.3557539,-4.0161668,0,Arrêt,node/6927037628,
5.379605,-4.0068716,0,Arrêt,node/6927037629,
5.386285,-4.0059958,0,Arrêt,node/6927037630,
5.4018603,-4.0065437,0,Arrêt,node/6927037631,
5.4158855,-3.9933257,0,Abobo Belleville,node/6927037633,
5.3434193,-4.0125125,0,Arrêt,node/6927327302,
5.346265,-4.0103402,0,Arrêt,node/6927327303,
5.3494085,-4.0088409,0,Arrêt,node/6927327304,
5.3529759,-4.0044479,0,Arrêt,node/6927327305,
5.4043844,-3.989773,0,Arrêt,node/6927327306,
5.4048944,-3.9851483,0,Arrêt,node/6927327307,
5.4082838,-3.9867901,0,Arrêt,node/6927327308,
5.407261,-3.9890592,0,Arrêt,node/6927327309,
5.3528041,-4.0043218,0,Arrêt,node/6927327310,
5.3493597,-4.0085859,0,Arrêt,node/6927327311,
5.3461658,-4.0102683,0,Arrêt,node/6927327312,
5.3433536,-4.0124663,0,Polyclinique,node/6927327313,
5.3147983,-4.0186967,0,Gare Sud,node/6927327314,
5.3022414,-3.9464354,0,Campement,node/6927330411,
5.3120389,-3.9450815,0,Terminus 05 Lycée Municipal de Koumassi,node/6927330412,
5.3099838,-3.9472561,0,Pharmacie Fanny,node/6927330413,
5.3362229,-4.0047298,0,Arrêt,node/6927330414,
5.3462362,-3.9938503,0,Gare Campus Cocody,node/6927330416,
5.3463523,-3.9972169,0,INSAAC,node/6927544633,
5.3359628,-4.0030417,0,Saint Jean,node/6927544634,
5.3358129,-4.0029552,0,Saint Jean,node/6927544636,
5.3482687,-3.9970998,0,Gendarmerie,node/6927544637,
5.3536864,-4.0175371,0,Arrêt,node/6927600976,
5.3567305,-4.0250561,0,Mirador,node/6927600977,
5.3566458,-4.0241115,0,Arrêt SICOGI,node/6927631763,
5.3592856,-4.0275494,0,Gare Nord,node/6927694921,
5.3470894,-3.9971908,0,Arrêt,node/6927701716,
5.3534453,-3.9700449,0,Terminus Riviera 2,node/6928179123,
5.3533983,-3.9736351,0,Cité étudiante Riviera 2,node/6928179124,
5.3525929,-3.9780678,0,Riviera 2,node/6928179125,
5.3512739,-3.9805625,0,Petite Mosquée Riviéra Jardin,node/6928179126,
5.3516026,-3.9803499,0,Petite Mosquée Riviéra Jardin,node/6928250859,
5.3526374,-3.9781867,0,Riviera 2,node/6928250860,
5.3530707,-3.9761267,0,Arrêt,node/6928250861,
5.3534857,-3.9702004,0,Terminus Riviera 2,node/6928250862,
5.2563753,-3.9975737,0,Terminus Vridi-Iran,node/6928681599,
5.2947326,-4.0101948,0,Arrêt Cuirasse Ciment,node/6928681601,
5.3588804,-4.0279685,0,Gare Nord,node/6928681602,
5.3050571,-4.0228924,0,Terminus 32,node/6928704112,
5.3002851,-4.0170398,0,[Arret sans nom],node/6928704113,
5.29778,-4.0140854,0,"Etablissements Rey, Port",node/6928704114,
5.264595,-3.9995223,0,Arrêt Bolloré logistique,node/6928704115,
5.2562337,-3.9975522,0,Terminus Vridi-Iran,node/6928704117,
5.3143818,-4.0182207,0,Gare Sud,node/6929796960,
5.314962,-4.0189046,0,Terminus Gare Sud,node/6929849943,
5.3078566,-3.9888954,0,Arrêt,node/6930487819,
5.3612016,-3.8943455,0,Station Corlay Bingerville,node/6930917942,
5.3618466,-3.9581935,0,Après barrage,node/6930917943,
5.364055,-3.9537437,0,Dalia,node/6930917944,
5.3653603,-3.9497378,0,Église Apostolique de Côte d'Ivoire,node/6930917945,
5.3673945,-3.94563,0,Camp Millitaire d'Akouédo,node/6930917946,
5.370105,-3.9389929,0,Carrefour Faya,node/6930917947,
5.3712573,-3.9347483,0,Résidence Genie 2000,node/6930917948,
5.3725084,-3.9301188,0,Optic 2000,node/6930917949,
5.3741413,-3.9237472,0,Jules Verne,node/6930917950,
5.3718715,-3.9108525,0,Pharmacie Saint Sylvestre,node/6930917951,
5.3645064,-3.9083956,0,Cité Hévéas,node/6930917952,
5.3606115,-3.9031767,0,Université de Cocody Pole Scientifique,node/6930917953,
5.360275,-3.8979524,0,CIE,node/6930917954,
5.360916,-3.8963887,0,[Arret sans nom],node/6930917955,
5.3577634,-3.8909747,0,Lycée garçon de Bingerville,node/6930917956,
5.3574363,-3.8866322,0,Carrefour marché,node/6930917957,
5.3583363,-3.8843503,0,Espace Orange,node/6930917958,
5.360674,-3.8841063,0,Hôpital Mère-Enfant de Bingerville,node/6930917959,
5.3573589,-3.886655,0,Carrefour marché,node/6930917961,
5.3576746,-3.8908299,0,Lycée garçon de Bingerville,node/6930917962,
5.3601255,-3.8980114,0,CIE,node/6930917963,
5.360215,-3.9020951,0,Université de Cocody Pole Scientifique,node/6930917964,
5.3643261,-3.9084667,0,Cité Hévéas,node/6930917965,
5.368265,-3.9097783,0,Cité Marina,node/6930917966,
5.3714883,-3.9108391,0,Arrêt,node/6930917967,
5.3740098,-3.9233838,0,Jules Verne,node/6930917968,
5.3716378,-3.9324215,0,Coris Bank,node/6930917969,
5.3701704,-3.9379911,0,Arrêt,node/6930917970,
5.3671088,-3.9456984,0,Camp Millitaire d'Akouédo,node/6930917971,
5.3637324,-3.9527636,0,[Arret sans nom],node/6930917972,
5.3617224,-3.9579964,0,Après barrage,node/6930917973,
5.2993777,-3.94723,0,Arrêt,node/6931151021,
5.2975523,-3.9523798,0,Sogefia,node/6931151022,
5.2958991,-3.9571428,0,Arrêt,node/6931151023,
5.2952895,-3.9596352,0,Pharmacie Saint François,node/6931151024,
5.2941237,-3.9646348,0,Grande Pharmacie Iroko,node/6931151025,
5.2929966,-3.9695299,0,Arrêt,node/6931151026,
5.2924858,-3.971683,0,Pharmacie Du Boulevard Du Gabon,node/6931151027,
5.2940696,-3.9757097,0,Polyclinique La Madone,node/6931151028,
5.2965781,-3.9801776,0,Arrêt,node/6931151029,
5.298031,-3.9828604,0,Arrêt,node/6931151030,
5.3590066,-4.027668,0,Gare Nord,node/6931151031,
5.2873212,-3.9540428,0,Koumassi Sicogi - Dépôt SOTRA,node/6931273195,
5.2849829,-3.964256,0,[Arret sans nom],node/6931273196,
5.2875055,-3.9651793,0,[Arret sans nom],node/6931273197,
5.2873493,-3.9684516,0,Arrêt,node/6931273198,
5.2883388,-3.9694119,0,[Arret sans nom],node/6931273199,
5.293018,-3.9762314,0,Sicomex,node/6931273200,
5.3148159,-4.0184375,0,Gare Sud,node/6931273203,
5.3074119,-4.0117713,0,Pharmacie du Rond-point,node/6931792543,
5.3090558,-4.0071049,0,[Arret sans nom],node/6931792544,
5.2889971,-3.9672808,0,Centre comercial Koumassi,node/6931792545,
5.2839293,-3.9622262,0,Arrêt,node/6931792546,
5.2847439,-3.9586401,0,Pharmacie Bethanie,node/6931792547,
5.2857761,-3.9543311,0,Arrêt,node/6931792548,
5.2884523,-3.9538698,0,Koumassi Sicogi - Dépôt SOTRA,node/6931792550,
5.2870688,-3.970533,0,Grand Carrefour de Koumassi,node/6931985671,
5.2985627,-4.001299,0,Ivosep Treichville,node/6931985672,
5.3266769,-4.060057,0,Arrêt,node/6932152400,
5.3250076,-4.0598402,0,Ghandi,node/6932152402,
5.3253408,-4.0599193,0,Ghandi,node/6932152404,
5.3600658,-4.0669167,0,Arrêt,node/6932152405,
5.314853,-4.0182858,0,Gare Sud,node/6932152407,
5.3286224,-3.9502595,0,CIAD,node/6932239010,
5.3291271,-3.951901,0,Arrêt,node/6932239011,
5.338314,-3.9522216,0,Arrêt,node/6932239012,
5.3443655,-3.9526011,0,Carrefour Mel Theodore,node/6932239013,
5.348653,-3.9535043,0,Pharmacie Riviera III,node/6932239014,
5.3509724,-3.9545015,0,Collège l'Ardoise,node/6932239015,
5.3550168,-3.9606719,0,Arrêt,node/6932239016,
5.3569209,-3.9637336,0,Arrêt,node/6932239017,
5.3149333,-4.0185761,0,Gare Sud,node/6932239019,
5.4127978,-3.9808642,0,Angré Château,node/6932253478,
5.4102497,-3.984559,0,Arrêt,node/6932253479,
5.3866094,-3.9930569,0,Arrêt,node/6932253480,
5.4076842,-3.9885655,0,Arrêt,node/6932253481,
5.4128518,-3.9809279,0,Angré Château,node/6932253483,
5.3569409,-3.9635029,0,Arrêt,node/6932323632,
5.3517214,-3.9543647,0,Collège Ardoise,node/6932323633,
5.3485048,-3.9531872,0,Pharmacie Riviera III,node/6932323634,
5.3446873,-3.9524998,0,Carrefour Mel Theodore,node/6932323635,
5.3284521,-3.9448656,0,École libanaise Al Ghadir,node/6932323636,
5.3228845,-4.0617429,0,Terminus Yopougon Camp Militaire,node/6933043352,
5.3245991,-4.0599163,0,Ghandi,node/6933043354,
5.3278586,-4.0607049,0,[Arret sans nom],node/6933043355,
5.3300685,-4.0581514,0,[Arret sans nom],node/6933043356,
5.3314439,-4.0559573,0,[Arret sans nom],node/6933043357,
5.3145591,-4.018425,0,Gare Sud,node/6933043359,
5.3283246,-3.9428298,0,Arrêt,node/6933080250,
5.3282992,-3.9447637,0,École libanaise Al Ghadir,node/6933080251,
5.3283286,-3.9460498,0,Arrêt,node/6933080252,
5.328364,-3.9479502,0,Pharmacie M'pouto,node/6933080253,
5.3380122,-3.9527768,0,Beverly,node/6933080254,
5.3311481,-3.9578046,0,Carrefour Sol Béni,node/6933080255,
5.329493,-3.980421,0,Arrêt,node/6933080256,
5.3353723,-3.9996752,0,SIB,node/6933080257,
5.3284154,-3.9401878,0,Mosquée Cité Eden,node/6933080258,
5.3283646,-3.9401855,0,Mosquée Cité Eden,node/6933080260,
5.3461454,-4.0026096,0,Arrêt,node/6933080262,
5.3391939,-3.9789297,0,Mosquée Golf,node/6933080263,
5.3325809,-3.9812806,0,Arrêt,node/6933080264,
5.3297881,-3.9790913,0,Arrêt,node/6933080265,
5.3380134,-3.9529652,0,Beverly,node/6933080266,
5.3312516,-4.0560298,0,[Arret sans nom],node/6933128807,
5.3299817,-4.0580978,0,[Arret sans nom],node/6933128808,
5.3222556,-4.0623571,0,Terminus Yopougon Camp Militaire,node/6933128810,
5.3017767,-4.0094478,0,Station Total,node/6933231056,
5.3029158,-4.0061849,0,Pharmacie de l'Avenue 27,node/6933231057,
5.3589712,-4.0272913,0,Gare Nord,node/6933291484,
5.3591995,-4.0277539,0,Gare Nord,node/6933302185,
5.4266332,-4.0210558,0,Arrêt,node/6934648710,
5.4438112,-4.0538116,0,Arrêt,node/6934648711,
5.4435976,-4.0603428,0,Arrêt,node/6934648712,
5.4434975,-4.0647738,0,Arrêt,node/6934648713,
5.4433733,-4.0679455,0,Arrêt,node/6934648714,
5.442806,-4.0693985,0,Arrêt,node/6934648715,
5.4392747,-4.0686147,0,Arrêt,node/6934648716,
5.4321434,-4.068663,0,Arrêt,node/6934648717,
5.428223,-4.0699659,0,Arrêt,node/6934648718,
5.413004,-4.0783779,0,Arrêt,node/6934648719,
5.4036687,-4.0834808,0,Arrêt,node/6934648720,
5.4009224,-4.0842761,0,Arrêt,node/6934648721,
5.3935763,-4.0810159,0,Arrêt,node/6934648722,
5.3892384,-4.078453,0,Arrêt,node/6934648723,
5.3836466,-4.0757427,0,Arrêt,node/6934648724,
5.3747704,-4.0773951,0,Arrêt,node/6934648725,
5.3762544,-4.0820444,0,Arrêt,node/6934648726,
5.3838941,-4.0759718,0,Arrêt,node/6934648728,
5.389032,-4.0784458,0,Arrêt,node/6934648729,
5.3928929,-4.0806236,0,Arrêt,node/6934648730,
5.4014804,-4.0842976,0,Arrêt,node/6934648731,
5.4130749,-4.0784144,0,Arrêt,node/6934648732,
5.4279813,-4.070195,0,Arrêt,node/6934648733,
5.4326393,-4.0686617,0,Arrêt,node/6934648734,
5.4427909,-4.069498,0,Arrêt,node/6934648735,
5.4435987,-4.0650186,0,Arrêt,node/6934648736,
5.4437261,-4.0602688,0,Arrêt,node/6934648737,
5.4438909,-4.0536714,0,Arrêt,node/6934648738,
5.4432611,-4.0481434,0,Arrêt,node/6934648739,
5.4392603,-4.0438735,0,Arrêt,node/6934648740,
5.3480962,-4.0169741,0,220 logements,node/6934657650,
5.2690497,-3.9618933,0,Carrefour Akwaba,node/6934657651,
5.2629137,-3.9633662,0,Hôpital de Port-Bouët,node/6934657652,
5.2574343,-3.9637684,0,Nouveau marché Port-Bouët,node/6934657653,
5.2567198,-3.961553,0,Océan Espadon,node/6934657654,
5.2542438,-3.9621216,0,Église Méthodiste Unie Port-Bouët,node/6934657655,
5.2530566,-3.9607128,0,Wharf Port-Bouët,node/6934657656,
5.2510654,-3.9560196,0,Terminus Port-Bouët Phare,node/6934657657,
5.400118,-4.0201934,0,Arrêt,node/6934749721,
5.3970398,-4.0027148,0,Centre Commercial du Dokui,node/6934798183,
5.3997114,-4.0014133,0,Sainte Monique,node/6934798184,
5.3994163,-3.9960703,0,Superette Akwaba,node/6934815685,
5.3979557,-3.9916306,0,22ème,node/6934815686,
5.3992227,-3.9959845,0,Superette Akwaba,node/6934815687,
5.3994417,-3.9972693,0,Pharmacie Sainte Monique,node/6934815688,
5.3997942,-4.0008152,0,Station Petro Ivoire,node/6934815689,
5.3994657,-4.0013301,0,Sainte Monique,node/6934815690,
5.3970104,-4.0026122,0,Centre Commercial du Dokui,node/6934815692,
5.3221354,-4.0506908,0,Yopougon Kowëit,node/6934872150,
5.3218817,-4.0802555,0,Sideci Matignon,node/6934872151,
5.4604925,-4.0109827,0,Abobo Akeikoi Village,node/6934922723,
5.4554315,-4.0111108,0,Destin,node/6934922724,
5.4531085,-4.0126598,0,André Bar,node/6934922725,
5.4493063,-4.0136415,0,Arrêt,node/6934922726,
5.4446991,-4.0143429,0,Arrêt,node/6934922727,
5.4400103,-4.0141618,0,Arrêt,node/6934922728,
5.4327535,-4.0137548,0,Arrêt,node/6934922731,
5.4336247,-4.0124023,0,Arrêt,node/6934922732,
5.4393221,-4.0143033,0,Arrêt,node/6934922733,
5.4445716,-4.0145279,0,Arrêt,node/6934922734,
5.4493357,-4.0137662,0,Arrêt,node/6934922735,
5.4531566,-4.0127617,0,André Bar,node/6934922736,
5.4554448,-4.0112489,0,Destin,node/6934922737,
5.4604068,-4.0110518,0,Abobo Akeikoi Village,node/6934922738,
5.3102833,-4.0352396,0,Gare Abobodoumé,node/6934970640,
5.4306528,-4.0240914,0,Arrêt,node/6935113685,
5.3314011,-4.0236072,0,Terminus tours Administratives,node/6935113687,
5.3591731,-4.0273828,0,Gare Nord,node/6935117220,
5.3610508,-3.9897309,0,Woodin,node/6935117222,
5.3653222,-3.9897537,0,[Arret sans nom],node/6935117223,
5.3685842,-3.9898489,0,Nsia Banque,node/6935117224,
5.372732,-3.9904759,0,Leader price,node/6935117225,
5.3770534,-3.9926612,0,Carrefour Sainte Cécile - Terminus 35,node/6935117227,
5.3771843,-3.9926425,0,Carrefour Sainte Cécile - Terminus 35,node/6935251104,
5.3742722,-3.9904471,0,Sococé Vallon,node/6935251105,
5.3686002,-3.9897873,0,Nsia Banque,node/6935251106,
5.364963,-3.9897014,0,[Arret sans nom],node/6935251107,
5.3606736,-3.9896753,0,Woodin,node/6935251108,
5.3576192,-3.9907542,0,Versus Bank,node/6935251109,
5.3522302,-3.9912866,0,École de Police,node/6935251110,
5.3387479,-3.99993,0,Mermoz,node/6935251111,
5.3591581,-4.0278565,0,Gare Nord,node/6935251112,
5.2627714,-3.9831166,0,Groupe Scolaire Kouamé Konan,node/6935274791,
5.2569108,-3.9774759,0,Groupe Scolaire Petit Bassam,node/6935274792,
5.2576259,-3.9696513,0,Arrêt,node/6935274793,
5.2585828,-3.965703,0,Marché,node/6935274794,
5.2568159,-3.9608596,0,Pharmacie Océan,node/6935274796,
5.256199,-3.9581761,0,Lycée Moderne Port Bouët,node/6935274797,
5.2658583,-3.9610527,0,Carrefour Akwaba,node/6935274798,
5.2758153,-3.9661886,0,Digue de Koumassi,node/6935274799,
5.2813533,-3.9692871,0,CIE Bia Sud,node/6935274800,
5.2900094,-3.962945,0,Arrêt,node/6935274801,
5.2907532,-3.9596587,0,Arrêt,node/6935274802,
5.294113,-3.9555147,0,Gare Koumassi,node/6935274803,
5.298266,-3.9498116,0,Pharmacie Regina,node/6935274804,
5.2982253,-3.9495504,0,Pharmacie Regina,node/6935274805,
5.2909815,-3.9582726,0,Ajavon,node/6935274806,
5.2902818,-3.9612938,0,Foyer des Jeunes,node/6935274807,
5.2889304,-3.9668678,0,Centre Commercial Koumassi,node/6935274808,
5.2768282,-3.9667035,0,Carrefour Ancien Koumassi,node/6935274809,
5.2576733,-3.9577992,0,43ème Bima,node/6935274810,
5.2560567,-3.9579253,0,Lycée moderne Port-bouët ,node/6935274811,
5.2574824,-3.9642432,0,Nouveau Marché Port-Bouët,node/6935274812,
5.2584759,-3.965754,0,District de Port-Bouet,node/6935274813,
5.2576319,-3.9693877,0,Arrêt,node/6935274814,
5.2572754,-3.9790309,0,Arrêt,node/6935274815,
5.2569161,-3.9893487,0,Stade de la SIR,node/6935274816,
5.3852315,-4.006142,0,Arrêt,node/6935401276,
5.3852595,-4.0060079,0,Arrêt,node/6935401277,
5.3984537,-4.0064532,0,Arrêt,node/6935401278,
5.4022949,-4.0064304,0,Arrêt,node/6935401279,
5.4087036,-4.0063405,0,Arrêt,node/6935401280,
5.4109493,-4.0062828,0,Arrêt,node/6935401281,
5.4143906,-4.0062493,0,Arrêt,node/6935401282,
5.420498,-4.0170009,0,Arrêt,node/6935401283,
5.4189547,-4.0141176,0,Arrêt,node/6935401284,
5.4179854,-4.0123071,0,Arrêt,node/6935407385,
5.4164927,-4.0094626,0,Arrêt,node/6935407386,
5.2983706,-4.0041834,0,"Parc des Sports, Boulevard Valéry Giscard d'Estaing",node/6935488165,
5.2470403,-3.9445075,0,Carrefour Aéroport,node/6935488166,
5.2446806,-3.9295542,0,Arrêt,node/6935488167,
5.2440381,-3.925598,0,Arrêt,node/6935488168,
5.2434545,-3.922044,0,Arrêt,node/6935488169,
5.2426599,-3.9170243,0,Arrêt,node/6935488170,
5.2417851,-3.9115848,0,Arrêt,node/6935488171,
5.2407648,-3.9051327,0,Mosquée,node/6935488172,
5.260825,-3.9593026,0,Arrêt,node/6935494486,
5.2976825,-3.984569,0,Avenue de la Côte d'Ivoire / Boulevard V.G.E.,node/6935494487,
5.2402774,-3.9005903,0,Terminus Gonzagueville,node/6935494488,
5.2405691,-3.9050053,0,Mosquée,node/6935494499,
5.2414058,-3.9104489,0,Arrêt,node/6935494500,
5.2422365,-3.9156765,0,Arrêt,node/6935494501,
5.243186,-3.9216458,0,Arrêt,node/6935494502,
5.2437256,-3.9251152,0,Arrêt,node/6935494503,
5.2444775,-3.9298091,0,Arrêt,node/6935494504,
5.2456701,-3.9372025,0,Arrêt,node/6935494505,
5.2467051,-3.94366,0,Arrêt,node/6935494506,
5.2492829,-3.9541537,0,Arrêt,node/6935494507,
5.2573475,-3.9579213,0,43ème Bima,node/6935494508,
5.299118,-4.0065188,0,Palais des Sports,node/6935494509,
5.3101948,-4.0149692,0,Avenue Christiani,node/6935494511,
5.3002327,-4.0082087,0,Arrêt,node/6937770645,
5.2618319,-3.9594314,0,Arrêt,node/6937770646,
5.2467278,-3.9424717,0,Arrêt,node/6937770647,
5.2400864,-3.9007735,0,Terminus Gonzagueville,node/6937770648,
5.2395482,-3.8973275,0,Arrêt,node/6937770649,
5.2389973,-3.893671,0,Arrêt,node/6937770650,
5.2375957,-3.8845293,0,Pharmacie Bénediction,node/6937770652,
5.2369286,-3.8802069,0,Anani,node/6937770653,
5.2368898,-3.8798529,0,Anani,node/6937770654,
5.2369172,-3.8749894,0,Anani - Rond-point,node/6937770655,
5.2372444,-3.8833565,0,Arrêt,node/6937770656,
5.2380744,-3.888965,0,Collège privé les Cartésiens d'Abidjan,node/6937770657,
5.2386868,-3.8928086,0,Arrêt,node/6937770658,
5.2391862,-3.8962466,0,Arrêt,node/6937770659,
5.2399789,-3.9013763,0,Terminus Gonzagueville,node/6937770660,
5.256211,-3.9649889,0,Arrêt,node/6937789671,
5.4354794,-4.01522,0,Gare Abobo Sogephia,node/6938095648,
5.4251869,-4.0222809,0,Arrêt,node/6938222040,
5.4191963,-4.0239143,0,Arrêt,node/6938222041,
5.4148659,-4.0240283,0,Arrêt,node/6938222042,
5.4147991,-4.0292727,0,Arrêt,node/6938222043,
5.5005578,-4.0807772,0,Ebimpé Village,node/6938324861,
5.5031942,-4.0807946,0,Arrêt,node/6938324862,
5.5033771,-4.0801696,0,Arrêt,node/6938324863,
5.5031182,-4.0769751,0,Arrêt,node/6938324864,
5.5007033,-4.0770207,0,Arrêt,node/6938324865,
5.5002134,-4.0762322,0,Arrêt,node/6938324866,
5.5002334,-4.07344,0,Arrêt,node/6938324867,
5.5000185,-4.0699397,0,Arrêt,node/6938324868,
5.4982283,-4.066591,0,Arrêt,node/6938324869,
5.4912933,-4.0678543,0,Arrêt,node/6938324870,
5.4869787,-4.0690076,0,Arrêt,node/6938324871,
5.4842033,-4.0697157,0,Arrêt,node/6938324872,
5.4791892,-4.0709844,0,Arrêt,node/6938324873,
5.4769371,-4.0715718,0,Arrêt,node/6938324874,
5.4724328,-4.072693,0,Arrêt,node/6938324875,
5.4679499,-4.0737471,0,Arrêt,node/6938324876,
5.4644949,-4.0739322,0,Arrêt,node/6938324877,
5.4606874,-4.0733501,0,Arrêt,node/6938324878,
5.4565342,-4.0724757,0,Arrêt,node/6938324879,
5.4517454,-4.0713693,0,Arrêt,node/6938324880,
5.4485133,-4.0706693,0,Arrêt,node/6938324881,
5.4441757,-4.0696567,0,Arrêt,node/6938324882,
5.4435135,-4.0681963,0,Arrêt,node/6938324883,
5.443862,-4.056062,0,Arrêt,node/6938324884,
5.4440736,-4.0494295,0,Arrêt,node/6938343085,
5.2608437,-3.9639542,0,Hotel Communal Port-Bouët,node/6938407500,
5.2629757,-3.9635653,0,Hôpital Géneral de Port-Bouët,node/6938407501,
5.293872,-3.9564407,0,Arrêt,node/6938407503,
5.2382227,-3.8886204,0,Collège privé les Cartésiens d'Abidjan,node/6938407504,
5.3640511,-3.9975952,0,Farandole,node/6938756997,
5.4036801,-3.9845087,0,Arrêt,node/6938792077,
5.3829263,-3.993252,0,Arrêt,node/6938792078,
5.3147389,-4.0186301,0,Gare Sud,node/6938792079,
5.3010837,-3.9887345,0,Arrêt,node/6939014886,
5.3023803,-3.9663789,0,Pharmacie Sainte Aghate,node/6939014887,
5.3029659,-3.9640502,0,Terminus Remblais 03,node/6939014888,
5.302855,-3.9638825,0,Terminus Remblais 03,node/6939014890,
5.3018088,-3.9684999,0,Arrêt,node/6939014891,
5.2984764,-3.9714879,0,Arrêt,node/6939014892,
5.3022895,-3.9848064,0,Arrêt,node/6939014894,
5.359076,-4.0274686,0,Gare Nord,node/6939014895,
5.2875728,-4.0059154,0,Terminus dépôt SOTRA,node/6939076692,
5.3314425,-4.0768933,0,Sideci Pharmacie Lem,node/6944816371,
5.3305385,-4.0798317,0,Sideci Lem,node/6944816372,
5.3270574,-4.0813807,0,[Arret sans nom],node/6944816373,
5.3246445,-4.0806283,0,Akadjoba,node/6944816374,
5.3310827,-4.0237293,0,Terminus tours Administratives,node/6944887181,
5.4253525,-4.0220542,0,Arrêt,node/6944887182,
5.4193151,-4.0240122,0,Arrêt,node/6944887183,
5.4150828,-4.0241008,0,Arrêt,node/6944887184,
5.4148679,-4.0292533,0,Arrêt,node/6944920985,
5.4148038,-4.0334697,0,Terminus bus 51/52,node/6944920986,
5.3274379,-4.0817052,0,Arrêt,node/6944934858,
5.330154,-4.080812,0,Sideci Lem - Carrefour Sgbci,node/6944934859,
5.3314305,-4.0773064,0,Sideci Pharmacie Lem,node/6944934860,
5.3521541,-3.99141,0,École de Police,node/6945017053,
5.3569943,-3.9914516,0,Arrêt,node/6945017054,
5.2865574,-4.0082677,0,Siège SOTRA,node/6945458783,
5.2569502,-3.9722067,0,Station Oilibya,node/6945659474,
5.2566851,-3.9647529,0,Arrêt,node/6945659475,
5.2546846,-3.9643009,0,Pharmacie Atlantique,node/6945659476,
5.2511255,-3.9565238,0,Port-Bouët Phare,node/6945659477,
5.2531341,-4.0047848,0,Vridi canal - Terminus 23,node/6945864857,
5.2531701,-4.0046923,0,Vridi canal - Terminus 23,node/6945864858,
5.2657115,-4.0087358,0,[Arret sans nom],node/6945864859,
5.2957541,-4.0033337,0,Arrêt du CHU,node/6945864860,
5.260642,-4.0134249,0,Ciprel,node/6945966271,
5.2649101,-4.0138507,0,[Arret sans nom],node/6945966272,
5.265254,-4.011446,0,[Arret sans nom],node/6945966273,
5.2660346,-4.0086137,0,[Arret sans nom],node/6945966274,
5.2688363,-4.0060763,0,[Arret sans nom],node/6945966275,
5.3539352,-3.9581171,0,Arrêt,node/6948222228,
5.3417576,-3.9522725,0,Arrêt,node/6948222230,
5.3392567,-3.9521505,0,Arrêt,node/6948222231,
5.3384929,-3.952243,0,Arrêt,node/6948222232,
5.334941,-3.943904,0,Carrefour Ambassade de Chine,node/6948222233,
5.3392333,-3.9452136,0,Antenne,node/6948222234,
5.3385917,-3.9428439,0,Akwaba,node/6948222235,
5.3355172,-3.9393644,0,Pharmacie,node/6948222236,
5.3328633,-3.9368539,0,Arrêt,node/6948222237,
5.3307248,-3.9348771,0,Centre de santé Municipal de M'Badon,node/6948222238,
5.3286344,-3.9323347,0,Teminus M'Badon,node/6948222239,
5.3285142,-3.9322612,0,Teminus M'Badon,node/6948270620,
5.3305385,-3.9347577,0,Centre de santé Municipal de M'Badon,node/6948270621,
5.3357956,-3.9397017,0,Pharmacie,node/6948270622,
5.339027,-3.9451191,0,Arrêt,node/6948270623,
5.3329114,-3.9418454,0,Ambassade de Chine,node/6948270624,
5.3538285,-3.9568537,0,Arrêt,node/6948270625,
5.3327177,-3.9368337,0,Arrêt,node/6948290580,
5.3385823,-3.9429814,0,Bureau Bad,node/6948290581,
5.3350024,-3.9438068,0,[Arret sans nom],node/6948290582,
5.353946,-3.9767852,0,Arrêt,node/6948466331,
5.3560356,-3.9695473,0,Arrêt,node/6948466332,
5.3732347,-3.9273548,0,Arrêt,node/6948466333,
5.3744488,-3.9221262,0,Arrêt,node/6948466334,
5.3738883,-3.9116914,0,Késsé,node/6948466335,
5.3664705,-3.9090387,0,Syndicat,node/6948466336,
5.3613312,-3.8946091,0,Station TEXACO,node/6948466337,
5.357652,-3.8895766,0,La Poste,node/6948466338,
5.357433,-3.8879555,0,Pharmacie Du Marché,node/6948466339,
5.3576379,-3.8903531,0,Sous-Prefecture de Bingerville,node/6948466341,
5.372677,-3.9285967,0,Nouveau Goudron,node/6948466343,
5.3455151,-4.0026914,0,Pharmacie les 7 Colonnes,node/6948466345,
5.3346312,-3.9906777,0,Arrêt,node/6948695731,
5.3396564,-3.9758237,0,Arrêt,node/6948695732,
5.3414919,-3.9761442,0,Arrêt,node/6948695733,
5.3438403,-3.9751571,0,Arrêt,node/6948695734,
5.3470921,-3.975412,0,Arrêt,node/6948695735,
5.3520693,-3.9767209,0,Arrêt,node/6948695736,
5.3530066,-3.9760919,0,Arrêt,node/6948695738,
5.35209,-3.9766203,0,Arrêt,node/6948695739,
5.3468223,-3.9752188,0,Arrêt,node/6948695740,
5.343802,-3.9750874,0,Arrêt,node/6948695741,
5.3416148,-3.9760651,0,Arrêt,node/6948695742,
5.3397193,-3.9757586,0,Arrêt,node/6948695743,
5.3385022,-3.9754911,0,Arrêt,node/6948695744,
5.3344937,-3.9902714,0,Arrêt,node/6948695745,
5.3349056,-3.9957176,0,Arrêt,node/6948695746,
5.321664,-4.0157926,0,Warafa Assurance,node/6948706680,
5.3184017,-4.0152582,0,Arrêt Résidence Nabil,node/6948706681,
5.3044274,-4.0092923,0,[Arret sans nom],node/6948706682,
5.2949249,-4.0042001,0,Terminus CHU Treichville,node/6948791226,
5.3565604,-3.9679608,0,Arrêt,node/6948855820,
5.3599399,-3.9614752,0,Arrêt,node/6948855821,
5.3717967,-3.9289306,0,Cité Millenium,node/6948855822,
5.3584311,-3.9253854,0,Arrêt,node/6948855823,
5.3556661,-3.9247158,0,Arrêt,node/6948855824,
5.3532496,-3.924163,0,Arrêt,node/6948855825,
5.3498507,-3.9233825,0,Collège Jeune Filles,node/6948855826,
5.3397928,-3.9225573,0,Oribat Cité Don Mello,node/6948855827,
5.3329467,-3.9226348,0,Arrêt,node/6948855828,
5.3282217,-3.9191627,0,Arrêt,node/6948855829,
5.3283086,-3.9169304,0,Paroisse,node/6948855830,
5.3221383,-3.9164444,0,EPP Abatta,node/6948855831,
5.3342136,-3.923136,0,Arrêt,node/6948920956,
5.3262131,-3.9158679,0,Arrêt,node/6948920957,
5.3267028,-3.9161935,0,EPP Abatta,node/6948920958,
5.3282218,-3.9169358,0,Paroisse,node/6948920959,
5.3329487,-3.9227374,0,Arrêt,node/6948920960,
5.3417243,-3.9220896,0,Arrêt,node/6948920961,
5.3443775,-3.9222706,0,Arrêt,node/6948920962,
5.3471041,-3.9228521,0,Arrêt,node/6948920963,
5.3532917,-3.9242797,0,Arrêt,node/6948920964,
5.3583733,-3.9254397,0,Arrêt,node/6948920965,
5.359984,-3.9258534,0,Sodeci Abatta,node/6948920966,
5.3722754,-3.9301027,0,Nouveau Goudron,node/6948920967,
5.2579604,-3.968976,0,Arrêt,node/6951127812,
5.2597086,-3.9654422,0,Mairie Port-Bouët,node/6951127813,
5.2595919,-3.9687383,0,[Arret sans nom],node/6951127815,
5.3145654,-4.0181731,0,Gare Sud,node/6951127816,
5.3373639,-3.9533649,0,Arrêt,node/6951182059,
5.3344449,-3.9559445,0,Arrêt,node/6951182060,
5.3308416,-3.9570247,0,Arrêt,node/6951182061,
5.3295658,-3.9531144,0,Arrêt,node/6951182062,
5.3296352,-3.9535137,0,Arrêt,node/6951182064,
5.330835,-3.9572031,0,Arrêt,node/6951182065,
5.3414479,-3.952412,0,Arrêt,node/6951182066,
5.2921887,-3.9630926,0,Arrêt,node/6951224049,
5.2898905,-3.9693582,0,Commissariat de Police du 6ᵉ,node/6951224050,
5.3586694,-4.0276527,0,Gare Nord,node/6951224051,
5.2941431,-3.9554248,0,Gare Koumassi,node/6951939383,
5.3587923,-4.0273499,0,Gare Nord,node/6951939384,
5.3024324,-3.9635003,0,Terminus 31 Remblais,node/6952071069,
5.2975569,-3.9623322,0,Trois Ampoules,node/6952071070,
5.2988296,-4.0109539,0,"BIAO, Treichville",node/6952132224,
5.2884596,-3.9883868,0,"Pizza, Marcory",node/6952132225,
5.2853422,-3.9855024,0,"Bernabé Parc à Fer, Boulevard de Marseille",node/6952132226,
5.2786718,-3.9824903,0,[Arret sans nom],node/6952132227,
5.2734369,-3.9767262,0,Église Notre-Dame d'Afrique,node/6952132228,
5.2734089,-3.9714865,0,Sept Villas,node/6952132229,
5.276028,-3.9672503,0,Arrêt,node/6952132230,
5.2486135,-3.9434065,0,Arrêt,node/6952132232,
5.2544081,-3.9386439,0,EPP Aéroport,node/6952132233,
5.2536201,-3.934246,0,Aéroport,node/6952132234,
5.2469401,-3.9450909,0,Carrefour Aéroport,node/6952132235,
5.2544028,-3.9409603,0,Cité ASECNA,node/6952132240,
5.2508117,-3.9424355,0,Arrêt,node/6952132241,
5.2480679,-3.9435728,0,Arrêt,node/6952132242,
5.247278,-3.947171,0,Maquis 5 sur 5,node/6952132243,
5.2567618,-3.9610943,0,Pharmacie Océan,node/6952132244,
5.266498,-3.9627318,0,Abattoir Port-Bouët,node/6952132245,
5.2726637,-3.9751598,0,Arrêt,node/6952132246,
5.28785,-3.9878453,0,Arrêt,node/6952132247,
5.2895893,-3.9917104,0,Arrêt,node/6952132248,
5.2912033,-3.9954532,0,Arrêt,node/6952132250,
5.2984459,-4.0104501,0,"BIAO, Treichville",node/6952132251,
5.3144382,-4.0182926,0,Gare Sud,node/6952132252,
5.3091986,-3.9495367,0,Arrêt,node/6952200468,
5.3097742,-3.9481486,0,Centre Médico-social,node/6952200469,
5.3012025,-3.9837456,0,Hôpital Général de Marcory,node/6952200470,
5.3034286,-3.986865,0,Arrêt,node/6952200471,
5.3042605,-4.0094613,0,Arrêt,node/6952200472,
5.3052353,-4.007007,0,Arrêt,node/6952200475,
5.3027926,-3.9855715,0,Arrêt,node/6952200476,
5.3118954,-3.952005,0,Akromiambla-Terminus 32 Koumassi,node/6952200477,
5.441531,-4.0471624,0,Arrêt,node/6952244517,
5.4436978,-4.0559909,0,Arrêt,node/6952566208,
5.4448793,-4.0699545,0,Arrêt,node/6952566209,
5.4490874,-4.0708852,0,Arrêt,node/6952566210,
5.4522514,-4.0716147,0,Arrêt,node/6952566211,
5.4532246,-4.0718146,0,Arrêt,node/6952566212,
5.4567491,-4.0726206,0,Arrêt,node/6952566213,
5.4606701,-4.0734789,0,Arrêt,node/6952566214,
5.4636378,-4.0739724,0,Arrêt,node/6952566215,
5.4644695,-4.074022,0,Arrêt,node/6952566216,
5.4679793,-4.0738437,0,Arrêt,node/6952566217,
5.4724295,-4.0727828,0,Arrêt,node/6952566218,
5.4769985,-4.0716872,0,Arrêt,node/6952566219,
5.4793881,-4.0710461,0,Arrêt,node/6952566220,
5.4821955,-4.0703045,0,Arrêt,node/6952566221,
5.4839777,-4.0699115,0,Arrêt,node/6952566222,
5.486354,-4.0692893,0,Arrêt,node/6952566223,
5.4911611,-4.0680795,0,Arrêt,node/6952566224,
5.4982644,-4.0667948,0,Arrêt,node/6952566225,
5.5001119,-4.0740864,0,Arrêt,node/6952566226,
5.5000518,-4.0767123,0,Arrêt,node/6952566227,
5.2862329,-3.9734097,0,Petit Café,node/6954138437,
5.2807083,-3.9775054,0,Arrêt,node/6954138438,
5.2823321,-3.9804116,0,Arrêt,node/6954138439,
5.300639,-4.0126625,0,Arrêt,node/6954138440,
5.28394,-3.9828832,0,Agence Nationale de la Formation Professionnelle (AGEFOP),node/6954138442,
5.2809293,-3.9776556,0,Arrêt,node/6954138443,
5.2870755,-3.973057,0,UTTb Université Loko,node/6954138444,
5.2892455,-3.9693475,0,Marché DjeKonan,node/6954138445,
5.3133129,-3.9518099,0,Arrêt,node/6954138446,
5.2834138,-3.9679319,0,CIE Koumassi,node/6954511639,
5.286559,-3.9686649,0,Hôpital de Koumassi,node/6954511640,
5.3583583,-4.0989914,0,[Arret sans nom],node/6954926526,
5.3615502,-4.1000086,0,[Arret sans nom],node/6954926527,
5.3641759,-4.0967993,0,[Arret sans nom],node/6954926528,
5.2859504,-3.9531577,0,Koumassi Soweto - Dépôt 5,node/6955038705,
5.2847586,-3.9582532,0,Pharmacie Bethanie,node/6955038706,
5.2840528,-3.9611265,0,Sation Lavage,node/6955038707,
5.2836422,-3.9680882,0,CIE Koumassi,node/6955038708,
5.2870421,-3.9688808,0,Hôpital de Koumassi,node/6955038709,
5.2996014,-3.984628,0,Pharmacie Massarana,node/6955038710,
5.3587075,-4.0275521,0,Gare Nord,node/6955038711,
5.3331711,-4.0217512,0,Cité Administrative,node/6955514933,
5.3635731,-3.9598243,0,Arrêt Pharmacie Palmeraie,node/6955514934,
5.3710263,-3.9580205,0,Arrêt,node/6955514935,
5.3720811,-3.9587393,0,Arrêt,node/6955514936,
5.3808935,-3.964382,0,Cocody SCI Les Rosiers,node/6955514937,
5.3727874,-3.9598592,0,Arrêt,node/6955514938,
5.3685488,-3.9592516,0,Arrêt,node/6955514939,
5.3149553,-4.0184346,0,Gare Sud,node/6955514940,
5.253474,-3.9341971,0,Aéroport,node/6958966895,
5.2774525,-3.981805,0,Arrêt,node/6961370878,
5.2744205,-3.9788787,0,Pharmacie de Bietry,node/6961370879,
5.2516684,-3.9421921,0,Arrêt Dr08,node/6961370880,
5.2543801,-3.9410589,0,Cité ASECNA,node/6961370881,
5.3618139,-4.0725361,0,[Arret sans nom],node/6961643500,
5.373881,-4.0923724,0,[Arret sans nom],node/6961643501,
5.3718154,-4.0945986,0,[Arret sans nom],node/6961643502,
5.3396466,-4.0858988,0,Amondji,node/6963093974,
5.3395998,-4.0810166,0,Arrêt,node/6963093975,
5.3382505,-4.0792436,0,Pont Vagabond,node/6963093976,
5.3403236,-4.0747274,0,Arrêt,node/6963093977,
5.3147296,-4.0181436,0,Gare Sud,node/6963093979,
5.3415106,-4.0732643,0,Saint André lavage,node/6963093981,
5.3395197,-4.0859069,0,Amondji,node/6963093982,
5.3883091,-3.9928235,0,Aghien 2 plateaux,node/6964184463,
5.3359625,-4.0044791,0,[Arret sans nom],node/6964184464,
5.3885302,-3.9923066,0,Aghien 2 plateaux,node/6964184466,
5.3502206,-4.0021368,0,Carrefour la Vie,node/6964184467,
5.3635871,-3.9596674,0,Arrêt Pharmacie Palmeraie,node/6964502135,
5.3609547,-4.0846449,0,BAE,node/6966758103,
5.3551851,-4.0882243,0,Arrêt,node/6966758104,
5.3549701,-4.0957546,0,Carrefour Antenne Ananeraie,node/6966758105,
5.354878,-4.0988526,0,Oasis,node/6966758106,
5.3502259,-4.0993729,0,Sorbonne,node/6966758107,
5.3462622,-4.0997625,0,Arrêt,node/6966758108,
5.333344,-4.1031267,0,Arrêt,node/6966758109,
5.3292232,-4.1044571,0,Arrêt,node/6966758111,
5.3441658,-4.1004723,0,Arrêt,node/6966758112,
5.3460138,-4.0999784,0,Arrêt,node/6966758113,
5.3500978,-4.0994869,0,Sorbonne,node/6966758114,
5.3529605,-4.0994742,0,Arrêt,node/6966758115,
5.3549421,-4.0992308,0,Oasis,node/6966758116,
5.3551971,-4.0918869,0,Arrêt,node/6966758117,
5.3233545,-4.016671,0,Arrêt,node/6966849451,
5.4486134,-4.0138976,0,Arrêt,node/6966849452,
5.2613392,-3.9637296,0,Hotel Communal Port-Bouët,node/6966927285,
5.2528723,-3.9605525,0,Wharf Port-Bouët,node/6966927286,
5.3027916,-4.0132633,0,Arrêt,node/6966927287,
5.4469386,-4.0140968,0,Arrêt,node/6966942817,
5.4381706,-4.0166429,0,Arrêt,node/6966942818,
5.4141149,-4.0159589,0,Arrêt,node/6966942819,
5.4069719,-4.0164229,0,Arrêt,node/6966942820,
5.2655592,-4.0007964,0,Arrêt,node/6967070473,
5.2772629,-4.0085238,0,Arrêt,node/6967070474,
5.279469,-4.0085185,0,Arrêt,node/6967070475,
5.3959876,-4.0210712,0,Arrêt,node/6967070476,
5.4118438,-4.016604,0,Arrêt,node/6967070477,
5.4197437,-4.0178807,0,Arrêt,node/6967070478,
5.4227157,-4.0187565,0,Arrêt,node/6967070479,
5.4356834,-4.0289891,0,Arrêt,node/6967070480,
5.4364023,-4.0302558,0,Arrêt,node/6967070481,
5.4370672,-4.0319341,0,Arrêt,node/6967070482,
5.4373075,-4.0332256,0,Arrêt,node/6967070483,
5.4377581,-4.0362847,0,Arrêt,node/6967070484,
5.4381539,-4.0391982,0,Arrêt,node/6967074785,
5.4435976,-4.0485819,0,PK 18 Agripac,node/6967074787,
5.4255661,-4.0197301,0,Arrêt,node/6967158577,
5.4195782,-4.017465,0,Arrêt,node/6967158578,
5.3053862,-4.0226068,0,Arrêt,node/6967158579,
5.2891307,-4.0082905,0,Pharmacie du Port,node/6967158580,
5.4269192,-4.0212006,0,Abobo Gendarmerie,node/6968911549,
5.4289586,-4.0229219,0,Arrêt,node/6968911550,
5.4078444,-4.0812264,0,Arrêt,node/6968911551,
5.3570551,-4.0851445,0,CHU de Yopougon,node/6968911556,
5.3698106,-4.080236,0,Arrêt,node/6968911557,
5.3746728,-4.0777087,0,Arrêt,node/6968911558,
5.4392253,-4.0687166,0,Arrêt,node/6968911559,
5.3423532,-4.0793476,0,Arrêt,node/6969221528,
5.3141434,-4.0177429,0,Gare Sud,node/6969221530,
5.3743039,-3.9117702,0,Feh Kessé,node/6969371620,
5.3472803,-4.0097992,0,Clinique Providence,node/6969583471,
5.3451973,-4.0106696,0,Supermarché Casino,node/6969583472,
5.3147951,-4.0185824,0,Gare Sud,node/6969583474,
5.3154387,-4.01752,0,Gare Sud,node/6969583476,
5.3161731,-4.0166201,0,Novotel,node/6969583477,
5.3172748,-4.0151837,0,[Arret sans nom],node/6969583478,
5.3202726,-4.015578,0,Arrêt,node/6969583479,
5.3209056,-4.0192916,0,Arrêt,node/6969583480,
5.3217388,-4.0207359,0,Arrêt,node/6969583481,
5.3233639,-4.0207185,0,Hotel de Ville,node/6969583482,
5.3257514,-4.0207171,0,Arrêt,node/6969583483,
5.3278011,-4.0207332,0,Arrêt,node/6969583484,
5.3335937,-4.0217525,0,Cité Administrative,node/6969620785,
5.4031227,-3.985249,0,Termunis 81/82,node/6970095632,
5.3971746,-3.9859892,0,Arrêt,node/6970095633,
5.3841166,-3.9875704,0,Pharmacie Les 7 Lys,node/6970095634,
5.3643008,-3.979157,0,Arrêt,node/6970095635,
5.3542958,-3.977256,0,Riviera 2,node/6970095637,
5.3623286,-3.978931,0,Arrêt,node/6970095638,
5.3924174,-3.9866585,0,DGI,node/6970095639,
5.4031427,-3.9853522,0,Termunis 81/82,node/6970095641,
5.3554107,-3.9506122,0,Arrêt,node/6970366278,
5.3552038,-3.950804,0,Arrêt,node/6970366281,
5.3652007,-3.9482653,0,Arrêt,node/6970366282,
5.3643008,-3.9522095,0,Arrêt,node/6970366283,
5.403546,-4.0181825,0,Arrêt,node/6979256984,
5.4038146,-3.9848581,0,Arrêt,node/6979431044,
5.39671,-3.977142,0,Arrêt,node/6979431045,
5.3902524,-3.9754421,0,Arrêt,node/6979431046,
5.387788,-3.9747639,0,Arrêt,node/6979431047,
5.3839137,-3.9737651,0,Arrêt,node/6979431048,
5.3828575,-3.9734902,0,Arrêt,node/6979431049,
5.3749859,-3.9627425,0,Arrêt,node/6979431051,
5.4036825,-3.984727,0,Arrêt,node/6979431052,
5.3281463,-3.9195342,0,Arrêt,node/6979712503,
5.3318471,-3.9224169,0,Arrêt,node/6979712504,
5.3394623,-3.9227159,0,Arrêt,node/6979712505,
5.3479974,-3.923066,0,Arrêt,node/6979712506,
5.3497346,-3.9234415,0,Arrêt,node/6979712507,
5.3546363,-3.924564,0,Arrêt,node/6979712508,
5.3579717,-3.9253713,0,Arrêt,node/6979712509,
5.3601,-3.9221386,0,Arrêt;Sodeci,node/6979712510,
5.3622665,-3.9265072,0,Arrêt,node/6979712511,
5.3635464,-3.9268023,0,Arrêt,node/6979712512,
5.3687351,-3.928193,0,Arrêt,node/6979712513,
5.3703787,-3.9379911,0,Arrêt,node/6979712514,
5.3679286,-3.9279167,0,Arrêt,node/6979712515,
5.3470093,-3.9227716,0,Arrêt,node/6979712516,
5.3449917,-3.9223344,0,Arrêt,node/6979712517,
5.3428352,-3.9218402,0,Arrêt,node/6979712518,
5.3413324,-3.9221104,0,Arrêt,node/6979712519,
5.2452454,-3.9344399,0,Arrêt,node/6980029236,
5.2569228,-3.9723435,0,Arrêt,node/6980029237,
5.2684644,-4.0062828,0,Bank Of Africa,node/6980029238,
5.2646043,-4.0139727,0,Arrêt,node/6980029239,
5.2587043,-4.0112543,0,Arrêt,node/6980029241,
5.2648347,-4.0138916,0,[Arret sans nom],node/6980029242,
5.2686721,-4.006083,0,[Arret sans nom],node/6980029243,
5.2509145,-3.9560491,0,Terminus Port-Bouët Phare,node/6980258130,
5.3433974,-4.0032211,0,Arrêt,node/6980521688,
5.3628414,-3.9976139,0,Arrêt,node/6980521689,
5.399921,-4.0057075,0,Arrêt,node/6980521690,
5.4015232,-4.0065511,0,Arrêt,node/6980521691,
5.4034191,-4.0065081,0,Arrêt,node/6980521692,
5.4241696,-4.0192406,0,Terminus Gendarmerie Abobo,node/6980521695,
5.4185708,-4.0134712,0,Arrêt,node/6980521696,
5.4155561,-4.0074744,0,Arrêt,node/6980521697,
5.4135434,-4.0062694,0,Arrêt,node/6980521698,
5.4035807,-4.0064277,0,Arrêt,node/6980521699,
5.3998663,-3.9990999,0,Arrêt,node/6980521700,
5.3987194,-3.992904,0,Arrêt,node/6980521701,
5.387006,-3.9927913,0,Arrêt,node/6980521702,
5.3819122,-3.9934525,0,Arrêt,node/6980521703,
5.2578469,-3.9718473,0,Arrêt,node/7025968250,
5.2642798,-3.9994057,0,Arrêt,node/7025975082,
5.2682835,-4.003783,0,Arrêt,node/7025975083,
5.3292373,-4.10439,0,Arrêt,node/7025992286,
5.2771214,-4.0083388,0,[Arret sans nom],node/7026069662,
5.341978,-4.0149826,0,Arrêt,node/7026279881,
5.2855772,-3.9547831,0,Arrêt,node/7026364429,
5.2850417,-3.9641359,0,[Arret sans nom],node/7026390486,
5.2566557,-3.9616643,0,Océan Espadon,node/7028872830,
5.3588917,-4.0278525,0,Gare Nord,node/7028872831,
5.3534289,-3.9736383,0,Cité étudiante Riviera 2,node/7043603291,
5.3550743,-4.0957761,0,Carrefour Antenne Ananeraie,node/7043642288,
5.3109066,-4.0344058,0,Gare Lagunaire Yopougon STL,node/7044975088,
5.3143858,-4.0170439,0,Gare Lagunaire Plateau STL,node/7044975089,
5.3135839,-4.0100701,0,Gare Lagunaire Treichville STL,node/7044975090,
5.315627,-3.952125,0,Gare Lagunaire Koumassi STL,node/7046900012,
5.3240676,-3.9603245,0,Gare Lagunaire M'pouto STL,node/7046900013,
5.3108107,-4.015859,0,Gare Lagunaire de Treichville Sotra,node/7046964142,
5.3107009,-4.0347196,0,Gare Lagunaire d’Abobo-Doumé Sotra,node/7046964143,
5.3140753,-4.0176728,0,Gare Lagunaire du Plateau Sotra,node/7047063325,
5.3212342,-4.0021442,0,Gare lagunaire de Blockauss Sotra,node/7047101136,
5.3562773,-4.0016118,0,Arrêt,node/7047930662,
5.4096636,-3.9856634,0,Arrêt,node/7047930663,
5.3665112,-3.9091802,0,Syndicat,node/7048020780,
5.3739184,-3.9119428,0,Késsé,node/7048020781,
5.3676562,-3.9446417,0,Camp Millitaire d'Akouédo,node/7048020782,
5.3652501,-3.9495032,0,Église Apostolique de Côte d'Ivoire,node/7048020783,
5.3672056,-4.1020069,0,Yopougon Gesco - Terminus du bus 34,node/7049258139,
5.365903,-4.0973914,0,Arrêt,node/7049258140,
5.3634963,-4.0976979,0,Arrêt,node/7049258141,
5.3608051,-4.1003995,0,Arrêt,node/7049258142,
5.3587021,-4.0998034,0,Arrêt,node/7049258143,
5.3582214,-4.0940326,0,Mamie Adjoua,node/7049258144,
5.3552799,-4.088628,0,Arrêt,node/7049258145,
5.3009034,-4.0120965,0,Arrêt,node/7049730219,
5.2545644,-3.9392397,0,EPP Aéroport,node/7049730220,
5.2734289,-3.9712512,0,Sept Villas,node/7049730221,
5.2844982,-3.9852691,0,Arrêt,node/7049730222,
5.3485715,-4.0031956,0,Carrefour La Vie,node/7051810979,
5.3528057,-4.0128221,0,Terminus Liberté,node/7051810981,
5.3503194,-3.9885668,0,Ecole de Police,node/7051810982,
5.3530834,-3.9797437,0,Riviera 2,node/7051810984,
5.3529853,-3.9788968,0,Station Total Riviera 2,node/7051811086,
5.35446,-3.9909077,0,Vallon,node/7051811087,
5.3546991,-4.0043946,0,Escalier,node/7051811088,
5.3533605,-4.0146225,0,Adjamé liberté,node/7051811090,
5.3498521,-4.0228106,0,Gare Anono,node/7051905145,
5.3495777,-4.0223607,0,Station,node/7051905146,
5.347757,-4.0227932,0,Banfora,node/7051905147,
5.3464705,-4.0227107,0,Marché,node/7051905148,
5.3451372,-4.0226899,0,Eglise Saint Michel,node/7051905149,
5.343631,-4.0234597,0,Eglise,node/7051905150,
5.3490415,-3.9993949,0,SODEFOR,node/7051905151,
5.3494341,-3.9919236,0,Carrefour CHU,node/7051905152,
5.3505471,-3.9869374,0,Arrêt,node/7051905153,
5.3445751,-3.9724706,0,Terminus Anono,node/7051905154,
5.3452895,-3.9744008,0,Marché,node/7051905155,
5.34455,-3.9724521,0,Terminus Anono,node/7051905157,
5.3504075,-3.9769623,0,Arrêt,node/7051905159,
5.3500924,-3.9778259,0,Au Lavage,node/7051905160,
5.3510311,-3.9809205,0,A la Mosquée,node/7051905161,
5.349577,-3.9905101,0,Carrefour CHU,node/7051905162,
5.3497766,-4.0228461,0,Gare Anono,node/7051905163,
5.3501191,-3.989405,0,Ecole de Police,node/7052162358,
5.3454176,-4.0226577,0,Carrefour Saint Michel,node/7052162359,
5.3418391,-4.0216117,0,A La Caisse,node/7052162360,
5.3673438,-3.9457347,0,Akouédo,node/7052162361,
5.3719142,-3.9324155,0,Playce Palmeraie,node/7052162362,
5.3728529,-3.9287925,0,Nouveau Goudron,node/7052162363,
5.3743603,-3.9122875,0,Kessé,node/7052162364,
5.3602229,-3.8981583,0,CIE,node/7052162365,
5.3613609,-3.8947412,0,Station Texaco,node/7052162366,
5.3575885,-3.8882764,0,Collège Moderne,node/7052162367,
5.3573081,-3.8845441,0,Carrefour Bangui,node/7052162369,
5.357718,-3.8843443,0,Terminus Carrefour Bangui,node/7052162370,
5.3571933,-3.8844985,0,Carrefour Bangui,node/7052162371,
5.3574283,-3.887693,0,Collège Moderne,node/7052162372,
5.3703106,-3.9374359,0,Faya,node/7052162373,
5.350286,-4.0224532,0,Gare en haut,node/7052162375,
5.3493033,-4.0218316,0,Clinique Fraternité,node/7052340401,
5.3548993,-4.0042631,0,Escalier,node/7052340402,
5.3546376,-3.9904813,0,Vallon-1er Pont,node/7052340403,
5.3504162,-4.0227482,0,Gare en haut,node/7052340404,
5.3271876,-3.9542839,0,Terminus M'Pouto,node/7052340405,
5.3271989,-3.9543486,0,Terminus M'Pouto,node/7052340406,
5.3310206,-3.9579682,0,A l'Arrêt,node/7052340407,
5.3347781,-3.9557567,0,Banny,node/7052340408,
5.337175,-3.9537035,0,Maison Blanche,node/7052340409,
5.3452694,-3.952691,0,Mel Théodore,node/7052340410,
