stop_name,location_type,parent_station,stop_lat,stop_lon,stop_id
Yopougon Niangon-Terminus 27,0,,5.3164439,-4.0893341,node/768587345
Yopougon Sideci - Terminus 42,0,,5.3198783,-4.0804016,node/768587373
Gare lagunaire Aqualines du Plateau,0,,5.3158647,-4.0148847,node/1227889258
Agban,0,,5.3608351,-4.0171229,node/2381298633
Fraternité Matin,0,,5.3438972,-4.018311,node/2444131222
Saint André lavage,0,,5.3423485,-4.0732432,node/2460519991
Arrêt,0,,5.3413464,-4.0238611,node/2493226931
Gare Koumassi,0,,5.2942027,-3.9551669,node/2493730483
Terminus 05 Lycée Municipal de Koumassi,0,,5.3121324,-3.945225,node/2760843854
Terminus bus 47,0,,5.3396167,-4.0832298,node/2948146673
Arrêt du Maroc,0,,5.3396157,-4.0912463,node/3067761599
Mosquée du Maroc,0,,5.3400629,-4.0973067,node/3067766555
Saint André,0,,5.3423254,-4.0738295,node/3075945505
[Arret sans nom],0,,5.3427541,-4.0668084,node/3137208051
2 poteaux,0,,5.3436761,-4.0709484,node/3137217828
Newton,0,,5.3446768,-4.0679411,node/3137243386
Riviéra 2,0,,5.3531115,-3.979568,node/3145728412
Eglise Evangélique Internationnal Foursquare,0,,5.3117096,-3.9487208,node/3218806159
Saint Jean,0,,5.3368705,-4.0037743,node/3326195828
Pharmacie Port-Bouët II,0,,5.3470567,-4.0884501,node/3666057101
Figayo,0,,5.3493507,-4.0734547,node/3950172145
"ENA Cocody, Boulevard Latrille",0,,5.3616481,-3.9973698,node/4029208102
Pharmacie de Bietry,0,,5.2742845,-3.9787018,node/4107240891
Terminus 85,0,,5.3296306,-4.061373,node/4411562346
Terminus CHU Treichville,0,,5.2948647,-4.004071,node/4999458824
Ex-pharmacie Mockey,0,,5.30185,-4.011123,node/5057165424
Carrefour St Jean,0,,5.3369029,-4.0039817,node/5057297311
Terminus 704 abobo Belleville,0,,5.4158258,-3.9933116,node/5068855021
Terminus M'pouto - CIAD,0,,5.328322,-3.940785,node/5143730222
Terminus M'pouto - CIAD,0,,5.3284442,-3.9410686,node/5143751833
[Arret sans nom],0,,5.3437686,-4.0711802,node/5281604034
Gare lagunaire Aqualines Yopougon,0,,5.3078259,-4.0374018,node/5390465849
Stif,0,,5.3555889,-4.0205264,node/5414376221
Complexe sportif de Yopougon,0,,5.3415133,-4.0623618,node/5739489700
Figayo,0,,5.3493427,-4.073208,node/5927302128
Arrêt,0,,5.3419897,-4.1003513,node/5934409413
Yopougon Gesco - Terminus du bus 34,0,,5.3671401,-4.1020437,node/5936892363
Pharmacie Val de Grace,0,,5.3802448,-3.967352,node/5953580661
Carrefour Palmeraie,0,,5.3618751,-3.9593077,node/5953580667
Station Shell Riviera 3,0,,5.3582581,-3.9643623,node/5953580668
CIAD,0,,5.3286164,-3.9498433,node/5954541435
Boulevard de France,0,,5.3347766,-3.9902179,node/5954541439
Carrefour de la Vie,0,,5.3492831,-4.0024723,node/5954541440
Carrefour 22ème,0,,5.3989296,-3.991548,node/5957239662
Carrefour Opéra,0,,5.3855754,-3.9931428,node/5957239663
ENA,0,,5.3615936,-3.9975968,node/5957239665
Hotel Ivoire,0,,5.328578,-4.0050058,node/5957239666
Pharmacie Les Laureades,0,,5.3975314,-3.9860303,node/5958266385
Petro Ivoire 7è Tranche,0,,5.3806539,-3.9881294,node/5958266386
Commisariat 30è Art.,0,,5.373758,-3.9845519,node/5958266387
Terminus 202 Attoban,0,,5.3701109,-3.9813021,node/5958266388
Parmacie St Bernard,0,,5.3673274,-3.9797109,node/5958266389
Pharmacie St Ange,0,,5.3573659,-3.9782153,node/5958266390
Collège André Malraux,0,,5.3558222,-3.9779596,node/5958266391
Riviera 2,0,,5.3541895,-3.9773239,node/5958266392
Saint Paul Plateau,0,,5.3247785,-4.0207447,node/6098848385
Hôtel de Ville,0,,5.3238162,-4.0205509,node/6136850508
Hotel de Ville,0,,5.3234932,-4.0205339,node/6136850509
Terminus Hotel de Ville,0,,5.3226907,-4.0205256,node/6136858285
Cathédrale Saint paul,0,,5.3317403,-4.021322,node/6195348341
Terminus bus 51/52,0,,5.4148488,-4.0333199,node/6281030720
Gare Abobo Sogephia,0,,5.4351428,-4.0144508,node/6474137921
BICICI,0,,5.4364247,-4.0125419,node/6474137923
Cours Sociaux,0,,5.4382745,-4.0147435,node/6474137925
Avenue Kaza,0,,5.4381179,-4.019424,node/6474137927
Camp Commando,0,,5.4355472,-4.0202491,node/6474137929
Station Shell,0,,5.4306474,-4.0200922,node/6474137931
Gendarmerie Abobo,0,,5.4263959,-4.0198488,node/6474137932
Terminus Gendarmerie Abobo,0,,5.4234101,-4.0187446,node/6474137934
2ème Arrêt,0,,5.4171616,-4.0166455,node/6474137936
Banco,0,,5.4131456,-4.015971,node/6474137938
Anador,0,,5.4089746,-4.0160152,node/6474137940
Université Nangui Abrogoua,0,,5.392647,-4.0207427,node/6474137942
Macaci,0,,5.3774907,-4.0255918,node/6474137944
Gare Nord,0,,5.3592442,-4.027655,node/6474137946
Gare Nord,0,,5.3591608,-4.0274455,node/6474137948
Grande Mosquée Adjamé,0,,5.3533564,-4.0257671,node/6474137950
Foire de Chine,0,,5.347769,-4.0256668,node/6474137952
Mairie d'Adjamé,0,,5.3431984,-4.0259753,node/6474137954
Terminus tours Administratives,0,,5.3312372,-4.0238205,node/6474137956
Immeuble Sogefiha,0,,5.3278045,-4.0238801,node/6474137958
Gare Sud,0,,5.3145043,-4.0181049,node/6474137967
Présidence,0,,5.3179651,-4.019718,node/6474137979
Galerie du Parc,0,,5.3225013,-4.0197472,node/6474137980
Camp Galliéni,0,,5.3339569,-4.0247204,node/6474137981
Institut National de la Santé Publique,0,,5.3386571,-4.026107,node/6474137982
Mairie d'Adjamé,0,,5.343713,-4.0260496,node/6474137983
Marché Forum,0,,5.3459921,-4.0258452,node/6474137984
Pharmacie du Banco,0,,5.3503682,-4.0255664,node/6474138985
Grande Mosquée Adjamé,0,,5.3534527,-4.0259071,node/6474138986
Gare Nord,0,,5.3586829,-4.028099,node/6474138987
Macaci,0,,5.3765774,-4.0263861,node/6474138988
Filtisac,0,,5.3906844,-4.021035,node/6474138989
Anador,0,,5.4085961,-4.0162969,node/6474138990
Banco,0,,5.4135848,-4.0162419,node/6474138991
Saint-Joseph 2ème Arrêt,0,,5.4183764,-4.0173344,node/6474138992
Terminus Gendarmerie Abobo,0,,5.4237125,-4.0190818,node/6474138993
Bar Ivoire Abobo,0,,5.4315506,-4.020231,node/6474138994
DGI Abobo,0,,5.4363436,-4.0203886,node/6474138995
Avenue Kaza,0,,5.4382274,-4.0189201,node/6474138996
Carrefour Akeïkoi,0,,5.4383936,-4.0138587,node/6474138997
Terminus Gare Sud,0,,5.3149589,-4.0190673,node/6474138999
Cité Universitaire Abobo,0,,5.4350792,-4.0127537,node/6474139031
Quai 15,0,,5.4354761,-4.0154322,node/6474139033
Station Shell Riviera 3,0,,5.3580852,-3.9641507,node/6815808830
Carrefour Palmeraie,0,,5.3620442,-3.9591336,node/6815808831
CNPS 9ème Tranche,0,,5.3865761,-3.9744202,node/6815808833
Marché COCOVICO,0,,5.4010646,-3.9780418,node/6815808834
Quick Market,0,,5.3738506,-3.9618125,node/6815808839
Quick Market,0,,5.3737728,-3.9618581,node/6815808840
Commissariat 35è Art.,0,,5.3776142,-3.9635563,node/6815808842
CNPS 9ème Tranche,0,,5.3866021,-3.9745308,node/6815808843
Marché COCOVICO,0,,5.4010482,-3.9781939,node/6815808844
Pharmacie du bonheur,0,,5.3698807,-3.9587098,node/6815808845
Groupe Scolaire St Marc,0,,5.383206,-3.9725319,node/6815808846
Camp Commando de Koumassi,0,,5.282599,-3.9692172,node/6819328985
Grand carrefour de Koumassi,0,,5.2892136,-3.9707407,node/6819329085
Hôtel Ibis Marcory,0,,5.2921087,-3.9741109,node/6819329086
Hôtel Ibis Marcory,0,,5.2916293,-3.973691,node/6819329185
Chimtec Grand carrefour Marcory,0,,5.3008419,-3.9897184,node/6819329285
Ambassade des USA,0,,5.335819,-3.9767155,node/6820855646
Hotel du Golf,0,,5.3309825,-3.9728877,node/6820855647
Hotel du Golf,0,,5.3310297,-3.9730064,node/6820855648
Ex Terminus Sotra;Carrefour Sol Beni,0,,5.3312498,-3.9579229,node/6820855649
Cathédrale Saint paul,0,,5.332764,-4.021605,node/6831076677
Église Méthodiste Unie de Côte d'Ivoire,0,,5.3299678,-4.0205671,node/6831076678
Gare Sud,0,,5.3148704,-4.0185085,node/6831076682
Cap Sud,0,,5.2988832,-3.9867521,node/6832290086
Gare de bassam,0,,5.2996481,-4.0022393,node/6899034705
Gendarmerie,0,,5.3004143,-3.9997862,node/6899034706
Notre-dame,0,,5.303315,-4.0037983,node/6899034707
Pharmacie Nanan Yamousso,0,,5.3072484,-4.005186,node/6899034708
Après le pont,0,,5.3099574,-4.0061407,node/6899034709
Adjamé liberté,0,,5.3534116,-4.0160603,node/6899034710
Adjamé liberté,0,,5.3534437,-4.014858,node/6899053345
Gare de Bingerville,0,,5.3535364,-4.0120307,node/6899053346
Feux du plateau,0,,5.325075,-4.0152949,node/6899053347
Nanan Yamousso,0,,5.3101491,-4.0061218,node/6899053348
Gare de bassam,0,,5.2996797,-4.0024275,node/6899053349
Abobo Gare Mairie,0,,5.4200067,-4.0174383,node/6899241573
Mobil,0,,5.4143755,-4.0159818,node/6899241574
Lavage,0,,5.3846161,-4.0215029,node/6899241575
Macaci,0,,5.37725,-4.0257575,node/6899241576
Adjamé Liberté,0,,5.3543459,-4.0164004,node/6899241577
Marché Gouro,0,,5.349107,-4.0212174,node/6899264970
Adjamé Liberté,0,,5.3547097,-4.0163905,node/6899264971
Station Total,0,,5.358734,-4.016791,node/6899264972
Abobo Gare Mairie,0,,5.4215493,-4.0171184,node/6899264973
Carrefour Marché,0,,5.4195759,-4.0153363,node/6902638988
Petro Ivoire,0,,5.4186048,-4.0135168,node/6902638989
Au Bar,0,,5.4168519,-4.0101975,node/6902638990
Petit Carrefour,0,,5.4157998,-4.0080786,node/6902638991
Samaké,0,,5.4152517,-4.0066972,node/6902638992
Azur,0,,5.3994804,-4.0064894,node/6902638993
Panneau ZOO,0,,5.3780522,-4.0070352,node/6902638994
Abobo Gare Mairie,0,,5.4197843,-4.0157753,node/6902638995
Ciné Cool,0,,5.4176548,-4.0117095,node/6902638996
Boulangerie Samake,0,,5.4144283,-4.0062697,node/6902638997
Menuiserie,0,,5.410863,-4.0062877,node/6902638998
Tchapatcha,0,,5.4101067,-4.0063067,node/6902638999
Chaine Avion,0,,5.4092677,-4.0063409,node/6902639000
Pharmacie Dokui,0,,5.4051188,-4.0063993,node/6902639001
SODECI,0,,5.4036347,-4.0064176,node/6902639002
Étage Noir,0,,5.4020967,-4.0064567,node/6902639003
Mobil,0,,5.4001879,-4.0064867,node/6902639004
Arrêt Dokui,0,,5.3968179,-4.006353,node/6902639005
Ancien Feu,0,,5.3929293,-4.005793,node/6902639006
Bangui,0,,5.3872276,-4.005732,node/6902639007
Vidange,0,,5.3851864,-4.0060126,node/6902639008
HMA,0,,5.382931,-4.0063262,node/6902639009
Carrefour paillet,0,,5.3721147,-4.0118134,node/6902639010
Carrefour 2 Plateaux,0,,5.3653117,-4.0157876,node/6902639011
Gare des gbakas d’Abobo par le zoo,0,,5.3553627,-4.0160705,node/6902639012
Petro Ivoire,0,,5.4184847,-4.0136214,node/6902868224
Ciné Cool,0,,5.4176463,-4.0120067,node/6902868225
Au Bar,0,,5.4167077,-4.0102981,node/6902868226
Pharmacie Dokui,0,,5.4051935,-4.0065403,node/6902868227
SODECI,0,,5.4036701,-4.0065873,node/6902868228
Étage Noir,0,,5.40212,-4.0066315,node/6902868229
Mobil,0,,5.4002027,-4.0066597,node/6902868230
Azur,0,,5.3994577,-4.0066034,node/6902868231
Arrêt Dokui,0,,5.3965911,-4.0064518,node/6902868232
Ancien Feu,0,,5.3928327,-4.0059301,node/6902868233
Bangui,0,,5.387253,-4.005859,node/6902868234
Vidange,0,,5.3852715,-4.0061326,node/6902868235
HMA,0,,5.3829176,-4.0064505,node/6902868236
Carrefour paillet,0,,5.3716859,-4.0122239,node/6902868237
Carrefour 2 Plateaux,0,,5.365405,-4.0159576,node/6902868238
Willy Agban,0,,5.3633371,-4.0168128,node/6902868239
Cimetière,0,,5.3668297,-4.0152077,node/6902868240
CIE,0,,5.3765337,-4.0094557,node/6902868241
ZOO,0,,5.3789939,-4.0070149,node/6902868242
Eglise,0,,5.3900553,-4.0056173,node/6902868243
Pharmacie Racines,0,,5.41329,-4.0099567,node/6902868244
Abobo Gare Mairie,0,,5.4197639,-4.0160257,node/6902868245
Christine Bar,0,,5.4500232,-4.0135154,node/6902975747
Terminus Akéikoi village,0,,5.4607326,-4.0109926,node/6902975748
A l'école,0,,5.45899,-4.0107733,node/6902975749
Destin,0,,5.455207,-4.0112928,node/6902975750
Monnaie,0,,5.4542173,-4.0119566,node/6902975751
André Bar,0,,5.4528753,-4.0128592,node/6902975752
Carrefour marché,0,,5.4510493,-4.0133357,node/6902975753
A l'étage,0,,5.446249,-4.0143571,node/6902975754
Boulangerie,0,,5.4394513,-4.0141843,node/6902975755
Carrefour Akéikoi,0,,5.4384053,-4.0140378,node/6902975756
Gare Gbaka Akeïkoi,0,,5.4225885,-4.0161726,node/6902975757
Carrefour marché,0,,5.4510779,-4.0134484,node/6903084141
André Bar,0,,5.4530404,-4.0129173,node/6903084142
Monnaie,0,,5.4542793,-4.0120751,node/6903084143
Au goudron,0,,5.438503,-4.0142825,node/6903097494
Gare Abobo,0,,5.4227551,-4.0160694,node/6903097495
Au tournant,0,,5.4230451,-4.013945,node/6903097496
Au Feu,0,,5.4278782,-4.0146817,node/6903097497
Célibataire,0,,5.433455,-4.0124107,node/6903097498
JAUG,0,,5.4352003,-4.0124925,node/6903097499
Cité,0,,5.4383233,-4.0135883,node/6903097500
Boulangerie,0,,5.449017,-4.0138345,node/6903097501
Christine Bar,0,,5.4500084,-4.0136722,node/6903097502
Destin,0,,5.4552984,-4.01134,node/6903097503
A l'ecole,0,,5.4594779,-4.0109968,node/6903097504
Terminus Akéikoi Village,0,,5.460775,-4.0111868,node/6903097505
Mosquée,0,,5.4429021,-4.0144891,node/6903193216
A l'étage,0,,5.4463091,-4.0144891,node/6903193217
Abobo Gare Mairie,0,,5.42194,-4.0165181,node/6903268819
Gare Abobo Kennedy-Marché/ Mosquée Ado,0,,5.4223082,-4.0163197,node/6903268820
Station,0,,5.4211585,-4.0100057,node/6903268821
Kennedy Marché,0,,5.4236887,-4.0015221,node/6903268822
Mosquée,0,,5.4221255,-4.011717,node/6903296476
Carrefour Kennedy,0,,5.4186623,-4.0060106,node/6903296477
Carrefour Kennedy,0,,5.4186129,-4.0059221,node/6903296478
Makan Traoré,0,,5.4213432,-4.0039185,node/6903296479
Au marché,0,,5.4236156,-4.0015453,node/6903296480
A Gauche,0,,5.423623,-4.0021714,node/6903296481
Makan Traoré,0,,5.4214359,-4.0037249,node/6903296482
Cocody Riviera M'badon,0,,5.3286546,-3.9324706,node/6903347574
Nouveau marché,0,,5.3293417,-3.9332267,node/6903347575
Ancien marché,0,,5.329969,-3.9339946,node/6903347576
Centre de santé Municipal de M'Badon,0,,5.3307517,-3.9350317,node/6903347577
La ferme,0,,5.331008,-3.9352626,node/6903347578
Pharmacie,0,,5.3353839,-3.9393933,node/6903347579
2 poteaux,0,,5.3384154,-3.9427407,node/6903347580
Antenne,0,,5.339948,-3.945032,node/6903347581
Carrefour Akouédo,0,,5.345935,-3.9457017,node/6903347582
École,0,,5.3461517,-3.9471733,node/6903347583
2ème rond-point,0,,5.3458217,-3.9505483,node/6903347584
Gare en haut,0,,5.3503568,-4.0227501,node/6903370485
Station,0,,5.4210882,-4.0100339,node/6903374200
Immeuble Cercueil,0,,5.4196516,-4.00729,node/6903374201
Immeuble Cercueil,0,,5.4195595,-4.0074563,node/6903374202
Terminus mosquée Ado Kenedy,0,,5.4234508,-3.9978515,node/6903397403
A l'école,0,,5.4215774,-3.9978489,node/6903397404
[Arret sans nom],0,,5.4198617,-3.9979409,node/6903397405
Dahico,0,,5.4185867,-3.9980283,node/6903397406
Étage Noir,0,,5.4157689,-3.9992242,node/6903397407
Samake,0,,5.415578,-4.0059533,node/6903406997
Eglise,0,,5.4156671,-4.0037419,node/6903406998
Eglise,0,,5.415458,-4.0037763,node/6903504058
Monastère,0,,5.4155835,-4.0007226,node/6903504059
Monastère,0,,5.415434,-4.0008192,node/6903504060
Étage Noir,0,,5.4157731,-3.999403,node/6903504061
Dahico,0,,5.4185995,-3.9981732,node/6903504062
Hôtel du centre,0,,5.4339087,-4.0272132,node/6903525051
A la Pompe,0,,5.437375,-4.0337387,node/6903525052
Dépôt,0,,5.4377181,-4.0360617,node/6903525053
Anokoi,0,,5.4390697,-4.0444772,node/6903525054
Anokoi,0,,5.439303,-4.0444823,node/6903525055
Marahoué,0,,5.4422211,-4.0479148,node/6903525056
Agripac,0,,5.4439581,-4.0487972,node/6903525057
Terminus,0,,5.447775,-4.0509604,node/6903525058
Terminus,0,,5.4479797,-4.0508555,node/6903525059
Agripac,0,,5.4446545,-4.0489498,node/6903525060
Marahoué,0,,5.4425017,-4.0477433,node/6903525061
Dépôt,0,,5.4379717,-4.0360937,node/6903525062
A la Pompe,0,,5.4376377,-4.033852,node/6903525063
Marché de Nuit,0,,5.4367133,-4.030245,node/6903525064
Hôtel du centre,0,,5.4340417,-4.026894,node/6903525065
Abobo Gare,0,,5.4217034,-4.018191,node/6903525066
Complexe,0,,5.3489387,-4.0206447,node/6903535584
Gare en haut,0,,5.350348,-4.0224464,node/6903544086
Maternité,0,,5.3481387,-4.0180948,node/6903544087
Adjamé Liberté,0,,5.3521055,-4.014163,node/6903544088
2ème pont,0,,5.3547793,-4.0029137,node/6903544089
Marché,0,,5.3301187,-3.9339759,node/6903544090
Gendarmerie,0,,5.4263231,-4.0203577,node/6903602207
Mosquée Blanche,0,,5.4298704,-4.0233336,node/6903602208
Solibra,0,,5.4332219,-4.0262471,node/6903602209
Château,0,,5.4359152,-4.0288774,node/6903602210
A l'escalier,0,,5.4383388,-4.0383071,node/6903602211
PK 18 ancien marché,0,,5.4497913,-4.0521369,node/6903602212
Gare abobo,0,,5.4220421,-4.0184916,node/6903602213
Gendarmerie,0,,5.4260466,-4.0204342,node/6903602214
Gendarmerie Avant le Feu,0,,5.426524,-4.0208376,node/6903602215
Mosquée Blanche,0,,5.4297276,-4.0236152,node/6903602216
Solibra,0,,5.4330817,-4.0264367,node/6903602217
Château,0,,5.4357519,-4.0290698,node/6903602218
Marché de Nuit,0,,5.4365893,-4.0306363,node/6903602219
A l'escalier,0,,5.4380495,-4.0384581,node/6903602220
Nouvelle Gare,0,,5.4382834,-4.0411411,node/6903602221
Agripac Avant le Feu,0,,5.4448006,-4.0493193,node/6903602222
Station Total,0,,5.4493883,-4.0520966,node/6903602223
PK 18 ancien marché,0,,5.4499639,-4.052542,node/6903602224
Attoban camp,0,,5.370557,-3.9761316,node/6903639366
Escalier,0,,5.3694267,-3.9776678,node/6903639367
Pharmacie Saint Bernard,0,,5.3673899,-3.9794185,node/6903639368
Carrefour Garage,0,,5.3658448,-3.9793174,node/6903639369
Polyclinique Sacré-Coeur,0,,5.365069,-3.9792552,node/6903639370
Jules ferry,0,,5.3642087,-3.9790994,node/6903639371
Hôtel Manhatan,0,,5.362115,-3.9788028,node/6903639372
Doraville,0,,5.3589924,-3.978316,node/6903639373
Pharmacie Saint ange,0,,5.3571667,-3.9780678,node/6903639374
André Malraux,0,,5.356275,-3.9777617,node/6903639375
Gare en haut,0,,5.3505392,-4.0228251,node/6903639376
Pharmacie Saint Bernard,0,,5.3672689,-3.9796695,node/6903968407
Carrefour garage,0,,5.3655779,-3.9794498,node/6903968408
Attécoubé Terminus 04,0,,5.343795,-4.0345833,node/6904171063
[Arret sans nom],0,,5.346448,-4.0345467,node/6904171064
Marché,0,,5.3490624,-4.033957,node/6904171065
Station Afriquia,0,,5.3501257,-4.032333,node/6904171066
Carrefour Attecoubé,0,,5.3524283,-4.0328135,node/6904171067
[Arret sans nom],0,,5.3574167,-4.0309717,node/6904171068
Arrêt,0,,5.3513557,-4.0254169,node/6904171070
Adjamé Santé,0,,5.3412757,-4.0261722,node/6904171071
Institut National de la Santé Publique,0,,5.3381159,-4.025807,node/6904171072
Arrêts tours Administratives,0,,5.3318344,-4.0230192,node/6904171073
Cité financière Plateau,0,,5.3266073,-4.0206008,node/6904171074
SIB Alpha 2000,0,,5.3237991,-4.0196512,node/6904171075
Primature,0,,5.3206169,-4.0196681,node/6904171076
Résidence Cheick Yacouba Sylla,0,,5.3089287,-4.0157481,node/6904171077
Marché Treichville,0,,5.3094876,-4.0142576,node/6904171078
[Arret sans nom],0,,5.3109791,-4.0099697,node/6904171079
Biafra,0,,5.3126563,-4.006092,node/6904171080
Banque Atlantique,0,,5.3076251,-3.9933399,node/6904171081
Hôtel Hamanieh,0,,5.3052787,-3.9888629,node/6904171082
Sainte Thérèse,0,,5.3043423,-3.9869873,node/6904171083
Commissariat du 9 ème,0,,5.3064581,-3.9858381,node/6904171084
Gare Marcory,0,,5.3088083,-3.9839517,node/6904188585
Gare Nord,0,,5.3589119,-4.0281877,node/6905326498
Château,0,,5.4366266,-4.0307925,node/6905326503
Préfecture de Police,0,,5.3843543,-4.0219308,node/6905344262
Arrêt Centre Bus,0,,5.4375564,-4.0351608,node/6905344263
Terminus 45 À l'escalier,0,,5.4384645,-4.0390169,node/6905344264
Arrêt Centre Bus,0,,5.4378844,-4.0351391,node/6905344265
Château,0,,5.4365245,-4.0299554,node/6905344266
Arrêt,0,,5.4328931,-4.0259685,node/6905344267
Gendarmerie,0,,5.4284112,-4.0222108,node/6905344268
Préfecture de Police,0,,5.3836534,-4.0219627,node/6905344273
Gendarmerie,0,,5.4284566,-4.0225102,node/6905553518
[Arret sans nom],0,,5.4327155,-4.0261674,node/6905553519
Foire de Chine,0,,5.3485701,-4.0256884,node/6905719605
Église Méthodiste Unie de Côte d'Ivoire,0,,5.3299376,-4.0206943,node/6905719606
60 logements Plateau,0,,5.3251345,-4.0201163,node/6905719607
Hôpital du port,0,,5.3087867,-4.0177138,node/6905719608
Maison du Congres,0,,5.3097288,-4.0148424,node/6905719609
Pharmacie du Rond-point,0,,5.3073425,-4.0116929,node/6905719610
[Arret sans nom],0,,5.3090218,-4.0069793,node/6905719611
Nanan Yamousso,0,,5.3080275,-4.005442,node/6905719612
Paroisse Notre-Dame de Treichville,0,,5.3048828,-4.0043543,node/6905719613
Pharmacie de l'Entente,0,,5.3045623,-4.0015648,node/6905719614
Marché de Belleville,0,,5.3055251,-3.998829,node/6905719615
Banque Atlantique,0,,5.3075214,-3.9931172,node/6905719616
Hôtel Hamanieh,0,,5.3049722,-3.9887868,node/6905719617
Commissariat du 9éme,0,,5.3055778,-3.986118,node/6905719618
Station Shell,0,,5.308097,-3.9847286,node/6905719619
[Arret sans nom],0,,5.3584965,-4.0284151,node/6905719620
[Arret sans nom],0,,5.357702,-4.0304951,node/6905719621
Carrefour Attecoubé,0,,5.3515438,-4.0321715,node/6905719622
Banque Atlantique,0,,5.3489601,-4.03386,node/6905719623
Commissariat du 10ᵉ arrondissement,0,,5.3471108,-4.0344246,node/6905719624
Attécoubé Terminus 04,0,,5.3437946,-4.0344802,node/6905719625
Saint Paul,0,,5.3251603,-4.0219475,node/6905772459
Immeuble Sogephia Hévéa,0,,5.3282245,-4.0239746,node/6905772460
Musée du Plateau,0,,5.3337809,-4.0245113,node/6905772461
Cours Sociaux,0,,5.4383593,-4.0160546,node/6905772466
Gare Nord,0,,5.3590397,-4.0275686,node/6905842305
Long Champs,0,,5.3252327,-4.0224693,node/6905842307
Gare Koumassi,0,,5.293902,-3.9560075,node/6906463287
Pharmacie Ehilie,0,,5.2928524,-3.9602508,node/6906463288
Mosquée,0,,5.2913568,-3.966735,node/6906463289
Échangeur de Marcory,0,,5.2956714,-3.980944,node/6906463290
Grand carrefour Marcory,0,,5.2998527,-3.98845,node/6906463291
Collège Moderne Autoroute,0,,5.2998184,-3.9976917,node/6906463292
Gare de Bassam,0,,5.2999823,-4.0026734,node/6906463293
Ecobank,0,,5.3018099,-4.003273,node/6906463294
Adjamé Liberté,0,,5.3534012,-4.0155251,node/6906463296
BICICI,0,,5.4365892,-4.0124238,node/6906507833
Adjamé - Liberté,0,,5.3546594,-4.0164467,node/6906575629
Williams-Ville,0,,5.3631417,-4.0169033,node/6906575630
Carrefour 2 plateaux,0,,5.3658197,-4.0157829,node/6906575631
[Arret sans nom],0,,5.3662557,-4.0156117,node/6906575632
Paillet,0,,5.3716139,-4.0122293,node/6906575633
[Arret sans nom],0,,5.374069,-4.0112578,node/6906575634
[Arret sans nom],0,,5.3898833,-4.005605,node/6906575635
[Arret sans nom],0,,5.4045622,-4.0065311,node/6906575636
[Arret sans nom],0,,5.4113412,-4.0064187,node/6906575637
ANADER,0,,5.4126483,-4.0064133,node/6906575638
Samake,0,,5.4148754,-4.0064263,node/6906590689
Samake,0,,5.41527,-4.0068417,node/6906590691
Chaîne avion,0,,5.4101483,-4.0063152,node/6906590692
1ere Boutique,0,,5.4073533,-4.0063867,node/6906590693
Carrefour 2 plateaux,0,,5.3659384,-4.0155634,node/6906590694
Adajmé Liberté,0,,5.3546002,-4.0162927,node/6906590695
Adjamé Liberté,0,,5.35345,-4.015528,node/6906596960
Nanan Yamousso,0,,5.3100359,-4.0060884,node/6906596961
Karwil,0,,5.3054677,-4.0044435,node/6906596962
Notre-dame,0,,5.3031308,-4.0036369,node/6906596963
Gare de Bassam,0,,5.3003893,-4.0026404,node/6906596964
Collège Moderne Autoroute,0,,5.2998444,-3.9983918,node/6906596965
Cap Sud,0,,5.2987234,-3.9859637,node/6906596966
Échangeur Marcory,0,,5.2959351,-3.981013,node/6906596967
Auto-école,0,,5.2912433,-3.9675638,node/6906596968
Arrêt,0,,5.2919737,-3.964494,node/6906596969
Boulangerie,0,,5.292783,-3.9610541,node/6906596970
ZOO,0,,5.3790616,-4.0069936,node/6906699462
1ere Boutique,0,,5.4074152,-4.0065336,node/6906699463
Paillet,0,,5.3723989,-4.0116794,node/6906699464
[Arret sans nom],0,,5.3898979,-4.0054621,node/6906699465
Arrêt Dokui,0,,5.3967647,-4.0065122,node/6906699466
Arrêt Dokui,0,,5.3968689,-4.0063445,node/6906699467
ANADER,0,,5.4121402,-4.0062842,node/6906699468
[Arret sans nom],0,,5.4169293,-4.0106347,node/6906699469
[Arret sans nom],0,,5.4170815,-4.0106159,node/6906699470
Abobo Mairie,0,,5.4197017,-4.0159368,node/6906699471
Abobo Mairie,0,,5.4197512,-4.0156192,node/6906699472
Gare Williamsville,0,,5.3675641,-4.0235294,node/6907121506
Mosquée,0,,5.3658243,-4.0207037,node/6907121507
Croix Bleue,0,,5.3643529,-4.0189161,node/6907121508
Agban avant le pont,0,,5.3576606,-4.0160715,node/6907121509
Pharmacie le Belier,0,,5.3501391,-4.0169929,node/6907121510
Indenié,0,,5.3417336,-4.0230855,node/6907121511
Mairie du Plateau,0,,5.3220152,-4.018503,node/6907121512
Institut Français,0,,5.3219502,-4.0170059,node/6907121513
CNPS,0,,5.3195012,-4.0144649,node/6907121514
Gare Marcory,0,,5.3088742,-3.984068,node/6907121515
RTI,0,,5.342209,-4.0033579,node/6907141795
Archibat,0,,5.3459837,-4.0029046,node/6907141796
Marché de Cocody,0,,5.3356901,-4.0007897,node/6907141797
Gare Blockauss,0,,5.3232894,-4.0021679,node/6907141798
Banque Mondiale,0,,5.3278237,-4.0013589,node/6907141799
Marché de Cocody,0,,5.3355267,-4.0007635,node/6907141800
CIE,0,,5.3384172,-4.0038072,node/6907141801
Palm Club,0,,5.351632,-4.0021657,node/6907141802
Gare Nord,0,,5.3587491,-4.0274511,node/6907141803
Texaco,0,,5.3543654,-4.0180323,node/6907147644
Pont lycée technique,0,,5.3478735,-4.0101289,node/6907147645
SODEMI,0,,5.3442806,-4.0038018,node/6907147646
Sgbci,0,,5.3404792,-4.0033259,node/6907147647
Marché de Cocody,0,,5.336444,-3.9999757,node/6907147648
PMI,0,,5.3334363,-4.0003179,node/6907147649
Banque mondiale,0,,5.3280617,-4.00118,node/6907147650
Gare Blockauss,0,,5.323287,-4.0020444,node/6907147651
Boulangerie Top baquette,0,,5.3528511,-4.0168481,node/6907154300
220 logements,0,,5.3472669,-4.017115,node/6907154301
Gare Nord,0,,5.3589598,-4.0273707,node/6907157792
Renault,0,,5.3559786,-4.0213836,node/6907157793
Adjamé Liberté,0,,5.3534802,-4.0158064,node/6907157794
CERAP - INADES,0,,5.339615,-4.000587,node/6907157795
Gare Campus Cocody,0,,5.3464621,-3.9946557,node/6908599212
ISTC,0,,5.343718,-4.0013186,node/6908599213
Quai 49,0,,5.4354972,-4.0153091,node/6908599215
INSAAC,0,,5.3456864,-3.9968976,node/6908618074
EPV Konaté,0,,5.427395,-4.016795,node/6908618077
Lycée Moderne d'Abobo,0,,5.4286546,-4.0147611,node/6908618078
[Arret sans nom],0,,5.4339703,-4.012329,node/6908728765
[Arret sans nom],0,,5.432656,-4.013431,node/6908728766
[Arret sans nom],0,,5.4273213,-4.0162121,node/6908728767
ISTC,0,,5.343821,-4.0008199,node/6908728771
Gare Campus Cocody,0,,5.3462119,-3.9937238,node/6908728772
[Arret sans nom],0,,5.43182,-4.0147361,node/6908782549
[Arret sans nom],0,,5.429723,-4.014638,node/6908782550
Cité des Arts,0,,5.3450487,-3.9978676,node/6908782552
université méthodiste de Côte D'Ivoire,0,,5.3466283,-3.993895,node/6908782553
[Arret sans nom],0,,5.357415,-4.0160582,node/6908914485
Cours socio éducatif,0,,5.3491257,-4.0171632,node/6908914486
Piscine d’État de Treichville,0,,5.3082112,-3.9996571,node/6908914487
Gare Marcory,0,,5.3090397,-3.9839441,node/6908914488
Boulangerie Top Qualité,0,,5.3555536,-4.0161239,node/6908914489
Liberté,0,,5.3513262,-4.0170747,node/6908914490
Pharmacie le Belier,0,,5.3503722,-4.0170975,node/6908914491
Indenié,0,,5.3418097,-4.0230188,node/6908914492
Banque SIB,0,,5.3421743,-4.025647,node/6908914493
Bicici plateau,0,,5.321186,-4.0183783,node/6908914494
Pyramide,0,,5.321624,-4.0167837,node/6908914495
Siège Moov,0,,5.3184312,-4.0145266,node/6908914496
Croix Bleue,0,,5.3641726,-4.0188664,node/6908914498
Infirmerie Sinikeya,0,,5.3653249,-4.0202826,node/6908914499
Gare Williamsville,0,,5.3670874,-4.0235066,node/6908914500
Petro Ivoire,0,,5.3589877,-4.0318263,node/6909039462
Pharmacie Sainte Marie,0,,5.3468603,-4.0257324,node/6909039464
Cité Policière,0,,5.3080247,-4.0159526,node/6909039468
CHU,0,,5.2958623,-4.0046789,node/6909039469
PTT Km4,0,,5.2927793,-3.9984496,node/6909039470
Pharmacie Santé Publique,0,,5.2914467,-3.9957435,node/6909039471
Terminus Cité Fairmont,0,,5.3585383,-4.0375583,node/6909108442
arrêt,0,,5.305135,-4.0149536,node/6909108450
Services Techniques du District,0,,5.29123,-3.9902017,node/6909108451
Gare Marcory,0,,5.3088407,-3.9840127,node/6909121487
Parc des Sports,0,,5.2971256,-4.0074831,node/6909208699
"SIYOA, Boulevard de Marseille",0,,5.2895393,-3.990781,node/6909208700
[Arret sans nom],0,,5.36188,-4.0724972,node/6909225529
[Arret sans nom],0,,5.3647534,-4.0745652,node/6909225530
[Arret sans nom],0,,5.3727101,-4.0961792,node/6909225533
[Arret sans nom],0,,5.3742257,-4.0895635,node/6909225534
Nestlé,0,,5.372722,-4.0867558,node/6909225535
Arrêt,0,,5.3745633,-4.0781781,node/6909225536
[Arret sans nom],0,,5.3703887,-4.0796923,node/6909225537
[Arret sans nom],0,,5.3683786,-4.0786743,node/6909225538
Direction de la Sotra,0,,5.3670367,-4.0761986,node/6909225539
[Arret sans nom],0,,5.3628133,-4.0736157,node/6909225540
[Arret sans nom],0,,5.3612471,-4.0702482,node/6909225541
Lycée Moderne Yopougon Andokoi,0,,5.3623019,-4.0678704,node/6909225542
Centre Ivoire Couture,0,,5.3615148,-4.0667894,node/6909225543
Gare Nord,0,,5.3585831,-4.0278578,node/6909225544
Gare Sud,0,,5.3146893,-4.0183049,node/6909225545
CHU Treichville,0,,5.2948194,-4.0033954,node/6909237619
Délices de France,0,,5.301827,-3.9881326,node/6909237622
Services Techniques du District,0,,5.2913004,-3.9900511,node/6909237623
PTT Km4,0,,5.2931333,-3.9994307,node/6909237624
Quincaillerie Générale,0,,5.3023437,-4.0141223,node/6909237625
Arrêt,0,,5.3049356,-4.0150089,node/6909237626
Cité Policière,0,,5.308109,-4.0161832,node/6909237627
Gare Nord,0,,5.3591167,-4.0279602,node/6909237631
Station Petro Ivoire,0,,5.358876,-4.0319963,node/6909237632
Terminus 02 Cité Fairmont,0,,5.3582206,-4.0364602,node/6909237633
[Arret sans nom],0,,5.3765208,-4.094158,node/6909430718
Gare CTE,0,,5.3618706,-4.0668847,node/6909430720
Lycée Moderne Yopougon Andokoi,0,,5.3621938,-4.0678369,node/6909430721
Station Total,0,,5.3607938,-4.0710622,node/6909430722
[Arret sans nom],0,,5.362382,-4.0736572,node/6909430723
[Arret sans nom],0,,5.365409,-4.0742996,node/6909430724
Direction de la Sotra,0,,5.36707,-4.0764347,node/6909430725
[Arret sans nom],0,,5.3683719,-4.0788862,node/6909430726
Station,0,,5.3690582,-4.080222,node/6909430727
[Arret sans nom],0,,5.3699698,-4.0819788,node/6909430728
JOMACO,0,,5.3741086,-4.0896792,node/6909430729
Dépôt Yopougon zone Industrielle,0,,5.3741528,-4.0958456,node/6909430730
Hôpital Municipal,0,,5.2645534,-3.9848298,node/6909521603
Groupe Scolaire N'Sikan,0,,5.2632614,-3.9834323,node/6909521604
CIE,0,,5.257665,-3.9849267,node/6909521605
arrêt,0,,5.2558751,-3.9956283,node/6909521606
Gestoci,0,,5.26373,-3.9989162,node/6909521607
Pont de Vridi,0,,5.2704314,-4.0062621,node/6909521608
"Etablissements Rey, Port",0,,5.2978357,-4.0143099,node/6909521609
Sicodis,0,,5.3005436,-4.0175241,node/6909521610
Terminus 32,0,,5.305037,-4.0231458,node/6909521611
Grand Moulin Abidjan,0,,5.3069377,-4.0211629,node/6909521612
Hôpital du Pont,0,,5.3088247,-4.0179278,node/6909521613
"Avenue 11, Rue 12, Treichville",0,,5.305655,-4.0117363,node/6909521614
"Avenue 15, Rue 12, Treichville",0,,5.3039938,-4.0111588,node/6909521615
Paroisse Notre Dame,0,,5.3040254,-4.0034158,node/6909521616
Marché Belleville,0,,5.3056574,-3.9987874,node/6909521617
Gare Marcory,0,,5.3087649,-3.9838718,node/6909521620
Vridi Cité - Terminus 53,0,,5.266603,-3.9871428,node/6909546905
Pharmacie Vridi Port,0,,5.259526,-3.9818252,node/6909546906
Stade de la SIR,0,,5.2571616,-3.9892306,node/6909546907
Vridi-Iran,0,,5.2588247,-3.9978983,node/6909546908
"CPMA, Vridi",0,,5.2676512,-4.0031425,node/6909546909
PALM-CI,0,,5.277976,-4.0085496,node/6909546910
Bolloré,0,,5.2821643,-4.0084685,node/6909546911
Siège SOTRA,0,,5.2864977,-4.008455,node/6909546912
Arrêt,0,,5.292271,-4.008424,node/6909546913
Ciment Bélier,0,,5.296841,-4.0131528,node/6909546914
Port Autonome Abidjan,0,,5.3029759,-4.0212547,node/6909546915
Maison du Congres,0,,5.309804,-4.0149741,node/6909546916
Collège Bosco,0,,5.3059215,-4.0050815,node/6909546917
Niangon Sud à droite,0,,5.3226268,-4.1045,node/6909707221
Carrefour Académie,0,,5.3233679,-4.1057378,node/6909707223
Caféier,0,,5.325714,-4.1059349,node/6909707224
Lubafrique,0,,5.3310513,-4.1037691,node/6909707225
2ème arrêt ANADOR,0,,5.3338915,-4.1029765,node/6909707226
Carrefour Anador,0,,5.3358784,-4.1014047,node/6909707227
Pharmacie Cité Maroc,0,,5.3404237,-4.1004632,node/6909707228
CIE,0,,5.3407014,-4.0892462,node/6909707229
[Arret sans nom],0,,5.3450164,-4.0892456,node/6909707230
Grand Centre,0,,5.3481316,-4.0875008,node/6909707231
Port-Bouët II,0,,5.3540742,-4.0874934,node/6909707232
[Arret sans nom],0,,5.3561104,-4.0851103,node/6909707233
BAE,0,,5.3604209,-4.0850901,node/6909707234
Gare Nord,0,,5.358951,-4.0277736,node/6909707236
Gare Sud,0,,5.3147518,-4.0183735,node/6909707238
Feu du Collège Bosco,0,,5.3058324,-4.0049374,node/6909737821
"Avenue 10, Rue 12, Treichville",0,,5.3062141,-4.0120606,node/6909737822
Grand Moulin Abidjan,0,,5.3067759,-4.0211598,node/6909737824
Siège Port Autonome Abidjan,0,,5.3033621,-4.0217286,node/6909737825
Port Autonome Abidjan,0,,5.2945614,-4.0095509,node/6909737826
Siège SOTRA,0,,5.2878677,-4.0082981,node/6909737827
Bolloré,0,,5.2820277,-4.0083516,node/6909737828
Movis,0,,5.2787,-4.00841,node/6909737829
Pont de Vridi,0,,5.2705271,-4.0061063,node/6909737830
Cité Administrative,0,,5.3309411,-4.0239378,node/6909812227
Carrefour Zone,0,,5.3572641,-4.0849641,node/6909812228
[Arret sans nom],0,,5.3552565,-4.0867444,node/6909812229
Pharmacie Port-Bouët II,0,,5.3469666,-4.0880983,node/6909812230
[Arret sans nom],0,,5.3453455,-4.0891591,node/6909812231
Mosquée du Maroc,0,,5.3400138,-4.0974297,node/6909812232
Pharmacie Cité Maroc,0,,5.3401847,-4.1003975,node/6909812233
Carrefour Anador,0,,5.335861,-4.1013081,node/6909812234
Lubafrique,0,,5.3305692,-4.1037999,node/6909812235
[Arret sans nom],0,,5.3273952,-4.1051263,node/6909812236
Caféier,0,,5.32569,-4.1058531,node/6909812237
Niangon Sud à droite,0,,5.3226401,-4.1045248,node/6909812238
Siporex-Sicomex,0,,5.3568101,-4.0739979,node/6909923471
Siporex avant le feu,0,,5.3538004,-4.0740046,node/6909923472
William-Ponty,0,,5.3448074,-4.0732898,node/6909923473
Yopougon 16ème Advans,0,,5.3388868,-4.0732871,node/6909923474
Saguidiba,0,,5.3326109,-4.0733247,node/6909923475
Gare Yopougon Kouté,0,,5.3297734,-4.0735526,node/6909923477
Gare Campus Cocody,0,,5.3463096,-3.9936456,node/6910224899
Gare Yopougon Kouté,0,,5.3297134,-4.0738578,node/6910224902
Saguidiba,0,,5.3315587,-4.0735191,node/6910224905
Côte d'Ivoire-Telecom,0,,5.3344863,-4.0734252,node/6910224906
Yopougon 16ème Advans,0,,5.338834,-4.0734096,node/6910224907
Saint André lavage,0,,5.3418778,-4.0734078,node/6910224908
William-Ponty,0,,5.345666,-4.0734038,node/6910224909
Siporex après le feu,0,,5.3540928,-4.0741883,node/6910224910
Siporex-Sicomex,0,,5.3566819,-4.0741772,node/6910224911
CPMA-Vridi,0,,5.2678334,-4.0031259,node/6910272309
Vridi-Iran,0,,5.2588726,-3.9977641,node/6910272310
"SIR, Vridi",0,,5.2565075,-3.9932473,node/6910272311
CIE,0,,5.2577882,-3.9854582,node/6910272312
"Cité CIE, Vridi",0,,5.2582659,-3.9824273,node/6910272313
Temple des Vainqueurs,0,,5.2600531,-3.9820028,node/6910272314
Hôpital Municipal,0,,5.2644761,-3.9850263,node/6910272315
Terminus Cité Vridi,0,,5.2666602,-3.9874196,node/6910272316
Cité Administrative,0,,5.3313223,-4.0228166,node/6910518025
Gendarmerie Abobo,0,,5.4267852,-4.0201529,node/6910584802
Institut des aveugles,0,,5.350955,-4.0632851,node/6910703473
Bel Air,0,,5.3476916,-4.0632758,node/6910703474
Complexe sportif de Yopougon,0,,5.3418057,-4.0622364,node/6910703475
Nouveau quartier,0,,5.3380456,-4.0622136,node/6910703476
Clinique les Oliviers,0,,5.3333961,-4.0621975,node/6910703477
Terminus 85,0,,5.3294751,-4.061462,node/6910743309
Clinique les Oliviers,0,,5.333826,-4.0623826,node/6910743310
Nouveau quartier,0,,5.3375141,-4.0623477,node/6910743311
Bel Air,0,,5.3460439,-4.0634635,node/6910743312
Sable,0,,5.3556644,-4.0660062,node/6910743313
Institut des aveugles,0,,5.3513983,-4.0634474,node/6910743314
Ben,0,,5.3237979,-4.0804794,node/6910755171
Marejea,0,,5.3255979,-4.0764964,node/6910755172
Iris3,0,,5.3255738,-4.0718266,node/6910755173
Yopougon Sideci - Terminus 42,0,,5.3198733,-4.0802502,node/6910755174
Marché Kouté,0,,5.3242746,-4.0667291,node/6910755176
L'usine du camp,0,,5.3236042,-4.0615042,node/6910755177
Stenb,0,,5.3236336,-4.0577316,node/6910755178
Le petit soleil,0,,5.3222355,-4.0535085,node/6910755179
Yopougon Kowëit,0,,5.3222275,-4.0507693,node/6910755180
La faveur,0,,5.3222395,-4.0464583,node/6910755181
Pharmacie Chenain,0,,5.3198693,-4.0439746,node/6910755182
Iris 3,0,,5.3171339,-4.0439826,node/6910755183
Bon choix,0,,5.3137348,-4.0440027,node/6910755184
Santé Village,0,,5.3095505,-4.0439558,node/6910794085
Gare Abobodoumé,0,,5.3101983,-4.0353389,node/6910794088
Arrêt,0,,5.4258812,-4.01971,node/6910797790
Arrêt,0,,5.4182684,-4.0128435,node/6910797791
Arrêt,0,,5.4156089,-4.0054353,node/6910797792
Arrêt,0,,5.4155902,-3.999584,node/6910797793
Termunis 81/82,0,,5.4038607,-3.9856156,node/6910797794
BICICI,0,,5.4031254,-3.9792073,node/6910797795
Arrêt,0,,5.4011881,-3.9780821,node/6910797796
Arrêt,0,,5.3988302,-3.9776878,node/6910797797
Arrêt,0,,5.3963428,-3.977036,node/6910797798
Arrêt,0,,5.3932466,-3.9761992,node/6910797799
Arrêt,0,,5.3946558,-3.971504,node/6910797800
Cité Diaspora,0,,5.4000986,-3.9649835,node/6910797801
SOCIAM,0,,5.4025338,-3.9621642,node/6910797802
SOCIAM,0,,5.4022965,-3.9620463,node/6910797803
CHU Angré,0,,5.399963,-3.9570893,node/6910797804
Arrêt,0,,5.4154527,-4.0022783,node/6910797805
CHU Angré,0,,5.3997812,-3.9570173,node/6910797806
Arrêt,0,,5.4003923,-3.9592423,node/6910797807
Arrêt,0,,5.4011774,-3.960527,node/6910797808
Arrêt,0,,5.3991713,-3.9657399,node/6910797809
Arrêt,0,,5.3964463,-3.9689626,node/6910797810
Arrêt,0,,5.3933681,-3.9736088,node/6910797811
Arrêt,0,,5.3929368,-3.9754415,node/6910797812
Arrêt,0,,5.3954823,-3.9769683,node/6910797813
Arrêt,0,,5.3963101,-3.9772754,node/6910797814
Arrêt,0,,5.4003569,-3.9781552,node/6910797815
Arrêt,0,,5.4022415,-3.978471,node/6910797816
BICICI,0,,5.4029505,-3.9794534,node/6910797817
Arrêt,0,,5.4042516,-3.9898295,node/6910797818
Saint Ambroise,0,,5.4070126,-3.9911934,node/6910797819
Arrêt,0,,5.4103992,-3.9941237,node/6910797820
Arrêt,0,,5.4136035,-3.9953287,node/6910797821
Lycée Classique d'Abidjan,0,,5.3317315,-4.0043772,node/6912410269
Hotel Ivoire 2,0,,5.3286968,-4.0047695,node/6912410270
Hotel Ivoire,0,,5.3278806,-4.0029871,node/6912410271
Hotel Ivoire,0,,5.3277329,-4.0032565,node/6912410272
Lycée Classique d'Abidjan,0,,5.3327049,-4.0045047,node/6912410273
SODEMI,0,,5.3439798,-4.0037108,node/6912410274
Pont lycée technique,0,,5.3477876,-4.0095505,node/6912410275
Carrefour Express,0,,5.3290976,-4.0751626,node/6912654329
BMW,0,,5.3581253,-4.0012691,node/6912729876
SOCITECH,0,,5.3601195,-3.998725,node/6912729877
MACACI,0,,5.3648148,-3.9976354,node/6912729878
Mobil 2 Plateaux,0,,5.367356,-3.9983993,node/6912729879
Sococé 2 Plateaux,0,,5.3718047,-3.9984268,node/6912729880
BOA,0,,5.3745478,-3.9985198,node/6912729881
SNEDAI,0,,5.3755833,-3.9985338,node/6912729882
Carrefour Duncan,0,,5.3776569,-3.9976312,node/6912729883
Las Palmas,0,,5.3809527,-3.9943103,node/6912729884
Pharmacie du Marché,0,,5.3388207,-4.0792393,node/6912805206
[Arret sans nom],0,,5.3373258,-4.0765581,node/6912805207
Patisserie,0,,5.3384061,-4.0752894,node/6912805208
Ex Chaine Avion Rue Princesse,0,,5.3467623,-4.0652525,node/6912805209
Camp FRCI,0,,5.3408189,-4.0599974,node/6912805210
Carrefour Marché,0,,5.3398655,-4.0572368,node/6912805211
Carrefour Lama Fofana,0,,5.3373205,-4.0549944,node/6912805212
Banque Atlantique,0,,5.3337105,-4.0550186,node/6912805213
Offoumou Yapo,0,,5.3316575,-4.0520655,node/6912805214
Tizra,0,,5.3293394,-4.0497521,node/6912805215
[Arret sans nom],0,,5.3264792,-4.0494691,node/6912805216
[Arret sans nom],0,,5.3247299,-4.0494999,node/6912805217
Gare Abobo Doumé,0,,5.3104606,-4.0354465,node/6912805219
Carrefour Opéra,0,,5.3847656,-3.9932407,node/6912820385
Mahikari,0,,5.3888111,-3.9927523,node/6912820386
Ambassade de Chine,0,,5.3926338,-3.992269,node/6912820387
Les Oscars,0,,5.3942154,-3.9921141,node/6912820388
BHCI,0,,5.3963811,-3.9918337,node/6912820389
Shawarma House,0,,5.4005116,-3.9913523,node/6912820390
Petro Ivoire,0,,5.4038172,-3.9909124,node/6912820391
Notre Dame,0,,5.4042033,-3.9882535,node/6912820392
FIRDA,0,,5.4034748,-3.9819806,node/6912820393
"Ancien Terminus 90, Les Arcades",0,,5.4033098,-3.9765606,node/6912820394
Soleil 2,0,,5.4006902,-3.9728354,node/6912820395
Clinique Médicale Sainte Justine,0,,5.3971939,-3.9694727,node/6912820396
Cité Diaspora,0,,5.3998522,-3.9648829,node/6912820397
Clinique Médicale Sainte Justine,0,,5.3972237,-3.9697282,node/6912820398
"Ancien Terminus 90, Les Arcades",0,,5.4031598,-3.9764213,node/6912820399
FIRDA,0,,5.4033208,-3.9820585,node/6912820400
Termunis 81/82,0,,5.4037772,-3.9856793,node/6912820401
Notre Dame,0,,5.4041375,-3.9887434,node/6912820402
Petro Ivoire,0,,5.4037567,-3.9906882,node/6912820403
Carrefour 22è,0,,5.4002961,-3.9911377,node/6912820404
BHCI,0,,5.3965825,-3.9915941,node/6912820405
Ambassade de Chine,0,,5.3926201,-3.9920829,node/6912820406
Mahikari,0,,5.3895654,-3.9924668,node/6912820407
Opéra,0,,5.3845481,-3.9930996,node/6912820408
Las Palmas,0,,5.3809502,-3.9940546,node/6912820409
Carrefour Duncan,0,,5.3779505,-3.9970644,node/6912820410
Le Roi du Pain,0,,5.3753472,-3.9983567,node/6912820411
Sococé 2 Plateaux,0,,5.3725038,-3.9983278,node/6912820412
Mobil 2 Plateaux,0,,5.3677225,-3.9981432,node/6912820413
MACACI,0,,5.3654376,-3.9973648,node/6912820414
Saint Jacques,0,,5.3574699,-4.0012391,node/6912820415
Palm Club,0,,5.3525544,-4.0018639,node/6912820416
Carrefour la Vie,0,,5.3493692,-4.0022742,node/6912820417
Arrêt,0,,5.344562,-4.0028093,node/6912820418
Sitarail,0,,5.3266074,-4.0255438,node/6913011676
Gare Yopougon Kouté,0,,5.3293875,-4.073499,node/6913011677
Bon choix,0,,5.3134744,-4.0441328,node/6913190443
Santé Village,0,,5.3087112,-4.043768,node/6913190444
[Arret sans nom],0,,5.3166799,-4.0440879,node/6913190445
[Arret sans nom],0,,5.3208014,-4.0441167,node/6913190446
[Arret sans nom],0,,5.3221154,-4.0468311,node/6913190447
[Arret sans nom],0,,5.323918,-4.0496448,node/6913190448
Commissariat de Police du 19ᵉ Arrondissement,0,,5.3270841,-4.0503167,node/6913190449
Tizra,0,,5.3295798,-4.0501732,node/6913190450
Offoumou Yapo,0,,5.3313998,-4.0519957,node/6913190451
La Poste,0,,5.3337753,-4.0550937,node/6913190452
Pharmacie Sacré-cœur,0,,5.3369773,-4.055093,node/6913190453
Pharmacie Béatitude,0,,5.3401473,-4.058547,node/6913190454
Nouveau quartier,0,,5.3407362,-4.0608235,node/6913190455
Ex Chaine Avion Rue Princesse,0,,5.3466167,-4.0650474,node/6913190456
Newton,0,,5.3447353,-4.0678006,node/6913190457
Marche Sicogi,0,,5.3395304,-4.0745628,node/6913190458
Patisserie,0,,5.3379928,-4.0751928,node/6913190459
Pharmacie du Marché,0,,5.3372574,-4.0770331,node/6913190460
Terrain Sogefiha,0,,5.3372711,-4.0806585,node/6913190461
Antenne,0,,5.3335416,-4.0733126,node/6913201897
Cabine Bleue,0,,5.3290163,-4.0757574,node/6913201898
Akadjoba,0,,5.3243327,-4.0799806,node/6913201899
Saint Pierre,0,,5.3239194,-4.0871836,node/6913201900
EPP Niangon,0,,5.3233739,-4.0925668,node/6913201901
Arrêt,0,,5.3197171,-4.0944323,node/6913201902
Arrêt,0,,5.3163701,-4.0947904,node/6913201903
Arrêt Yop 38,0,,5.3152357,-4.0928994,node/6913201904
Terminus 27,0,,5.315995,-4.0900334,node/6913201907
Arrêt,0,,5.3150643,-4.0934497,node/6913201908
EPP SICOGI Niangon Sud,0,,5.3172602,-4.0948509,node/6913201909
Carrefour Marché,0,,5.3202551,-4.0943199,node/6913201910
EPP Niangon,0,,5.3233885,-4.0926667,node/6913201911
Saint Pierre,0,,5.3240967,-4.0869619,node/6913201912
Akadjoba,0,,5.3246783,-4.0797426,node/6913201913
Arrêt de bus,0,,5.3287702,-4.0762905,node/6913201914
Gare Sud,0,,5.3146172,-4.0184952,node/6913201915
Gare Sud,0,,5.3144986,-4.0183564,node/6913291219
CNTG-BNETD,0,,5.329485,-3.9977011,node/6913703797
UCAO,0,,5.3310059,-3.9970399,node/6913703798
Maison du PDCI-RDA,0,,5.3350719,-3.9973538,node/6913703799
Piscine d’État de Treichville,0,,5.3084936,-3.9997195,node/6913703800
NSIA,0,,5.3074734,-3.990551,node/6913703801
Gare Marcory,0,,5.3086966,-3.9837714,node/6913703802
Maison du Parti,0,,5.3353656,-3.9975172,node/6913703803
UCAO,0,,5.3310313,-3.9969162,node/6913703804
CNTG-BNETD,0,,5.3293836,-3.9976804,node/6913703805
Sable,0,,5.3556761,-4.0658437,node/6913857608
"Complexe Sportif, Yopougon",0,,5.3407344,-4.0646331,node/6913857611
Mairie de Yopougon,0,,5.3424009,-4.0665987,node/6913857612
La Marine,0,,5.3443401,-4.0375561,node/6913929664
Sitarail,0,,5.3278599,-4.0262003,node/6913929665
Gare Sud,0,,5.3146272,-4.0182404,node/6913929666
La Marine,0,,5.3441859,-4.0376761,node/6913929668
Gare Yopougon Kouté,0,,5.3295615,-4.0737128,node/6913929669
Gendarmerie,0,,5.3367091,-4.0216157,node/6913931703
Gendarmerie,0,,5.3369705,-4.0217222,node/6913974340
Soleil 2,0,,5.400545,-3.9728972,node/6915341517
Arrêt,0,,5.4035247,-3.9837323,node/6915341518
Arrêt,0,,5.4062326,-3.9906836,node/6915341519
Arrêt,0,,5.4297269,-3.9894234,node/6915341520
Arrêt,0,,5.4313416,-3.9891222,node/6915341521
Abobo Biabou,0,,5.4564179,-3.9725804,node/6915341523
Abobo Biabou,0,,5.4564283,-3.9726482,node/6915341525
Arrêt,0,,5.4454571,-3.978184,node/6915341526
Arrêt,0,,5.4430187,-3.9810371,node/6915341527
Arrêt,0,,5.441543,-3.9831075,node/6915341528
Arrêt,0,,5.4403681,-3.9847859,node/6915341529
Arrêt,0,,5.4391313,-3.9859783,node/6915341530
Arrêt,0,,5.4368688,-3.9875153,node/6915341531
Arrêt,0,,5.4356843,-3.987991,node/6915341532
Arrêt,0,,5.434457,-3.9883619,node/6915341533
Arrêt,0,,5.4327625,-3.9887503,node/6915341534
Arrêt,0,,5.4312302,-3.9889419,node/6915341535
Arrêt,0,,5.4293215,-3.9892581,node/6915341536
Arrêt,0,,5.4264243,-3.9896961,node/6915341537
Arrêt,0,,5.4229496,-3.9902515,node/6915341538
Arrêt,0,,5.4208149,-3.9905681,node/6915341539
Arrêt,0,,5.4195345,-3.9907254,node/6915341540
Arrêt,0,,5.4182159,-3.9909298,node/6915341541
Arrêt,0,,5.4158878,-3.9922122,node/6915341542
Arrêt,0,,5.4154923,-3.9928597,node/6915341543
Arrêt,0,,5.4148205,-3.9947036,node/6915341544
Arrêt,0,,5.4141247,-3.9952879,node/6915341545
Arrêt,0,,5.409531,-3.9932262,node/6915341546
Petro Ivoire Angré,0,,5.4050885,-3.990564,node/6915341547
Arrêt,0,,5.403643,-3.9829561,node/6915341548
Arrêt,0,,5.4033522,-3.9807645,node/6915341549
9 Kilo,0,,5.3585446,-3.96346,node/6915487638
Rond-Point de la Palmeraie,0,,5.360974,-3.9586683,node/6915487639
Carrefour de la Gendarmerie,0,,5.3606149,-3.9598948,node/6915487640
Cap Nord,0,,5.3568703,-3.9665508,node/6915487641
Riviéra 2,0,,5.3532599,-3.9779824,node/6915487642
École de Police,0,,5.3502292,-3.9881887,node/6915487643
École de la Gendarmerie,0,,5.3492233,-3.9943092,node/6915487644
Carrefour de la Vie,0,,5.3485522,-4.0018322,node/6915487645
Mairie d'ABOBO,0,,5.4217637,-4.0185375,node/6915647682
Arrêt,0,,5.4270593,-4.0212736,node/6915647683
Arrêt,0,,5.4303911,-4.0241622,node/6915647684
9 Kilo,0,,5.3587403,-3.9635319,node/6915696792
Chic Shop,0,,5.3596047,-3.9620358,node/6915696795
Cap Nord,0,,5.3574857,-3.9657802,node/6915696796
École de Police,0,,5.3504609,-3.9881605,node/6915696797
Carrefour CHU,0,,5.3494956,-3.9916044,node/6915696798
École de la Gendarmerie,0,,5.3493834,-3.994457,node/6915696799
Carrefour de la Vie,0,,5.3485982,-4.0029649,node/6915696800
Arrêt,0,,5.4333404,-4.0266778,node/6915722685
Anokoi,0,,5.4390733,-4.0446977,node/6915722686
PK 18 Agripac,0,,5.4434752,-4.0485036,node/6915722687
Arrêt,0,,5.4482915,-4.0512502,node/6915722688
Arrêt,0,,5.4503535,-4.0529903,node/6915722689
Arrêt,0,,5.4565524,-4.0545715,node/6915722690
Arrêt,0,,5.4574448,-4.054497,node/6915722691
Arrêt,0,,5.465098,-4.0544278,node/6915722692
Arrêt,0,,5.4662168,-4.0540279,node/6915722693
Arrêt,0,,5.4680953,-4.0530974,node/6915722694
Arrêt,0,,5.4794949,-4.0538658,node/6915722695
Arrêt,0,,5.4828953,-4.0513358,node/6915722696
Arrêt,0,,5.4837187,-4.0513476,node/6915722697
Arrêt,0,,5.4866626,-4.05146,node/6915722698
Arrêt,0,,5.4890597,-4.0515593,node/6915722699
Arrêt,0,,5.4904279,-4.0516047,node/6915722700
Arrêt,0,,5.490915,-4.0516233,node/6915722701
Arrêt,0,,5.4914503,-4.051639,node/6915722702
Arrêt,0,,5.4928779,-4.0516636,node/6915722703
Arrêt,0,,5.4940805,-4.0517658,node/6915722704
Arrêt,0,,5.495095,-4.0517794,node/6915722705
Arrêt,0,,5.4960474,-4.0516644,node/6915722706
Arrêt,0,,5.4970767,-4.0515036,node/6915722707
Arrêt,0,,5.497669,-4.051438,node/6915722708
Arrêt,0,,5.4979794,-4.0513918,node/6915722709
Arrêt,0,,5.4995751,-4.0516497,node/6915722710
Arrêt,0,,5.500507,-4.0519247,node/6915722711
Arrêt,0,,5.5011338,-4.0520934,node/6915722712
Arrêt,0,,5.5015989,-4.0522125,node/6915722713
Arrêt,0,,5.5026911,-4.0525268,node/6915722714
Arrêt,0,,5.5045432,-4.0530594,node/6915722715
Arrêt,0,,5.5053444,-4.0532829,node/6915722716
Mairie d'Anyama,0,,5.5064599,-4.0531365,node/6915722717
Mairie d'Anyama,0,,5.5064064,-4.0530408,node/6915722719
Arrêt,0,,5.4976427,-4.0513828,node/6915722720
Arrêt,0,,5.5027177,-4.0523687,node/6915722721
Arrêt,0,,5.4994894,-4.0514357,node/6915722722
Arrêt,0,,5.4949787,-4.0516383,node/6915722723
Arrêt,0,,5.4888603,-4.051407,node/6915722724
Arrêt,0,,5.4863031,-4.0513417,node/6915722725
Arrêt,0,,5.4825896,-4.0512201,node/6915722726
Arrêt,0,,5.479955,-4.0531887,node/6915722727
Arrêt A l'Ecole,0,,5.4757466,-4.0552147,node/6915722728
Arrêt Contrôle,0,,5.470731,-4.0531044,node/6915722729
Arrêt,0,,5.4669354,-4.0534141,node/6915722730
Arrêt Ancienne Gendarmerie,0,,5.4611068,-4.053759,node/6915722731
Arrêt,0,,5.4526174,-4.0544875,node/6915722732
Arrêt Ancien Marché,0,,5.4503748,-4.0526523,node/6915722733
Arrêt Terminus,0,,5.4483606,-4.0510764,node/6915722734
Arrêt Agripac,0,,5.4449974,-4.0491425,node/6915722735
Arrêt,0,,5.4436482,-4.0484067,node/6915722736
Terminus dépôt SOTRA,0,,5.28758,-4.0057551,node/6916152424
Pharmacie du Port,0,,5.2890666,-4.0084018,node/6916152425
Arrêt du CHU,0,,5.2961604,-4.0033572,node/6916152426
Gare de Bassam,0,,5.2991407,-4.0024808,node/6916152427
Arrêt,0,,5.3478959,-4.0026565,node/6916181080
Grande Pharmacie /Terminus 300FCFA,0,,5.3700062,-3.9983308,node/6916181081
Arrêt,0,,5.4157357,-3.9930971,node/6916280433
Terminus Abobo Baoulé,0,,5.4149934,-3.9940211,node/6916280434
Pharmacie Actuelle,0,,5.4129627,-3.9948875,node/6916280435
Arrêt,0,,5.4103431,-3.9939447,node/6916280436
Arrêt,0,,5.4085794,-3.9923863,node/6916280437
Saint Ambroise,0,,5.4071215,-3.9910921,node/6916280438
Arrêt,0,,5.4055233,-3.990494,node/6916280439
Arrêt,0,,5.4011787,-3.9910264,node/6916280440
Carrefour 22ème,0,,5.3991513,-3.9912618,node/6916280441
SODECI,0,,5.3973362,-3.991524,node/6916280442
Paris Baguette,0,,5.3945043,-3.9918311,node/6916280443
Arrêt,0,,5.3875127,-3.9927256,node/6916280444
Arrêt,0,,5.3797969,-3.9952144,node/6916280445
NSIA,0,,5.3737207,-3.9983542,node/6916280446
SGBGI,0,,5.3700155,-3.9981216,node/6916280447
Cité BAD,0,,5.3465781,-4.002571,node/6916280448
CIE,0,,5.3386878,-4.0035403,node/6916280449
Commissariat du 9 ème,0,,5.3065218,-3.9865047,node/6917146061
Commissariat du 9 ème,0,,5.3061086,-3.9857063,node/6917146062
King Cash,0,,5.3034179,-3.9807831,node/6917146063
Cabinet Médical du 3ème pont,0,,5.3015677,-3.9776047,node/6917146064
Marché de Marcory,0,,5.3005869,-3.9757915,node/6917146065
Paroisse Sainte Bernadette,0,,5.2986259,-3.9722389,node/6917146066
Pharmacie Bagoué,0,,5.2982013,-3.9714765,node/6917146067
Banque of Africa,0,,5.2968312,-3.9688084,node/6917146068
Arrêt,0,,5.2965895,-3.9650103,node/6917146069
Arrêt,0,,5.2975636,-3.9608221,node/6917146070
Place Inchallah,0,,5.2983628,-3.9572333,node/6917146071
Koumassi Prodomo,0,,5.299281,-3.9531506,node/6917146072
Gare Mesano,0,,5.3001329,-3.9494388,node/6917146073
Koumassi Mesano,0,,5.3008577,-3.9476752,node/6917146074
Koumassi Mesano,0,,5.3002935,-3.9483867,node/6917146075
Station Petro Ivoire,0,,5.2998074,-3.9505841,node/6917146076
Palce Inchallah,0,,5.2989496,-3.9543702,node/6917146077
Arrêt,0,,5.2980163,-3.9585451,node/6917146078
Arrêt,0,,5.2972737,-3.9619419,node/6917146079
Arrêt,0,,5.2962808,-3.9660523,node/6917146080
Banque of Africa,0,,5.296728,-3.9687629,node/6917146081
Pharmacie Bagoué,0,,5.2980069,-3.9712863,node/6917146082
Marché de Marcory,0,,5.3006211,-3.9759814,node/6917146083
Cabinet Médical du 3ème pont,0,,5.3016585,-3.9778785,node/6917146084
Arrêt,0,,5.3044464,-3.9828404,node/6917151685
Commissariat du 9 ème,0,,5.3062161,-3.9860886,node/6917151686
Arrêt,0,,5.3077309,-3.988849,node/6917151687
Yan Auto Ecole,0,,5.3084636,-3.9904413,node/6917151688
Gare Abobodoumé,0,,5.3106101,-4.0352896,node/6919194336
Cité Bracodi Rte Cité verte,0,,5.3270854,-4.0923844,node/6919312942
Cité Verte,0,,5.332209,-4.1119954,node/6919312943
Collège Sebaco,0,,5.3316148,-4.109973,node/6919312945
Cité Bracodi Rte Cité verte,0,,5.3306787,-4.1058974,node/6919312946
Banque BNI,0,,5.3296893,-4.1035223,node/6919312947
Le repère,0,,5.3284241,-4.100539,node/6919312948
Carrefour de Niangon,0,,5.3278005,-4.0976201,node/6919312949
Akadjoba,0,,5.3241547,-4.0812954,node/6919312950
Gare Abobodoumé,0,,5.3103655,-4.0351267,node/6919312951
Le petit soleil,0,,5.322126,-4.053652,node/6919327587
Blé Doré,0,,5.3235388,-4.0573213,node/6919327588
Marché Kouté,0,,5.3241224,-4.0669544,node/6919327589
Carrefour Kouté,0,,5.3251706,-4.0710314,node/6919327590
Marejea,0,,5.325455,-4.0761933,node/6919327591
Akadjoba,0,,5.3238646,-4.0818366,node/6919327593
Arrêt,0,,5.3264405,-4.0914322,node/6919327594
Carrefour de Niangon,0,,5.327729,-4.0976496,node/6919327595
Le repère,0,,5.3283566,-4.1005786,node/6919327596
Top Qualitée,0,,5.3295851,-4.1035169,node/6919327597
Cité Bracodi Rte Cité verte,0,,5.3307695,-4.1063239,node/6919327598
Arrêt,0,,5.2982594,-3.9831407,node/6919758025
Arrêt,0,,5.2961308,-3.9792079,node/6919758026
Arrêt,0,,5.2945624,-3.9763809,node/6919758027
Arrêt,0,,5.293456,-3.9743974,node/6919758028
Arrêt,0,,5.2927669,-3.9712223,node/6919758029
Arrêt,0,,5.2932236,-3.9690283,node/6919758030
Arrêt,0,,5.2940469,-3.965347,node/6919758031
Arrêt,0,,5.2951953,-3.9603108,node/6919758032
Arrêt,0,,5.2961324,-3.9565101,node/6919758033
Sogefia,0,,5.297599,-3.9526269,node/6919758034
Arrêt,0,,5.2987064,-3.9478318,node/6919758035
Station Petro Ivoire,0,,5.3015424,-3.9469644,node/6919758036
Arrêt,0,,5.3043266,-3.9453759,node/6919758037
Bon Samaritain,0,,5.3080062,-3.946713,node/6919758038
Pharmacie Fanny,0,,5.3099762,-3.9473403,node/6919758039
Patisserie MC,0,,5.3109106,-3.9466942,node/6919758040
Terminus 05 Lycée Municipal de Koumassi,0,,5.311165,-3.9450346,node/6919758041
"Avenue 19, Rue 12, Treichville",0,,5.3023303,-4.0106387,node/6924851825
FIESTA,0,,5.3047639,-4.0115547,node/6924851826
Treichville Entente,0,,5.3028704,-4.0006757,node/6924851828
Nostalgie,0,,5.3015791,-4.0016802,node/6924851829
Banque Bicici,0,,5.300882,-4.003555,node/6924851830
[Arret sans nom],0,,5.2999593,-4.0062869,node/6924851831
Gare Nord,0,,5.3586294,-4.0277536,node/6924851833
"Avenue 19, Rue 12, Treichville",0,,5.3025272,-4.0106307,node/6924979791
Pharmacie de l'Avenue 27,0,,5.3029946,-4.0062426,node/6924979792
Treichville Entente,0,,5.3032777,-4.0008245,node/6924979794
[Arret sans nom],0,,5.3296238,-4.0208888,node/6926746685
Terminus tours Administratives,0,,5.3309876,-4.0236032,node/6926746686
Terminus Gare Sud,0,,5.3149603,-4.018979,node/6926746688
Station Total,0,,5.3018048,-4.0096436,node/6926746689
Arrêt,0,,5.4538834,-3.9737989,node/6926746749
Arrêt,0,,5.4385456,-3.9864522,node/6926746750
Arrêt,0,,5.4222388,-3.9903197,node/6926746751
Arrêt,0,,5.4154549,-3.9996626,node/6926746752
Arrêt,0,,5.4154484,-4.0016378,node/6926746753
Arrêt,0,,5.4155231,-4.0054049,node/6926746754
Samake,0,,5.4152696,-4.0071858,node/6926746755
Gare Nord,0,,5.3590439,-4.0280449,node/6926746757
Arrêt,0,,5.4155963,-4.0019605,node/6926746758
Arrêt,0,,5.4156232,-3.9928882,node/6926746759
Sotra,0,,5.4196603,-3.9908193,node/6926746760
Arrêt,0,,5.422222,-3.9904401,node/6926746761
Arrêt,0,,5.4265157,-3.9898619,node/6926746762
Arrêt,0,,5.43368,-3.9886816,node/6926746763
Arrêt,0,,5.4374054,-3.9873449,node/6926746764
Arrêt,0,,5.4402786,-3.9850082,node/6926746765
Arrêt,0,,5.443381,-3.9807703,node/6926746766
Arrêt,0,,5.4451883,-3.9785569,node/6926746767
Bon Samaritain,0,,5.3079127,-3.946597,node/6926943107
Pharmacie Campement,0,,5.3050831,-3.9451392,node/6926943108
Hôpital Général de Marcory,0,,5.3011838,-3.9835873,node/6926943109
Pharmacie Notre-Dame,0,,5.3034579,-4.0046641,node/6926943110
Gare Sud,0,,5.3146776,-4.0185633,node/6926943111
Terminus tours Administratives,0,,5.3311928,-4.0236086,node/6926943112
[Arret sans nom],0,,5.3051694,-3.9840318,node/6927022357
Arrêt,0,,5.4159386,-3.9930649,node/6927037611
Arrêt,0,,5.408251,-4.0063405,node/6927037612
Arrêt,0,,5.4057129,-4.0063848,node/6927037613
Arrêt,0,,5.4013897,-4.0064518,node/6927037614
Arrêt,0,,5.3930717,-4.0057893,node/6927037615
Arrêt,0,,5.3875774,-4.0056726,node/6927037616
Arrêt,0,,5.3801858,-4.0066168,node/6927037617
Arrêt,0,,5.3625903,-4.0168427,node/6927037618
Pharmacie le Belier,0,,5.3503578,-4.0169801,node/6927037619
Fraternité Matin,0,,5.3456673,-4.0178358,node/6927037620
Arrêt,0,,5.3411247,-4.0237561,node/6927037621
Arrêt,0,,5.3372751,-4.0237963,node/6927037622
Arrêt,0,,5.3339228,-4.0238252,node/6927037623
Terminus tours Administratives,0,,5.3310139,-4.0238251,node/6927037625
Arrêt,0,,5.3339515,-4.0238861,node/6927037626
Ministère de la défense,0,,5.3377117,-4.0238741,node/6927037627
Arrêt,0,,5.3557539,-4.0161668,node/6927037628
Arrêt,0,,5.379605,-4.0068716,node/6927037629
Arrêt,0,,5.386285,-4.0059958,node/6927037630
Arrêt,0,,5.4018603,-4.0065437,node/6927037631
Abobo Belleville,0,,5.4158855,-3.9933257,node/6927037633
Arrêt,0,,5.3434193,-4.0125125,node/6927327302
Arrêt,0,,5.346265,-4.0103402,node/6927327303
Arrêt,0,,5.3494085,-4.0088409,node/6927327304
Arrêt,0,,5.3529759,-4.0044479,node/6927327305
Arrêt,0,,5.4043844,-3.989773,node/6927327306
Arrêt,0,,5.4048944,-3.9851483,node/6927327307
Arrêt,0,,5.4082838,-3.9867901,node/6927327308
Arrêt,0,,5.407261,-3.9890592,node/6927327309
Arrêt,0,,5.3528041,-4.0043218,node/6927327310
Arrêt,0,,5.3493597,-4.0085859,node/6927327311
Arrêt,0,,5.3461658,-4.0102683,node/6927327312
Polyclinique,0,,5.3433536,-4.0124663,node/6927327313
Gare Sud,0,,5.3147983,-4.0186967,node/6927327314
Campement,0,,5.3022414,-3.9464354,node/6927330411
Terminus 05 Lycée Municipal de Koumassi,0,,5.3120389,-3.9450815,node/6927330412
Pharmacie Fanny,0,,5.3099838,-3.9472561,node/6927330413
Arrêt,0,,5.3362229,-4.0047298,node/6927330414
Gare Campus Cocody,0,,5.3462362,-3.9938503,node/6927330416
INSAAC,0,,5.3463523,-3.9972169,node/6927544633
Saint Jean,0,,5.3359628,-4.0030417,node/6927544634
Saint Jean,0,,5.3358129,-4.0029552,node/6927544636
Gendarmerie,0,,5.3482687,-3.9970998,node/6927544637
Arrêt,0,,5.3536864,-4.0175371,node/6927600976
Mirador,0,,5.3567305,-4.0250561,node/6927600977
Arrêt SICOGI,0,,5.3566458,-4.0241115,node/6927631763
Gare Nord,0,,5.3592856,-4.0275494,node/6927694921
Arrêt,0,,5.3470894,-3.9971908,node/6927701716
Terminus Riviera 2,0,,5.3534453,-3.9700449,node/6928179123
Cité étudiante Riviera 2,0,,5.3533983,-3.9736351,node/6928179124
Riviera 2,0,,5.3525929,-3.9780678,node/6928179125
Petite Mosquée Riviéra Jardin,0,,5.3512739,-3.9805625,node/6928179126
Petite Mosquée Riviéra Jardin,0,,5.3516026,-3.9803499,node/6928250859
Riviera 2,0,,5.3526374,-3.9781867,node/6928250860
Arrêt,0,,5.3530707,-3.9761267,node/6928250861
Terminus Riviera 2,0,,5.3534857,-3.9702004,node/6928250862
Terminus Vridi-Iran,0,,5.2563753,-3.9975737,node/6928681599
Arrêt Cuirasse Ciment,0,,5.2947326,-4.0101948,node/6928681601
Gare Nord,0,,5.3588804,-4.0279685,node/6928681602
Terminus 32,0,,5.3050571,-4.0228924,node/6928704112
[Arret sans nom],0,,5.3002851,-4.0170398,node/6928704113
"Etablissements Rey, Port",0,,5.29778,-4.0140854,node/6928704114
Arrêt Bolloré logistique,0,,5.264595,-3.9995223,node/6928704115
Terminus Vridi-Iran,0,,5.2562337,-3.9975522,node/6928704117
Gare Sud,0,,5.3143818,-4.0182207,node/6929796960
Terminus Gare Sud,0,,5.314962,-4.0189046,node/6929849943
Arrêt,0,,5.3078566,-3.9888954,node/6930487819
Station Corlay Bingerville,0,,5.3612016,-3.8943455,node/6930917942
Après barrage,0,,5.3618466,-3.9581935,node/6930917943
Dalia,0,,5.364055,-3.9537437,node/6930917944
Église Apostolique de Côte d'Ivoire,0,,5.3653603,-3.9497378,node/6930917945
Camp Millitaire d'Akouédo,0,,5.3673945,-3.94563,node/6930917946
Carrefour Faya,0,,5.370105,-3.9389929,node/6930917947
Résidence Genie 2000,0,,5.3712573,-3.9347483,node/6930917948
Optic 2000,0,,5.3725084,-3.9301188,node/6930917949
Jules Verne,0,,5.3741413,-3.9237472,node/6930917950
Pharmacie Saint Sylvestre,0,,5.3718715,-3.9108525,node/6930917951
Cité Hévéas,0,,5.3645064,-3.9083956,node/6930917952
Université de Cocody Pole Scientifique,0,,5.3606115,-3.9031767,node/6930917953
CIE,0,,5.360275,-3.8979524,node/6930917954
[Arret sans nom],0,,5.360916,-3.8963887,node/6930917955
Lycée garçon de Bingerville,0,,5.3577634,-3.8909747,node/6930917956
Carrefour marché,0,,5.3574363,-3.8866322,node/6930917957
Espace Orange,0,,5.3583363,-3.8843503,node/6930917958
Hôpital Mère-Enfant de Bingerville,0,,5.360674,-3.8841063,node/6930917959
Carrefour marché,0,,5.3573589,-3.886655,node/6930917961
Lycée garçon de Bingerville,0,,5.3576746,-3.8908299,node/6930917962
CIE,0,,5.3601255,-3.8980114,node/6930917963
Université de Cocody Pole Scientifique,0,,5.360215,-3.9020951,node/6930917964
Cité Hévéas,0,,5.3643261,-3.9084667,node/6930917965
Cité Marina,0,,5.368265,-3.9097783,node/6930917966
Arrêt,0,,5.3714883,-3.9108391,node/6930917967
Jules Verne,0,,5.3740098,-3.9233838,node/6930917968
Coris Bank,0,,5.3716378,-3.9324215,node/6930917969
Arrêt,0,,5.3701704,-3.9379911,node/6930917970
Camp Millitaire d'Akouédo,0,,5.3671088,-3.9456984,node/6930917971
[Arret sans nom],0,,5.3637324,-3.9527636,node/6930917972
Après barrage,0,,5.3617224,-3.9579964,node/6930917973
Arrêt,0,,5.2993777,-3.94723,node/6931151021
Sogefia,0,,5.2975523,-3.9523798,node/6931151022
Arrêt,0,,5.2958991,-3.9571428,node/6931151023
Pharmacie Saint François,0,,5.2952895,-3.9596352,node/6931151024
Grande Pharmacie Iroko,0,,5.2941237,-3.9646348,node/6931151025
Arrêt,0,,5.2929966,-3.9695299,node/6931151026
Pharmacie Du Boulevard Du Gabon,0,,5.2924858,-3.971683,node/6931151027
Polyclinique La Madone,0,,5.2940696,-3.9757097,node/6931151028
Arrêt,0,,5.2965781,-3.9801776,node/6931151029
Arrêt,0,,5.298031,-3.9828604,node/6931151030
Gare Nord,0,,5.3590066,-4.027668,node/6931151031
Koumassi Sicogi - Dépôt SOTRA,0,,5.2873212,-3.9540428,node/6931273195
[Arret sans nom],0,,5.2849829,-3.964256,node/6931273196
[Arret sans nom],0,,5.2875055,-3.9651793,node/6931273197
Arrêt,0,,5.2873493,-3.9684516,node/6931273198
[Arret sans nom],0,,5.2883388,-3.9694119,node/6931273199
Sicomex,0,,5.293018,-3.9762314,node/6931273200
Gare Sud,0,,5.3148159,-4.0184375,node/6931273203
Pharmacie du Rond-point,0,,5.3074119,-4.0117713,node/6931792543
[Arret sans nom],0,,5.3090558,-4.0071049,node/6931792544
Centre comercial Koumassi,0,,5.2889971,-3.9672808,node/6931792545
Arrêt,0,,5.2839293,-3.9622262,node/6931792546
Pharmacie Bethanie,0,,5.2847439,-3.9586401,node/6931792547
Arrêt,0,,5.2857761,-3.9543311,node/6931792548
Koumassi Sicogi - Dépôt SOTRA,0,,5.2884523,-3.9538698,node/6931792550
Grand Carrefour de Koumassi,0,,5.2870688,-3.970533,node/6931985671
Ivosep Treichville,0,,5.2985627,-4.001299,node/6931985672
Arrêt,0,,5.3266769,-4.060057,node/6932152400
Ghandi,0,,5.3250076,-4.0598402,node/6932152402
Ghandi,0,,5.3253408,-4.0599193,node/6932152404
Arrêt,0,,5.3600658,-4.0669167,node/6932152405
Gare Sud,0,,5.314853,-4.0182858,node/6932152407
CIAD,0,,5.3286224,-3.9502595,node/6932239010
Arrêt,0,,5.3291271,-3.951901,node/6932239011
Arrêt,0,,5.338314,-3.9522216,node/6932239012
Carrefour Mel Theodore,0,,5.3443655,-3.9526011,node/6932239013
Pharmacie Riviera III,0,,5.348653,-3.9535043,node/6932239014
Collège l'Ardoise,0,,5.3509724,-3.9545015,node/6932239015
Arrêt,0,,5.3550168,-3.9606719,node/6932239016
Arrêt,0,,5.3569209,-3.9637336,node/6932239017
Gare Sud,0,,5.3149333,-4.0185761,node/6932239019
Angré Château,0,,5.4127978,-3.9808642,node/6932253478
Arrêt,0,,5.4102497,-3.984559,node/6932253479
Arrêt,0,,5.3866094,-3.9930569,node/6932253480
Arrêt,0,,5.4076842,-3.9885655,node/6932253481
Angré Château,0,,5.4128518,-3.9809279,node/6932253483
Arrêt,0,,5.3569409,-3.9635029,node/6932323632
Collège Ardoise,0,,5.3517214,-3.9543647,node/6932323633
Pharmacie Riviera III,0,,5.3485048,-3.9531872,node/6932323634
Carrefour Mel Theodore,0,,5.3446873,-3.9524998,node/6932323635
École libanaise Al Ghadir,0,,5.3284521,-3.9448656,node/6932323636
Terminus Yopougon Camp Militaire,0,,5.3228845,-4.0617429,node/6933043352
Ghandi,0,,5.3245991,-4.0599163,node/6933043354
[Arret sans nom],0,,5.3278586,-4.0607049,node/6933043355
[Arret sans nom],0,,5.3300685,-4.0581514,node/6933043356
[Arret sans nom],0,,5.3314439,-4.0559573,node/6933043357
Gare Sud,0,,5.3145591,-4.018425,node/6933043359
Arrêt,0,,5.3283246,-3.9428298,node/6933080250
École libanaise Al Ghadir,0,,5.3282992,-3.9447637,node/6933080251
Arrêt,0,,5.3283286,-3.9460498,node/6933080252
Pharmacie M'pouto,0,,5.328364,-3.9479502,node/6933080253
Beverly,0,,5.3380122,-3.9527768,node/6933080254
Carrefour Sol Béni,0,,5.3311481,-3.9578046,node/6933080255
Arrêt,0,,5.329493,-3.980421,node/6933080256
SIB,0,,5.3353723,-3.9996752,node/6933080257
Mosquée Cité Eden,0,,5.3284154,-3.9401878,node/6933080258
Mosquée Cité Eden,0,,5.3283646,-3.9401855,node/6933080260
Arrêt,0,,5.3461454,-4.0026096,node/6933080262
Mosquée Golf,0,,5.3391939,-3.9789297,node/6933080263
Arrêt,0,,5.3325809,-3.9812806,node/6933080264
Arrêt,0,,5.3297881,-3.9790913,node/6933080265
Beverly,0,,5.3380134,-3.9529652,node/6933080266
[Arret sans nom],0,,5.3312516,-4.0560298,node/6933128807
[Arret sans nom],0,,5.3299817,-4.0580978,node/6933128808
Terminus Yopougon Camp Militaire,0,,5.3222556,-4.0623571,node/6933128810
Station Total,0,,5.3017767,-4.0094478,node/6933231056
Pharmacie de l'Avenue 27,0,,5.3029158,-4.0061849,node/6933231057
Gare Nord,0,,5.3589712,-4.0272913,node/6933291484
Gare Nord,0,,5.3591995,-4.0277539,node/6933302185
Arrêt,0,,5.4266332,-4.0210558,node/6934648710
Arrêt,0,,5.4438112,-4.0538116,node/6934648711
Arrêt,0,,5.4435976,-4.0603428,node/6934648712
Arrêt,0,,5.4434975,-4.0647738,node/6934648713
Arrêt,0,,5.4433733,-4.0679455,node/6934648714
Arrêt,0,,5.442806,-4.0693985,node/6934648715
Arrêt,0,,5.4392747,-4.0686147,node/6934648716
Arrêt,0,,5.4321434,-4.068663,node/6934648717
Arrêt,0,,5.428223,-4.0699659,node/6934648718
Arrêt,0,,5.413004,-4.0783779,node/6934648719
Arrêt,0,,5.4036687,-4.0834808,node/6934648720
Arrêt,0,,5.4009224,-4.0842761,node/6934648721
Arrêt,0,,5.3935763,-4.0810159,node/6934648722
Arrêt,0,,5.3892384,-4.078453,node/6934648723
Arrêt,0,,5.3836466,-4.0757427,node/6934648724
Arrêt,0,,5.3747704,-4.0773951,node/6934648725
Arrêt,0,,5.3762544,-4.0820444,node/6934648726
Arrêt,0,,5.3838941,-4.0759718,node/6934648728
Arrêt,0,,5.389032,-4.0784458,node/6934648729
Arrêt,0,,5.3928929,-4.0806236,node/6934648730
Arrêt,0,,5.4014804,-4.0842976,node/6934648731
Arrêt,0,,5.4130749,-4.0784144,node/6934648732
Arrêt,0,,5.4279813,-4.070195,node/6934648733
Arrêt,0,,5.4326393,-4.0686617,node/6934648734
Arrêt,0,,5.4427909,-4.069498,node/6934648735
Arrêt,0,,5.4435987,-4.0650186,node/6934648736
Arrêt,0,,5.4437261,-4.0602688,node/6934648737
Arrêt,0,,5.4438909,-4.0536714,node/6934648738
Arrêt,0,,5.4432611,-4.0481434,node/6934648739
Arrêt,0,,5.4392603,-4.0438735,node/6934648740
220 logements,0,,5.3480962,-4.0169741,node/6934657650
Carrefour Akwaba,0,,5.2690497,-3.9618933,node/6934657651
Hôpital de Port-Bouët,0,,5.2629137,-3.9633662,node/6934657652
Nouveau marché Port-Bouët,0,,5.2574343,-3.9637684,node/6934657653
Océan Espadon,0,,5.2567198,-3.961553,node/6934657654
Église Méthodiste Unie Port-Bouët,0,,5.2542438,-3.9621216,node/6934657655
Wharf Port-Bouët,0,,5.2530566,-3.9607128,node/6934657656
Terminus Port-Bouët Phare,0,,5.2510654,-3.9560196,node/6934657657
Arrêt,0,,5.400118,-4.0201934,node/6934749721
Centre Commercial du Dokui,0,,5.3970398,-4.0027148,node/6934798183
Sainte Monique,0,,5.3997114,-4.0014133,node/6934798184
Superette Akwaba,0,,5.3994163,-3.9960703,node/6934815685
22ème,0,,5.3979557,-3.9916306,node/6934815686
Superette Akwaba,0,,5.3992227,-3.9959845,node/6934815687
Pharmacie Sainte Monique,0,,5.3994417,-3.9972693,node/6934815688
Station Petro Ivoire,0,,5.3997942,-4.0008152,node/6934815689
Sainte Monique,0,,5.3994657,-4.0013301,node/6934815690
Centre Commercial du Dokui,0,,5.3970104,-4.0026122,node/6934815692
Yopougon Kowëit,0,,5.3221354,-4.0506908,node/6934872150
Sideci Matignon,0,,5.3218817,-4.0802555,node/6934872151
Abobo Akeikoi Village,0,,5.4604925,-4.0109827,node/6934922723
Destin,0,,5.4554315,-4.0111108,node/6934922724
André Bar,0,,5.4531085,-4.0126598,node/6934922725
Arrêt,0,,5.4493063,-4.0136415,node/6934922726
Arrêt,0,,5.4446991,-4.0143429,node/6934922727
Arrêt,0,,5.4400103,-4.0141618,node/6934922728
Arrêt,0,,5.4327535,-4.0137548,node/6934922731
Arrêt,0,,5.4336247,-4.0124023,node/6934922732
Arrêt,0,,5.4393221,-4.0143033,node/6934922733
Arrêt,0,,5.4445716,-4.0145279,node/6934922734
Arrêt,0,,5.4493357,-4.0137662,node/6934922735
André Bar,0,,5.4531566,-4.0127617,node/6934922736
Destin,0,,5.4554448,-4.0112489,node/6934922737
Abobo Akeikoi Village,0,,5.4604068,-4.0110518,node/6934922738
Gare Abobodoumé,0,,5.3102833,-4.0352396,node/6934970640
Arrêt,0,,5.4306528,-4.0240914,node/6935113685
Terminus tours Administratives,0,,5.3314011,-4.0236072,node/6935113687
Gare Nord,0,,5.3591731,-4.0273828,node/6935117220
Woodin,0,,5.3610508,-3.9897309,node/6935117222
[Arret sans nom],0,,5.3653222,-3.9897537,node/6935117223
Nsia Banque,0,,5.3685842,-3.9898489,node/6935117224
Leader price,0,,5.372732,-3.9904759,node/6935117225
Carrefour Sainte Cécile - Terminus 35,0,,5.3770534,-3.9926612,node/6935117227
Carrefour Sainte Cécile - Terminus 35,0,,5.3771843,-3.9926425,node/6935251104
Sococé Vallon,0,,5.3742722,-3.9904471,node/6935251105
Nsia Banque,0,,5.3686002,-3.9897873,node/6935251106
[Arret sans nom],0,,5.364963,-3.9897014,node/6935251107
Woodin,0,,5.3606736,-3.9896753,node/6935251108
Versus Bank,0,,5.3576192,-3.9907542,node/6935251109
École de Police,0,,5.3522302,-3.9912866,node/6935251110
Mermoz,0,,5.3387479,-3.99993,node/6935251111
Gare Nord,0,,5.3591581,-4.0278565,node/6935251112
Groupe Scolaire Kouamé Konan,0,,5.2627714,-3.9831166,node/6935274791
Groupe Scolaire Petit Bassam,0,,5.2569108,-3.9774759,node/6935274792
Arrêt,0,,5.2576259,-3.9696513,node/6935274793
Marché,0,,5.2585828,-3.965703,node/6935274794
Pharmacie Océan,0,,5.2568159,-3.9608596,node/6935274796
Lycée Moderne Port Bouët,0,,5.256199,-3.9581761,node/6935274797
Carrefour Akwaba,0,,5.2658583,-3.9610527,node/6935274798
Digue de Koumassi,0,,5.2758153,-3.9661886,node/6935274799
CIE Bia Sud,0,,5.2813533,-3.9692871,node/6935274800
Arrêt,0,,5.2900094,-3.962945,node/6935274801
Arrêt,0,,5.2907532,-3.9596587,node/6935274802
Gare Koumassi,0,,5.294113,-3.9555147,node/6935274803
Pharmacie Regina,0,,5.298266,-3.9498116,node/6935274804
Pharmacie Regina,0,,5.2982253,-3.9495504,node/6935274805
Ajavon,0,,5.2909815,-3.9582726,node/6935274806
Foyer des Jeunes,0,,5.2902818,-3.9612938,node/6935274807
Centre Commercial Koumassi,0,,5.2889304,-3.9668678,node/6935274808
Carrefour Ancien Koumassi,0,,5.2768282,-3.9667035,node/6935274809
43ème Bima,0,,5.2576733,-3.9577992,node/6935274810
Lycée moderne Port-bouët ,0,,5.2560567,-3.9579253,node/6935274811
Nouveau Marché Port-Bouët,0,,5.2574824,-3.9642432,node/6935274812
District de Port-Bouet,0,,5.2584759,-3.965754,node/6935274813
Arrêt,0,,5.2576319,-3.9693877,node/6935274814
Arrêt,0,,5.2572754,-3.9790309,node/6935274815
Stade de la SIR,0,,5.2569161,-3.9893487,node/6935274816
Arrêt,0,,5.3852315,-4.006142,node/6935401276
Arrêt,0,,5.3852595,-4.0060079,node/6935401277
Arrêt,0,,5.3984537,-4.0064532,node/6935401278
Arrêt,0,,5.4022949,-4.0064304,node/6935401279
Arrêt,0,,5.4087036,-4.0063405,node/6935401280
Arrêt,0,,5.4109493,-4.0062828,node/6935401281
Arrêt,0,,5.4143906,-4.0062493,node/6935401282
Arrêt,0,,5.420498,-4.0170009,node/6935401283
Arrêt,0,,5.4189547,-4.0141176,node/6935401284
Arrêt,0,,5.4179854,-4.0123071,node/6935407385
Arrêt,0,,5.4164927,-4.0094626,node/6935407386
"Parc des Sports, Boulevard Valéry Giscard d'Estaing",0,,5.2983706,-4.0041834,node/6935488165
Carrefour Aéroport,0,,5.2470403,-3.9445075,node/6935488166
Arrêt,0,,5.2446806,-3.9295542,node/6935488167
Arrêt,0,,5.2440381,-3.925598,node/6935488168
Arrêt,0,,5.2434545,-3.922044,node/6935488169
Arrêt,0,,5.2426599,-3.9170243,node/6935488170
Arrêt,0,,5.2417851,-3.9115848,node/6935488171
Mosquée,0,,5.2407648,-3.9051327,node/6935488172
Arrêt,0,,5.260825,-3.9593026,node/6935494486
Avenue de la Côte d'Ivoire / Boulevard V.G.E.,0,,5.2976825,-3.984569,node/6935494487
Terminus Gonzagueville,0,,5.2402774,-3.9005903,node/6935494488
Mosquée,0,,5.2405691,-3.9050053,node/6935494499
Arrêt,0,,5.2414058,-3.9104489,node/6935494500
Arrêt,0,,5.2422365,-3.9156765,node/6935494501
Arrêt,0,,5.243186,-3.9216458,node/6935494502
Arrêt,0,,5.2437256,-3.9251152,node/6935494503
Arrêt,0,,5.2444775,-3.9298091,node/6935494504
Arrêt,0,,5.2456701,-3.9372025,node/6935494505
Arrêt,0,,5.2467051,-3.94366,node/6935494506
Arrêt,0,,5.2492829,-3.9541537,node/6935494507
43ème Bima,0,,5.2573475,-3.9579213,node/6935494508
Palais des Sports,0,,5.299118,-4.0065188,node/6935494509
Avenue Christiani,0,,5.3101948,-4.0149692,node/6935494511
Arrêt,0,,5.3002327,-4.0082087,node/6937770645
Arrêt,0,,5.2618319,-3.9594314,node/6937770646
Arrêt,0,,5.2467278,-3.9424717,node/6937770647
Terminus Gonzagueville,0,,5.2400864,-3.9007735,node/6937770648
Arrêt,0,,5.2395482,-3.8973275,node/6937770649
Arrêt,0,,5.2389973,-3.893671,node/6937770650
Pharmacie Bénediction,0,,5.2375957,-3.8845293,node/6937770652
Anani,0,,5.2369286,-3.8802069,node/6937770653
Anani,0,,5.2368898,-3.8798529,node/6937770654
Anani - Rond-point,0,,5.2369172,-3.8749894,node/6937770655
Arrêt,0,,5.2372444,-3.8833565,node/6937770656
Collège privé les Cartésiens d'Abidjan,0,,5.2380744,-3.888965,node/6937770657
Arrêt,0,,5.2386868,-3.8928086,node/6937770658
Arrêt,0,,5.2391862,-3.8962466,node/6937770659
Terminus Gonzagueville,0,,5.2399789,-3.9013763,node/6937770660
Arrêt,0,,5.256211,-3.9649889,node/6937789671
Gare Abobo Sogephia,0,,5.4354794,-4.01522,node/6938095648
Arrêt,0,,5.4251869,-4.0222809,node/6938222040
Arrêt,0,,5.4191963,-4.0239143,node/6938222041
Arrêt,0,,5.4148659,-4.0240283,node/6938222042
Arrêt,0,,5.4147991,-4.0292727,node/6938222043
Ebimpé Village,0,,5.5005578,-4.0807772,node/6938324861
Arrêt,0,,5.5031942,-4.0807946,node/6938324862
Arrêt,0,,5.5033771,-4.0801696,node/6938324863
Arrêt,0,,5.5031182,-4.0769751,node/6938324864
Arrêt,0,,5.5007033,-4.0770207,node/6938324865
Arrêt,0,,5.5002134,-4.0762322,node/6938324866
Arrêt,0,,5.5002334,-4.07344,node/6938324867
Arrêt,0,,5.5000185,-4.0699397,node/6938324868
Arrêt,0,,5.4982283,-4.066591,node/6938324869
Arrêt,0,,5.4912933,-4.0678543,node/6938324870
Arrêt,0,,5.4869787,-4.0690076,node/6938324871
Arrêt,0,,5.4842033,-4.0697157,node/6938324872
Arrêt,0,,5.4791892,-4.0709844,node/6938324873
Arrêt,0,,5.4769371,-4.0715718,node/6938324874
Arrêt,0,,5.4724328,-4.072693,node/6938324875
Arrêt,0,,5.4679499,-4.0737471,node/6938324876
Arrêt,0,,5.4644949,-4.0739322,node/6938324877
Arrêt,0,,5.4606874,-4.0733501,node/6938324878
Arrêt,0,,5.4565342,-4.0724757,node/6938324879
Arrêt,0,,5.4517454,-4.0713693,node/6938324880
Arrêt,0,,5.4485133,-4.0706693,node/6938324881
Arrêt,0,,5.4441757,-4.0696567,node/6938324882
Arrêt,0,,5.4435135,-4.0681963,node/6938324883
Arrêt,0,,5.443862,-4.056062,node/6938324884
Arrêt,0,,5.4440736,-4.0494295,node/6938343085
Hotel Communal Port-Bouët,0,,5.2608437,-3.9639542,node/6938407500
Hôpital Géneral de Port-Bouët,0,,5.2629757,-3.9635653,node/6938407501
Arrêt,0,,5.293872,-3.9564407,node/6938407503
Collège privé les Cartésiens d'Abidjan,0,,5.2382227,-3.8886204,node/6938407504
Farandole,0,,5.3640511,-3.9975952,node/6938756997
Arrêt,0,,5.4036801,-3.9845087,node/6938792077
Arrêt,0,,5.3829263,-3.993252,node/6938792078
Gare Sud,0,,5.3147389,-4.0186301,node/6938792079
Arrêt,0,,5.3010837,-3.9887345,node/6939014886
Pharmacie Sainte Aghate,0,,5.3023803,-3.9663789,node/6939014887
Terminus Remblais 03,0,,5.3029659,-3.9640502,node/6939014888
Terminus Remblais 03,0,,5.302855,-3.9638825,node/6939014890
Arrêt,0,,5.3018088,-3.9684999,node/6939014891
Arrêt,0,,5.2984764,-3.9714879,node/6939014892
Arrêt,0,,5.3022895,-3.9848064,node/6939014894
Gare Nord,0,,5.359076,-4.0274686,node/6939014895
Terminus dépôt SOTRA,0,,5.2875728,-4.0059154,node/6939076692
Sideci Pharmacie Lem,0,,5.3314425,-4.0768933,node/6944816371
Sideci Lem,0,,5.3305385,-4.0798317,node/6944816372
[Arret sans nom],0,,5.3270574,-4.0813807,node/6944816373
Akadjoba,0,,5.3246445,-4.0806283,node/6944816374
Terminus tours Administratives,0,,5.3310827,-4.0237293,node/6944887181
Arrêt,0,,5.4253525,-4.0220542,node/6944887182
Arrêt,0,,5.4193151,-4.0240122,node/6944887183
Arrêt,0,,5.4150828,-4.0241008,node/6944887184
Arrêt,0,,5.4148679,-4.0292533,node/6944920985
Terminus bus 51/52,0,,5.4148038,-4.0334697,node/6944920986
Arrêt,0,,5.3274379,-4.0817052,node/6944934858
Sideci Lem - Carrefour Sgbci,0,,5.330154,-4.080812,node/6944934859
Sideci Pharmacie Lem,0,,5.3314305,-4.0773064,node/6944934860
École de Police,0,,5.3521541,-3.99141,node/6945017053
[Arret sans nom],0,,5.3569943,-3.9914516,node/6945017054
Siège SOTRA,0,,5.2865574,-4.0082677,node/6945458783
Station Oilibya,0,,5.2569502,-3.9722067,node/6945659474
Arrêt,0,,5.2566851,-3.9647529,node/6945659475
Pharmacie Atlantique,0,,5.2546846,-3.9643009,node/6945659476
Port-Bouët Phare,0,,5.2511255,-3.9565238,node/6945659477
Vridi canal - Terminus 23,0,,5.2531341,-4.0047848,node/6945864857
Vridi canal - Terminus 23,0,,5.2531701,-4.0046923,node/6945864858
[Arret sans nom],0,,5.2657115,-4.0087358,node/6945864859
Arrêt du CHU,0,,5.2957541,-4.0033337,node/6945864860
Ciprel,0,,5.260642,-4.0134249,node/6945966271
[Arret sans nom],0,,5.2649101,-4.0138507,node/6945966272
[Arret sans nom],0,,5.265254,-4.011446,node/6945966273
[Arret sans nom],0,,5.2660346,-4.0086137,node/6945966274
[Arret sans nom],0,,5.2688363,-4.0060763,node/6945966275
Arrêt,0,,5.3539352,-3.9581171,node/6948222228
Arrêt,0,,5.3417576,-3.9522725,node/6948222230
Arrêt,0,,5.3392567,-3.9521505,node/6948222231
Arrêt,0,,5.3384929,-3.952243,node/6948222232
Carrefour Ambassade de Chine,0,,5.334941,-3.943904,node/6948222233
Antenne,0,,5.3392333,-3.9452136,node/6948222234
Akwaba,0,,5.3385917,-3.9428439,node/6948222235
Pharmacie,0,,5.3355172,-3.9393644,node/6948222236
Arrêt,0,,5.3328633,-3.9368539,node/6948222237
Centre de santé Municipal de M'Badon,0,,5.3307248,-3.9348771,node/6948222238
Teminus M'Badon,0,,5.3286344,-3.9323347,node/6948222239
Teminus M'Badon,0,,5.3285142,-3.9322612,node/6948270620
Centre de santé Municipal de M'Badon,0,,5.3305385,-3.9347577,node/6948270621
Pharmacie,0,,5.3357956,-3.9397017,node/6948270622
Arrêt,0,,5.339027,-3.9451191,node/6948270623
Ambassade de Chine,0,,5.3329114,-3.9418454,node/6948270624
Arrêt,0,,5.3538285,-3.9568537,node/6948270625
Arrêt,0,,5.3327177,-3.9368337,node/6948290580
Bureau Bad,0,,5.3385823,-3.9429814,node/6948290581
[Arret sans nom],0,,5.3350024,-3.9438068,node/6948290582
Arrêt,0,,5.353946,-3.9767852,node/6948466331
Arrêt,0,,5.3560356,-3.9695473,node/6948466332
Arrêt,0,,5.3732347,-3.9273548,node/6948466333
Arrêt,0,,5.3744488,-3.9221262,node/6948466334
Késsé,0,,5.3738883,-3.9116914,node/6948466335
Syndicat,0,,5.3664705,-3.9090387,node/6948466336
Station TEXACO,0,,5.3613312,-3.8946091,node/6948466337
La Poste,0,,5.357652,-3.8895766,node/6948466338
Pharmacie Du Marché,0,,5.357433,-3.8879555,node/6948466339
Sous-Prefecture de Bingerville,0,,5.3576379,-3.8903531,node/6948466341
Nouveau Goudron,0,,5.372677,-3.9285967,node/6948466343
Pharmacie les 7 Colonnes,0,,5.3455151,-4.0026914,node/6948466345
Arrêt,0,,5.3346312,-3.9906777,node/6948695731
Arrêt,0,,5.3396564,-3.9758237,node/6948695732
Arrêt,0,,5.3414919,-3.9761442,node/6948695733
Arrêt,0,,5.3438403,-3.9751571,node/6948695734
Arrêt,0,,5.3470921,-3.975412,node/6948695735
Arrêt,0,,5.3520693,-3.9767209,node/6948695736
Arrêt,0,,5.3530066,-3.9760919,node/6948695738
Arrêt,0,,5.35209,-3.9766203,node/6948695739
Arrêt,0,,5.3468223,-3.9752188,node/6948695740
Arrêt,0,,5.343802,-3.9750874,node/6948695741
Arrêt,0,,5.3416148,-3.9760651,node/6948695742
Arrêt,0,,5.3397193,-3.9757586,node/6948695743
Arrêt,0,,5.3385022,-3.9754911,node/6948695744
Arrêt,0,,5.3344937,-3.9902714,node/6948695745
Arrêt,0,,5.3349056,-3.9957176,node/6948695746
Warafa Assurance,0,,5.321664,-4.0157926,node/6948706680
Arrêt Résidence Nabil,0,,5.3184017,-4.0152582,node/6948706681
[Arret sans nom],0,,5.3044274,-4.0092923,node/6948706682
Terminus CHU Treichville,0,,5.2949249,-4.0042001,node/6948791226
Arrêt,0,,5.3565604,-3.9679608,node/6948855820
Arrêt,0,,5.3599399,-3.9614752,node/6948855821
Cité Millenium,0,,5.3717967,-3.9289306,node/6948855822
Arrêt,0,,5.3584311,-3.9253854,node/6948855823
Arrêt,0,,5.3556661,-3.9247158,node/6948855824
Arrêt,0,,5.3532496,-3.924163,node/6948855825
Collège Jeune Filles,0,,5.3498507,-3.9233825,node/6948855826
Oribat Cité Don Mello,0,,5.3397928,-3.9225573,node/6948855827
Arrêt,0,,5.3329467,-3.9226348,node/6948855828
Arrêt,0,,5.3282217,-3.9191627,node/6948855829
Paroisse,0,,5.3283086,-3.9169304,node/6948855830
EPP Abatta,0,,5.326625,-3.9161011,node/6948855831
Arrêt,0,,5.3342136,-3.923136,node/6948920956
Arrêt,0,,5.3262131,-3.9158679,node/6948920957
EPP Abatta,0,,5.3267028,-3.9161935,node/6948920958
Paroisse,0,,5.3282218,-3.9169358,node/6948920959
Arrêt,0,,5.3329487,-3.9227374,node/6948920960
Arrêt,0,,5.3417243,-3.9220896,node/6948920961
Arrêt,0,,5.3443775,-3.9222706,node/6948920962
Arrêt,0,,5.3471041,-3.9228521,node/6948920963
Arrêt,0,,5.3532917,-3.9242797,node/6948920964
Arrêt,0,,5.3583733,-3.9254397,node/6948920965
Sodeci Abatta,0,,5.359984,-3.9258534,node/6948920966
Nouveau Goudron,0,,5.3722754,-3.9301027,node/6948920967
Arrêt,0,,5.2579604,-3.968976,node/6951127812
Mairie Port-Bouët,0,,5.2597086,-3.9654422,node/6951127813
[Arret sans nom],0,,5.2595919,-3.9687383,node/6951127815
Gare Sud,0,,5.3145654,-4.0181731,node/6951127816
Arrêt,0,,5.3373639,-3.9533649,node/6951182059
Arrêt,0,,5.3344449,-3.9559445,node/6951182060
Arrêt,0,,5.3308416,-3.9570247,node/6951182061
Arrêt,0,,5.3295658,-3.9531144,node/6951182062
Arrêt,0,,5.3296352,-3.9535137,node/6951182064
Arrêt,0,,5.330835,-3.9572031,node/6951182065
Arrêt,0,,5.3414479,-3.952412,node/6951182066
Arrêt,0,,5.2921887,-3.9630926,node/6951224049
Commissariat de Police du 6ᵉ,0,,5.2898905,-3.9693582,node/6951224050
Gare Nord,0,,5.3586694,-4.0276527,node/6951224051
Gare Koumassi,0,,5.2941431,-3.9554248,node/6951939383
Gare Nord,0,,5.3587923,-4.0273499,node/6951939384
Terminus 31 Remblais,0,,5.3024324,-3.9635003,node/6952071069
Trois Ampoules,0,,5.2975569,-3.9623322,node/6952071070
"BIAO, Treichville",0,,5.2988296,-4.0109539,node/6952132224
"Pizza, Marcory",0,,5.2884596,-3.9883868,node/6952132225
"Bernabé Parc à Fer, Boulevard de Marseille",0,,5.2853422,-3.9855024,node/6952132226
[Arret sans nom],0,,5.2786718,-3.9824903,node/6952132227
Église Notre-Dame d'Afrique,0,,5.2734369,-3.9767262,node/6952132228
Sept Villas,0,,5.2734089,-3.9714865,node/6952132229
Arrêt,0,,5.276028,-3.9672503,node/6952132230
Arrêt,0,,5.2486135,-3.9434065,node/6952132232
EPP Aéroport,0,,5.2544081,-3.9386439,node/6952132233
Aéroport,0,,5.2536201,-3.934246,node/6952132234
Carrefour Aéroport,0,,5.2469401,-3.9450909,node/6952132235
Cité ASECNA,0,,5.2544028,-3.9409603,node/6952132240
Arrêt,0,,5.2508117,-3.9424355,node/6952132241
Arrêt,0,,5.2480679,-3.9435728,node/6952132242
Maquis 5 sur 5,0,,5.247278,-3.947171,node/6952132243
Pharmacie Océan,0,,5.2567618,-3.9610943,node/6952132244
Abattoir Port-Bouët,0,,5.266498,-3.9627318,node/6952132245
Arrêt,0,,5.2726637,-3.9751598,node/6952132246
Arrêt,0,,5.28785,-3.9878453,node/6952132247
Arrêt,0,,5.2895893,-3.9917104,node/6952132248
Arrêt,0,,5.2912033,-3.9954532,node/6952132250
"BIAO, Treichville",0,,5.2984459,-4.0104501,node/6952132251
Gare Sud,0,,5.3144382,-4.0182926,node/6952132252
Arrêt,0,,5.3091986,-3.9495367,node/6952200468
Centre Médico-social,0,,5.3097742,-3.9481486,node/6952200469
Hôpital Général de Marcory,0,,5.3012025,-3.9837456,node/6952200470
Arrêt,0,,5.3034286,-3.986865,node/6952200471
Arrêt,0,,5.3042605,-4.0094613,node/6952200472
Arrêt,0,,5.3052353,-4.007007,node/6952200475
Arrêt,0,,5.3027926,-3.9855715,node/6952200476
Akromiambla-Terminus 32 Koumassi,0,,5.3118954,-3.952005,node/6952200477
Arrêt,0,,5.441531,-4.0471624,node/6952244517
Arrêt,0,,5.4436978,-4.0559909,node/6952566208
Arrêt,0,,5.4448793,-4.0699545,node/6952566209
Arrêt,0,,5.4490874,-4.0708852,node/6952566210
Arrêt,0,,5.4522514,-4.0716147,node/6952566211
Arrêt,0,,5.4532246,-4.0718146,node/6952566212
Arrêt,0,,5.4567491,-4.0726206,node/6952566213
Arrêt,0,,5.4606701,-4.0734789,node/6952566214
Arrêt,0,,5.4636378,-4.0739724,node/6952566215
Arrêt,0,,5.4644695,-4.074022,node/6952566216
Arrêt,0,,5.4679793,-4.0738437,node/6952566217
Arrêt,0,,5.4724295,-4.0727828,node/6952566218
Arrêt,0,,5.4769985,-4.0716872,node/6952566219
Arrêt,0,,5.4793881,-4.0710461,node/6952566220
Arrêt,0,,5.4821955,-4.0703045,node/6952566221
Arrêt,0,,5.4839777,-4.0699115,node/6952566222
Arrêt,0,,5.486354,-4.0692893,node/6952566223
Arrêt,0,,5.4911611,-4.0680795,node/6952566224
Arrêt,0,,5.4982644,-4.0667948,node/6952566225
Arrêt,0,,5.5001119,-4.0740864,node/6952566226
Arrêt,0,,5.5000518,-4.0767123,node/6952566227
Petit Café,0,,5.2862329,-3.9734097,node/6954138437
Arrêt,0,,5.2807083,-3.9775054,node/6954138438
Arrêt,0,,5.2823321,-3.9804116,node/6954138439
Arrêt,0,,5.300639,-4.0126625,node/6954138440
Agence Nationale de la Formation Professionnelle (AGEFOP),0,,5.28394,-3.9828832,node/6954138442
Arrêt,0,,5.2809293,-3.9776556,node/6954138443
UTTb Université Loko,0,,5.2870755,-3.973057,node/6954138444
Marché DjeKonan,0,,5.2892455,-3.9693475,node/6954138445
Arrêt,0,,5.3133129,-3.9518099,node/6954138446
CIE Koumassi,0,,5.2834138,-3.9679319,node/6954511639
Hôpital de Koumassi,0,,5.286559,-3.9686649,node/6954511640
[Arret sans nom],0,,5.3583583,-4.0989914,node/6954926526
[Arret sans nom],0,,5.3615502,-4.1000086,node/6954926527
[Arret sans nom],0,,5.3641759,-4.0967993,node/6954926528
Koumassi Soweto - Dépôt 5,0,,5.2859504,-3.9531577,node/6955038705
Pharmacie Bethanie,0,,5.2847586,-3.9582532,node/6955038706
Sation Lavage,0,,5.2840528,-3.9611265,node/6955038707
CIE Koumassi,0,,5.2836422,-3.9680882,node/6955038708
Hôpital de Koumassi,0,,5.2870421,-3.9688808,node/6955038709
Pharmacie Massarana,0,,5.2996014,-3.984628,node/6955038710
Gare Nord,0,,5.3587075,-4.0275521,node/6955038711
Cité Administrative,0,,5.3331711,-4.0217512,node/6955514933
Arrêt Pharmacie Palmeraie,0,,5.3635731,-3.9598243,node/6955514934
Arrêt,0,,5.3710263,-3.9580205,node/6955514935
Arrêt,0,,5.3720811,-3.9587393,node/6955514936
Cocody SCI Les Rosiers,0,,5.3808935,-3.964382,node/6955514937
Arrêt,0,,5.3727874,-3.9598592,node/6955514938
Arrêt,0,,5.3685488,-3.9592516,node/6955514939
Gare Sud,0,,5.3149553,-4.0184346,node/6955514940
Aéroport,0,,5.253474,-3.9341971,node/6958966895
Arrêt,0,,5.2774525,-3.981805,node/6961370878
Pharmacie de Bietry,0,,5.2744205,-3.9788787,node/6961370879
Arrêt Dr08,0,,5.2516684,-3.9421921,node/6961370880
Cité ASECNA,0,,5.2543801,-3.9410589,node/6961370881
[Arret sans nom],0,,5.3618139,-4.0725361,node/6961643500
[Arret sans nom],0,,5.373881,-4.0923724,node/6961643501
[Arret sans nom],0,,5.3718154,-4.0945986,node/6961643502
Amondji,0,,5.3396466,-4.0858988,node/6963093974
Arrêt,0,,5.3395998,-4.0810166,node/6963093975
Pont Vagabond,0,,5.3382505,-4.0792436,node/6963093976
Arrêt,0,,5.3403236,-4.0747274,node/6963093977
Gare Sud,0,,5.3147296,-4.0181436,node/6963093979
Saint André lavage,0,,5.3415106,-4.0732643,node/6963093981
Amondji,0,,5.3395197,-4.0859069,node/6963093982
Aghien 2 plateaux,0,,5.3883091,-3.9928235,node/6964184463
[Arret sans nom],0,,5.3359625,-4.0044791,node/6964184464
Aghien 2 plateaux,0,,5.3885302,-3.9923066,node/6964184466
Carrefour la Vie,0,,5.3502206,-4.0021368,node/6964184467
Arrêt Pharmacie Palmeraie,0,,5.3635871,-3.9596674,node/6964502135
BAE,0,,5.3609547,-4.0846449,node/6966758103
Arrêt,0,,5.3551851,-4.0882243,node/6966758104
Carrefour Antenne Ananeraie,0,,5.3549701,-4.0957546,node/6966758105
Oasis,0,,5.354878,-4.0988526,node/6966758106
Sorbonne,0,,5.3502259,-4.0993729,node/6966758107
Arrêt,0,,5.3462622,-4.0997625,node/6966758108
Arrêt,0,,5.333344,-4.1031267,node/6966758109
Arrêt,0,,5.3292232,-4.1044571,node/6966758111
Arrêt,0,,5.3441658,-4.1004723,node/6966758112
Arrêt,0,,5.3460138,-4.0999784,node/6966758113
Sorbonne,0,,5.3500978,-4.0994869,node/6966758114
Arrêt,0,,5.3529605,-4.0994742,node/6966758115
Oasis,0,,5.3549421,-4.0992308,node/6966758116
Arrêt,0,,5.3551971,-4.0918869,node/6966758117
Arrêt,0,,5.3233545,-4.016671,node/6966849451
Arrêt,0,,5.4486134,-4.0138976,node/6966849452
Hotel Communal Port-Bouët,0,,5.2613392,-3.9637296,node/6966927285
Wharf Port-Bouët,0,,5.2528723,-3.9605525,node/6966927286
Arrêt,0,,5.3027916,-4.0132633,node/6966927287
Arrêt,0,,5.4469386,-4.0140968,node/6966942817
Arrêt,0,,5.4381706,-4.0166429,node/6966942818
Arrêt,0,,5.4141149,-4.0159589,node/6966942819
Arrêt,0,,5.4069719,-4.0164229,node/6966942820
Arrêt,0,,5.2655592,-4.0007964,node/6967070473
Arrêt,0,,5.2772629,-4.0085238,node/6967070474
Arrêt,0,,5.279469,-4.0085185,node/6967070475
Arrêt,0,,5.3959876,-4.0210712,node/6967070476
Arrêt,0,,5.4118438,-4.016604,node/6967070477
Arrêt,0,,5.4197437,-4.0178807,node/6967070478
Arrêt,0,,5.4227157,-4.0187565,node/6967070479
Arrêt,0,,5.4356834,-4.0289891,node/6967070480
Arrêt,0,,5.4364023,-4.0302558,node/6967070481
Arrêt,0,,5.4370672,-4.0319341,node/6967070482
Arrêt,0,,5.4373075,-4.0332256,node/6967070483
Arrêt,0,,5.4377581,-4.0362847,node/6967070484
Arrêt,0,,5.4381539,-4.0391982,node/6967074785
PK 18 Agripac,0,,5.4435976,-4.0485819,node/6967074787
Arrêt,0,,5.4255661,-4.0197301,node/6967158577
Arrêt,0,,5.4195782,-4.017465,node/6967158578
Arrêt,0,,5.3053862,-4.0226068,node/6967158579
Pharmacie du Port,0,,5.2891307,-4.0082905,node/6967158580
Abobo Gendarmerie,0,,5.4269192,-4.0212006,node/6968911549
Arrêt,0,,5.4289586,-4.0229219,node/6968911550
Arrêt,0,,5.4078444,-4.0812264,node/6968911551
CHU de Yopougon,0,,5.3570551,-4.0851445,node/6968911556
Arrêt,0,,5.3698106,-4.080236,node/6968911557
Arrêt,0,,5.3746728,-4.0777087,node/6968911558
Arrêt,0,,5.4392253,-4.0687166,node/6968911559
Arrêt,0,,5.3423532,-4.0793476,node/6969221528
Gare Sud,0,,5.3141434,-4.0177429,node/6969221530
Feh Kessé,0,,5.3743039,-3.9117702,node/6969371620
Clinique Providence,0,,5.3472803,-4.0097992,node/6969583471
Supermarché Casino,0,,5.3451973,-4.0106696,node/6969583472
Gare Sud,0,,5.3147951,-4.0185824,node/6969583474
Gare Sud,0,,5.3154387,-4.01752,node/6969583476
Novotel,0,,5.3161731,-4.0166201,node/6969583477
[Arret sans nom],0,,5.3172748,-4.0151837,node/6969583478
Arrêt,0,,5.3202726,-4.015578,node/6969583479
Arrêt,0,,5.3209056,-4.0192916,node/6969583480
Arrêt,0,,5.3217388,-4.0207359,node/6969583481
Hotel de Ville,0,,5.3233639,-4.0207185,node/6969583482
Arrêt,0,,5.3257514,-4.0207171,node/6969583483
Arrêt,0,,5.3278011,-4.0207332,node/6969583484
Cité Administrative,0,,5.3335937,-4.0217525,node/6969620785
Termunis 81/82,0,,5.4031227,-3.985249,node/6970095632
Arrêt,0,,5.3971746,-3.9859892,node/6970095633
Pharmacie Les 7 Lys,0,,5.3841166,-3.9875704,node/6970095634
Arrêt,0,,5.3643008,-3.979157,node/6970095635
Riviera 2,0,,5.3542958,-3.977256,node/6970095637
Arrêt,0,,5.3623286,-3.978931,node/6970095638
DGI,0,,5.3924174,-3.9866585,node/6970095639
Termunis 81/82,0,,5.4031427,-3.9853522,node/6970095641
Arrêt,0,,5.3554107,-3.9506122,node/6970366278
Arrêt,0,,5.3552038,-3.950804,node/6970366281
Arrêt,0,,5.3652007,-3.9482653,node/6970366282
Arrêt,0,,5.3643008,-3.9522095,node/6970366283
Arrêt,0,,5.403546,-4.0181825,node/6979256984
Arrêt,0,,5.4038146,-3.9848581,node/6979431044
Arrêt,0,,5.39671,-3.977142,node/6979431045
Arrêt,0,,5.3902524,-3.9754421,node/6979431046
Arrêt,0,,5.387788,-3.9747639,node/6979431047
Arrêt,0,,5.3839137,-3.9737651,node/6979431048
Arrêt,0,,5.3828575,-3.9734902,node/6979431049
Arrêt,0,,5.3749859,-3.9627425,node/6979431051
Arrêt,0,,5.4036825,-3.984727,node/6979431052
Arrêt,0,,5.3281463,-3.9195342,node/6979712503
Arrêt,0,,5.3318471,-3.9224169,node/6979712504
Arrêt,0,,5.3394623,-3.9227159,node/6979712505
Arrêt,0,,5.3479974,-3.923066,node/6979712506
Arrêt,0,,5.3497346,-3.9234415,node/6979712507
Arrêt,0,,5.3546363,-3.924564,node/6979712508
Arrêt,0,,5.3579717,-3.9253713,node/6979712509
Arrêt;Sodeci,0,,5.3601,-3.9221386,node/6979712510
Arrêt,0,,5.3622665,-3.9265072,node/6979712511
Arrêt,0,,5.3635464,-3.9268023,node/6979712512
Arrêt,0,,5.3687351,-3.928193,node/6979712513
Arrêt,0,,5.3703787,-3.9379911,node/6979712514
Arrêt,0,,5.3679286,-3.9279167,node/6979712515
Arrêt,0,,5.3470093,-3.9227716,node/6979712516
Arrêt,0,,5.3449917,-3.9223344,node/6979712517
Arrêt,0,,5.3428352,-3.9218402,node/6979712518
Arrêt,0,,5.3413324,-3.9221104,node/6979712519
Arrêt,0,,5.2452454,-3.9344399,node/6980029236
Arrêt,0,,5.2569228,-3.9723435,node/6980029237
Bank Of Africa,0,,5.2684644,-4.0062828,node/6980029238
Arrêt,0,,5.2646043,-4.0139727,node/6980029239
Arrêt,0,,5.2587043,-4.0112543,node/6980029241
[Arret sans nom],0,,5.2648347,-4.0138916,node/6980029242
[Arret sans nom],0,,5.2686721,-4.006083,node/6980029243
Terminus Port-Bouët Phare,0,,5.2509145,-3.9560491,node/6980258130
Arrêt,0,,5.3433974,-4.0032211,node/6980521688
Arrêt,0,,5.3628414,-3.9976139,node/6980521689
Arrêt,0,,5.399921,-4.0057075,node/6980521690
Arrêt,0,,5.4015232,-4.0065511,node/6980521691
Arrêt,0,,5.4034191,-4.0065081,node/6980521692
Terminus Gendarmerie Abobo,0,,5.4241696,-4.0192406,node/6980521695
Arrêt,0,,5.4185708,-4.0134712,node/6980521696
Arrêt,0,,5.4155561,-4.0074744,node/6980521697
Arrêt,0,,5.4135434,-4.0062694,node/6980521698
Arrêt,0,,5.4035807,-4.0064277,node/6980521699
Arrêt,0,,5.3998663,-3.9990999,node/6980521700
Arrêt,0,,5.3987194,-3.992904,node/6980521701
Arrêt,0,,5.387006,-3.9927913,node/6980521702
Arrêt,0,,5.3819122,-3.9934525,node/6980521703
Arrêt,0,,5.2578469,-3.9718473,node/7025968250
Arrêt,0,,5.2642798,-3.9994057,node/7025975082
Arrêt,0,,5.2682835,-4.003783,node/7025975083
Arrêt,0,,5.3292373,-4.10439,node/7025992286
[Arret sans nom],0,,5.2771214,-4.0083388,node/7026069662
Arrêt,0,,5.341978,-4.0149826,node/7026279881
Arrêt,0,,5.2855772,-3.9547831,node/7026364429
[Arret sans nom],0,,5.2850417,-3.9641359,node/7026390486
Océan Espadon,0,,5.2566557,-3.9616643,node/7028872830
Gare Nord,0,,5.3588917,-4.0278525,node/7028872831
Cité étudiante Riviera 2,0,,5.3534289,-3.9736383,node/7043603291
Carrefour Antenne Ananeraie,0,,5.3550743,-4.0957761,node/7043642288
Gare Lagunaire Yopougon STL,0,,5.3109066,-4.0344058,node/7044975088
Gare Lagunaire Plateau STL,0,,5.3143858,-4.0170439,node/7044975089
Gare Lagunaire Treichville STL,0,,5.3135839,-4.0100701,node/7044975090
Gare Lagunaire Koumassi STL,0,,5.315627,-3.952125,node/7046900012
Gare Lagunaire M'pouto STL,0,,5.3240676,-3.9603245,node/7046900013
Gare Lagunaire de Treichville Sotra,0,,5.3108107,-4.015859,node/7046964142
Gare Lagunaire d’Abobo-Doumé Sotra,0,,5.3107009,-4.0347196,node/7046964143
Gare Lagunaire du Plateau Sotra,0,,5.3140753,-4.0176728,node/7047063325
Gare lagunaire de Blockauss Sotra,0,,5.3212342,-4.0021442,node/7047101136
Arrêt,0,,5.3562773,-4.0016118,node/7047930662
Arrêt,0,,5.4096636,-3.9856634,node/7047930663
Syndicat,0,,5.3665112,-3.9091802,node/7048020780
Késsé,0,,5.3739184,-3.9119428,node/7048020781
Camp Millitaire d'Akouédo,0,,5.3676562,-3.9446417,node/7048020782
Église Apostolique de Côte d'Ivoire,0,,5.3652501,-3.9495032,node/7048020783
Yopougon Gesco - Terminus du bus 34,0,,5.3672056,-4.1020069,node/7049258139
Arrêt,0,,5.365903,-4.0973914,node/7049258140
Arrêt,0,,5.3634963,-4.0976979,node/7049258141
Arrêt,0,,5.3608051,-4.1003995,node/7049258142
Arrêt,0,,5.3587021,-4.0998034,node/7049258143
Mamie Adjoua,0,,5.3582214,-4.0940326,node/7049258144
Arrêt,0,,5.3552799,-4.088628,node/7049258145
Arrêt,0,,5.3009034,-4.0120965,node/7049730219
EPP Aéroport,0,,5.2545644,-3.9392397,node/7049730220
Sept Villas,0,,5.2734289,-3.9712512,node/7049730221
Arrêt,0,,5.2844982,-3.9852691,node/7049730222
Carrefour La Vie,0,,5.3485715,-4.0031956,node/7051810979
Terminus Liberté,0,,5.3528057,-4.0128221,node/7051810981
Ecole de Police,0,,5.3503194,-3.9885668,node/7051810982
Riviera 2,0,,5.3530834,-3.9797437,node/7051810984
Station Total Riviera 2,0,,5.3529853,-3.9788968,node/7051811086
Vallon,0,,5.35446,-3.9909077,node/7051811087
Escalier,0,,5.3546991,-4.0043946,node/7051811088
Adjamé liberté,0,,5.3533605,-4.0146225,node/7051811090
Gare Anono,0,,5.3498521,-4.0228106,node/7051905145
Station,0,,5.3495777,-4.0223607,node/7051905146
Banfora,0,,5.347757,-4.0227932,node/7051905147
Marché,0,,5.3464705,-4.0227107,node/7051905148
Eglise Saint Michel,0,,5.3451372,-4.0226899,node/7051905149
Eglise,0,,5.343631,-4.0234597,node/7051905150
SODEFOR,0,,5.3490415,-3.9993949,node/7051905151
Carrefour CHU,0,,5.3494341,-3.9919236,node/7051905152
Arrêt,0,,5.3505471,-3.9869374,node/7051905153
Terminus Anono,0,,5.3445751,-3.9724706,node/7051905154
Marché,0,,5.3452895,-3.9744008,node/7051905155
Terminus Anono,0,,5.34455,-3.9724521,node/7051905157
Arrêt,0,,5.3504075,-3.9769623,node/7051905159
Au Lavage,0,,5.3500924,-3.9778259,node/7051905160
A la Mosquée,0,,5.3510311,-3.9809205,node/7051905161
Carrefour CHU,0,,5.349577,-3.9905101,node/7051905162
Gare Anono,0,,5.3497766,-4.0228461,node/7051905163
Ecole de Police,0,,5.3501191,-3.989405,node/7052162358
Carrefour Saint Michel,0,,5.3454176,-4.0226577,node/7052162359
A La Caisse,0,,5.3418391,-4.0216117,node/7052162360
Akouédo,0,,5.3673438,-3.9457347,node/7052162361
Playce Palmeraie,0,,5.3719142,-3.9324155,node/7052162362
Nouveau Goudron,0,,5.3728529,-3.9287925,node/7052162363
Kessé,0,,5.3743603,-3.9122875,node/7052162364
CIE,0,,5.3602229,-3.8981583,node/7052162365
Station Texaco,0,,5.3613609,-3.8947412,node/7052162366
Collège Moderne,0,,5.3575885,-3.8882764,node/7052162367
Carrefour Bangui,0,,5.3573081,-3.8845441,node/7052162369
Terminus Carrefour Bangui,0,,5.357718,-3.8843443,node/7052162370
Carrefour Bangui,0,,5.3571933,-3.8844985,node/7052162371
Collège Moderne,0,,5.3574283,-3.887693,node/7052162372
Faya,0,,5.3703106,-3.9374359,node/7052162373
Gare en haut,0,,5.350286,-4.0224532,node/7052162375
Clinique Fraternité,0,,5.3493033,-4.0218316,node/7052340401
Escalier,0,,5.3548993,-4.0042631,node/7052340402
Vallon-1er Pont,0,,5.3546376,-3.9904813,node/7052340403
Gare en haut,0,,5.3504162,-4.0227482,node/7052340404
Terminus M'Pouto,0,,5.3271876,-3.9542839,node/7052340405
Terminus M'Pouto,0,,5.3271989,-3.9543486,node/7052340406
A l'Arrêt,0,,5.3310206,-3.9579682,node/7052340407
Banny,0,,5.3347781,-3.9557567,node/7052340408
Maison Blanche,0,,5.337175,-3.9537035,node/7052340409
Mel Théodore,0,,5.3452694,-3.952691,node/7052340410
