parent_station,stop_lon,stop_lat,stop_id,stop_name,location_type
,-4.0893341,5.3164439,node/768587345,Yopougon Niangon-Terminus 27,0
,-4.0804016,5.3198783,node/768587373,Yopougon Sideci - Terminus 42,0
,-4.0148847,5.3158647,node/1227889258,Gare lagunaire Aqualines du Plateau,0
,-4.0171229,5.3608351,node/2381298633,Agban,0
,-4.018311,5.3438972,node/2444131222,Fraternité Matin,0
,-4.0732432,5.3423485,node/2460519991,Saint André lavage,0
,-4.0238611,5.3413464,node/2493226931,Arrêt,0
,-3.9551669,5.2942027,node/2493730483,Gare Koumassi,0
,-3.945225,5.3121324,node/2760843854,Terminus 05 Lycée Municipal de Koumassi,0
,-4.0832298,5.3396167,node/2948146673,Terminus bus 47,0
,-4.0912463,5.3396157,node/3067761599,Arrêt du Maroc,0
,-4.0973067,5.3400629,node/3067766555,Mosquée du Maroc,0
,-4.0738295,5.3423254,node/3075945505,Saint André,0
,-4.0668084,5.3427541,node/3137208051,[Arret sans nom],0
,-4.0709484,5.3436761,node/3137217828,2 poteaux,0
,-4.0679411,5.3446768,node/3137243386,Newton,0
,-3.979568,5.3531115,node/3145728412,Riviéra 2,0
,-3.9487208,5.3117096,node/3218806159,Eglise Evangélique Internationnal Foursquare,0
,-4.0037743,5.3368705,node/3326195828,Saint Jean,0
,-4.0884501,5.3470567,node/3666057101,Pharmacie Port-Bouët II,0
,-4.0734547,5.3493507,node/3950172145,Figayo,0
,-3.9973698,5.3616481,node/4029208102,"ENA Cocody, Boulevard Latrille",0
,-3.9787018,5.2742845,node/4107240891,Pharmacie de Bietry,0
,-4.061373,5.3296306,node/4411562346,Terminus 85,0
,-4.004071,5.2948647,node/4999458824,Terminus CHU Treichville,0
,-4.011123,5.30185,node/5057165424,Ex-pharmacie Mockey,0
,-4.0039817,5.3369029,node/5057297311,Carrefour St Jean,0
,-3.9933116,5.4158258,node/5068855021,Terminus 704 abobo Belleville,0
,-3.940785,5.328322,node/5143730222,Terminus M'pouto - CIAD,0
,-3.9410686,5.3284442,node/5143751833,Terminus M'pouto - CIAD,0
,-4.0711802,5.3437686,node/5281604034,[Arret sans nom],0
,-4.0374018,5.3078259,node/5390465849,Gare lagunaire Aqualines Yopougon,0
,-4.0205264,5.3555889,node/5414376221,Stif,0
,-4.0623618,5.3415133,node/5739489700,Complexe sportif de Yopougon,0
,-4.073208,5.3493427,node/5927302128,Figayo,0
,-4.1003513,5.3419897,node/5934409413,Arrêt,0
,-4.1020437,5.3671401,node/5936892363,Yopougon Gesco - Terminus du bus 34,0
,-3.967352,5.3802448,node/5953580661,Pharmacie Val de Grace,0
,-3.9593077,5.3618751,node/5953580667,Carrefour Palmeraie,0
,-3.9643623,5.3582581,node/5953580668,Station Shell Riviera 3,0
,-3.9498433,5.3286164,node/5954541435,CIAD,0
,-3.9902179,5.3347766,node/5954541439,Boulevard de France,0
,-4.0024723,5.3492831,node/5954541440,Carrefour de la Vie,0
,-3.991548,5.3989296,node/5957239662,Carrefour 22ème,0
,-3.9931428,5.3855754,node/5957239663,Carrefour Opéra,0
,-3.9975968,5.3615936,node/5957239665,ENA,0
,-4.0050058,5.328578,node/5957239666,Hotel Ivoire,0
,-3.9860303,5.3975314,node/5958266385,Pharmacie Les Laureades,0
,-3.9881294,5.3806539,node/5958266386,Petro Ivoire 7è Tranche,0
,-3.9845519,5.373758,node/5958266387,Commisariat 30è Art.,0
,-3.9813021,5.3701109,node/5958266388,Terminus 202 Attoban,0
,-3.9797109,5.3673274,node/5958266389,Parmacie St Bernard,0
,-3.9782153,5.3573659,node/5958266390,Pharmacie St Ange,0
,-3.9779596,5.3558222,node/5958266391,Collège André Malraux,0
,-3.9773239,5.3541895,node/5958266392,Riviera 2,0
,-4.0207447,5.3247785,node/6098848385,Saint Paul Plateau,0
,-4.0205509,5.3238162,node/6136850508,Hôtel de Ville,0
,-4.0205339,5.3234932,node/6136850509,Hotel de Ville,0
,-4.0205256,5.3226907,node/6136858285,Terminus Hotel de Ville,0
,-4.021322,5.3317403,node/6195348341,Cathédrale Saint paul,0
,-4.0333199,5.4148488,node/6281030720,Terminus bus 51/52,0
,-4.0144508,5.4351428,node/6474137921,Gare Abobo Sogephia,0
,-4.0125419,5.4364247,node/6474137923,BICICI,0
,-4.0147435,5.4382745,node/6474137925,Cours Sociaux,0
,-4.019424,5.4381179,node/6474137927,Avenue Kaza,0
,-4.0202491,5.4355472,node/6474137929,Camp Commando,0
,-4.0200922,5.4306474,node/6474137931,Station Shell,0
,-4.0198488,5.4263959,node/6474137932,Gendarmerie Abobo,0
,-4.0187446,5.4234101,node/6474137934,Terminus Gendarmerie Abobo,0
,-4.0166455,5.4171616,node/6474137936,2ème Arrêt,0
,-4.015971,5.4131456,node/6474137938,Banco,0
,-4.0160152,5.4089746,node/6474137940,Anador,0
,-4.0207427,5.392647,node/6474137942,Université Nangui Abrogoua,0
,-4.0255918,5.3774907,node/6474137944,Macaci,0
,-4.027655,5.3592442,node/6474137946,Gare Nord,0
,-4.0274455,5.3591608,node/6474137948,Gare Nord,0
,-4.0257671,5.3533564,node/6474137950,Grande Mosquée Adjamé,0
,-4.0256668,5.347769,node/6474137952,Foire de Chine,0
,-4.0259753,5.3431984,node/6474137954,Mairie d'Adjamé,0
,-4.0238205,5.3312372,node/6474137956,Terminus tours Administratives,0
,-4.0238801,5.3278045,node/6474137958,Immeuble Sogefiha,0
,-4.0181049,5.3145043,node/6474137967,Gare Sud,0
,-4.019718,5.3179651,node/6474137979,Présidence,0
,-4.0197472,5.3225013,node/6474137980,Galerie du Parc,0
,-4.0247204,5.3339569,node/6474137981,Camp Galliéni,0
,-4.026107,5.3386571,node/6474137982,Institut National de la Santé Publique,0
,-4.0260496,5.343713,node/6474137983,Mairie d'Adjamé,0
,-4.0258452,5.3459921,node/6474137984,Marché Forum,0
,-4.0255664,5.3503682,node/6474138985,Pharmacie du Banco,0
,-4.0259071,5.3534527,node/6474138986,Grande Mosquée Adjamé,0
,-4.028099,5.3586829,node/6474138987,Gare Nord,0
,-4.0263861,5.3765774,node/6474138988,Macaci,0
,-4.021035,5.3906844,node/6474138989,Filtisac,0
,-4.0162969,5.4085961,node/6474138990,Anador,0
,-4.0162419,5.4135848,node/6474138991,Banco,0
,-4.0173344,5.4183764,node/6474138992,Saint-Joseph 2ème Arrêt,0
,-4.0190818,5.4237125,node/6474138993,Terminus Gendarmerie Abobo,0
,-4.020231,5.4315506,node/6474138994,Bar Ivoire Abobo,0
,-4.0203886,5.4363436,node/6474138995,DGI Abobo,0
,-4.0189201,5.4382274,node/6474138996,Avenue Kaza,0
,-4.0138587,5.4383936,node/6474138997,Carrefour Akeïkoi,0
,-4.0190673,5.3149589,node/6474138999,Terminus Gare Sud,0
,-4.0127537,5.4350792,node/6474139031,Cité Universitaire Abobo,0
,-4.0154322,5.4354761,node/6474139033,Quai 15,0
,-3.9641507,5.3580852,node/6815808830,Station Shell Riviera 3,0
,-3.9591336,5.3620442,node/6815808831,Carrefour Palmeraie,0
,-3.9744202,5.3865761,node/6815808833,CNPS 9ème Tranche,0
,-3.9780418,5.4010646,node/6815808834,Marché COCOVICO,0
,-3.9618125,5.3738506,node/6815808839,Quick Market,0
,-3.9618581,5.3737728,node/6815808840,Quick Market,0
,-3.9635563,5.3776142,node/6815808842,Commissariat 35è Art.,0
,-3.9745308,5.3866021,node/6815808843,CNPS 9ème Tranche,0
,-3.9781939,5.4010482,node/6815808844,Marché COCOVICO,0
,-3.9587098,5.3698807,node/6815808845,Pharmacie du bonheur,0
,-3.9725319,5.383206,node/6815808846,Groupe Scolaire St Marc,0
,-3.9692172,5.282599,node/6819328985,Camp Commando de Koumassi,0
,-3.9707407,5.2892136,node/6819329085,Grand carrefour de Koumassi,0
,-3.9741109,5.2921087,node/6819329086,Hôtel Ibis Marcory,0
,-3.973691,5.2916293,node/6819329185,Hôtel Ibis Marcory,0
,-3.9897184,5.3008419,node/6819329285,Chimtec Grand carrefour Marcory,0
,-3.9767155,5.335819,node/6820855646,Ambassade des USA,0
,-3.9728877,5.3309825,node/6820855647,Hotel du Golf,0
,-3.9730064,5.3310297,node/6820855648,Hotel du Golf,0
,-3.9579229,5.3312498,node/6820855649,Ex Terminus Sotra;Carrefour Sol Beni,0
,-4.021605,5.332764,node/6831076677,Cathédrale Saint paul,0
,-4.0205671,5.3299678,node/6831076678,Église Méthodiste Unie de Côte d'Ivoire,0
,-4.0185085,5.3148704,node/6831076682,Gare Sud,0
,-3.9867521,5.2988832,node/6832290086,Cap Sud,0
,-4.0022393,5.2996481,node/6899034705,Gare de bassam,0
,-3.9997862,5.3004143,node/6899034706,Gendarmerie,0
,-4.0037983,5.303315,node/6899034707,Notre-dame,0
,-4.005186,5.3072484,node/6899034708,Pharmacie Nanan Yamousso,0
,-4.0061407,5.3099574,node/6899034709,Après le pont,0
,-4.0160603,5.3534116,node/6899034710,Adjamé liberté,0
,-4.014858,5.3534437,node/6899053345,Adjamé liberté,0
,-4.0120307,5.3535364,node/6899053346,Gare de Bingerville,0
,-4.0152949,5.325075,node/6899053347,Feux du plateau,0
,-4.0061218,5.3101491,node/6899053348,Nanan Yamousso,0
,-4.0024275,5.2996797,node/6899053349,Gare de bassam,0
,-4.0174383,5.4200067,node/6899241573,Abobo Gare Mairie,0
,-4.0159818,5.4143755,node/6899241574,Mobil,0
,-4.0215029,5.3846161,node/6899241575,Lavage,0
,-4.0257575,5.37725,node/6899241576,Macaci,0
,-4.0164004,5.3543459,node/6899241577,Adjamé Liberté,0
,-4.0212174,5.349107,node/6899264970,Marché Gouro,0
,-4.0163905,5.3547097,node/6899264971,Adjamé Liberté,0
,-4.016791,5.358734,node/6899264972,Station Total,0
,-4.0171184,5.4215493,node/6899264973,Abobo Gare Mairie,0
,-4.0153363,5.4195759,node/6902638988,Carrefour Marché,0
,-4.0135168,5.4186048,node/6902638989,Petro Ivoire,0
,-4.0101975,5.4168519,node/6902638990,Au Bar,0
,-4.0080786,5.4157998,node/6902638991,Petit Carrefour,0
,-4.0066972,5.4152517,node/6902638992,Samaké,0
,-4.0064894,5.3994804,node/6902638993,Azur,0
,-4.0070352,5.3780522,node/6902638994,Panneau ZOO,0
,-4.0157753,5.4197843,node/6902638995,Abobo Gare Mairie,0
,-4.0117095,5.4176548,node/6902638996,Ciné Cool,0
,-4.0062697,5.4144283,node/6902638997,Boulangerie Samake,0
,-4.0062877,5.410863,node/6902638998,Menuiserie,0
,-4.0063067,5.4101067,node/6902638999,Tchapatcha,0
,-4.0063409,5.4092677,node/6902639000,Chaine Avion,0
,-4.0063993,5.4051188,node/6902639001,Pharmacie Dokui,0
,-4.0064176,5.4036347,node/6902639002,SODECI,0
,-4.0064567,5.4020967,node/6902639003,Étage Noir,0
,-4.0064867,5.4001879,node/6902639004,Mobil,0
,-4.006353,5.3968179,node/6902639005,Arrêt Dokui,0
,-4.005793,5.3929293,node/6902639006,Ancien Feu,0
,-4.005732,5.3872276,node/6902639007,Bangui,0
,-4.0060126,5.3851864,node/6902639008,Vidange,0
,-4.0063262,5.382931,node/6902639009,HMA,0
,-4.0118134,5.3721147,node/6902639010,Carrefour paillet,0
,-4.0157876,5.3653117,node/6902639011,Carrefour 2 Plateaux,0
,-4.0160705,5.3553627,node/6902639012,Gare des gbakas d’Abobo par le zoo,0
,-4.0136214,5.4184847,node/6902868224,Petro Ivoire,0
,-4.0120067,5.4176463,node/6902868225,Ciné Cool,0
,-4.0102981,5.4167077,node/6902868226,Au Bar,0
,-4.0065403,5.4051935,node/6902868227,Pharmacie Dokui,0
,-4.0065873,5.4036701,node/6902868228,SODECI,0
,-4.0066315,5.40212,node/6902868229,Étage Noir,0
,-4.0066597,5.4002027,node/6902868230,Mobil,0
,-4.0066034,5.3994577,node/6902868231,Azur,0
,-4.0064518,5.3965911,node/6902868232,Arrêt Dokui,0
,-4.0059301,5.3928327,node/6902868233,Ancien Feu,0
,-4.005859,5.387253,node/6902868234,Bangui,0
,-4.0061326,5.3852715,node/6902868235,Vidange,0
,-4.0064505,5.3829176,node/6902868236,HMA,0
,-4.0122239,5.3716859,node/6902868237,Carrefour paillet,0
,-4.0159576,5.365405,node/6902868238,Carrefour 2 Plateaux,0
,-4.0168128,5.3633371,node/6902868239,Willy Agban,0
,-4.0152077,5.3668297,node/6902868240,Cimetière,0
,-4.0094557,5.3765337,node/6902868241,CIE,0
,-4.0070149,5.3789939,node/6902868242,ZOO,0
,-4.0056173,5.3900553,node/6902868243,Eglise,0
,-4.0099567,5.41329,node/6902868244,Pharmacie Racines,0
,-4.0160257,5.4197639,node/6902868245,Abobo Gare Mairie,0
,-4.0135154,5.4500232,node/6902975747,Christine Bar,0
,-4.0109926,5.4607326,node/6902975748,Terminus Akéikoi village,0
,-4.0107733,5.45899,node/6902975749,A l'école,0
,-4.0112928,5.455207,node/6902975750,Destin,0
,-4.0119566,5.4542173,node/6902975751,Monnaie,0
,-4.0128592,5.4528753,node/6902975752,André Bar,0
,-4.0133357,5.4510493,node/6902975753,Carrefour marché,0
,-4.0143571,5.446249,node/6902975754,A l'étage,0
,-4.0141843,5.4394513,node/6902975755,Boulangerie,0
,-4.0140378,5.4384053,node/6902975756,Carrefour Akéikoi,0
,-4.0161726,5.4225885,node/6902975757,Gare Gbaka Akeïkoi,0
,-4.0134484,5.4510779,node/6903084141,Carrefour marché,0
,-4.0129173,5.4530404,node/6903084142,André Bar,0
,-4.0120751,5.4542793,node/6903084143,Monnaie,0
,-4.0142825,5.438503,node/6903097494,Au goudron,0
,-4.0160694,5.4227551,node/6903097495,Gare Abobo,0
,-4.013945,5.4230451,node/6903097496,Au tournant,0
,-4.0146817,5.4278782,node/6903097497,Au Feu,0
,-4.0124107,5.433455,node/6903097498,Célibataire,0
,-4.0124925,5.4352003,node/6903097499,JAUG,0
,-4.0135883,5.4383233,node/6903097500,Cité,0
,-4.0138345,5.449017,node/6903097501,Boulangerie,0
,-4.0136722,5.4500084,node/6903097502,Christine Bar,0
,-4.01134,5.4552984,node/6903097503,Destin,0
,-4.0109968,5.4594779,node/6903097504,A l'ecole,0
,-4.0111868,5.460775,node/6903097505,Terminus Akéikoi Village,0
,-4.0144891,5.4429021,node/6903193216,Mosquée,0
,-4.0144891,5.4463091,node/6903193217,A l'étage,0
,-4.0165181,5.42194,node/6903268819,Abobo Gare Mairie,0
,-4.0163197,5.4223082,node/6903268820,Gare Abobo Kennedy-Marché/ Mosquée Ado,0
,-4.0100057,5.4211585,node/6903268821,Station,0
,-4.0015221,5.4236887,node/6903268822,Kennedy Marché,0
,-4.011717,5.4221255,node/6903296476,Mosquée,0
,-4.0060106,5.4186623,node/6903296477,Carrefour Kennedy,0
,-4.0059221,5.4186129,node/6903296478,Carrefour Kennedy,0
,-4.0039185,5.4213432,node/6903296479,Makan Traoré,0
,-4.0015453,5.4236156,node/6903296480,Au marché,0
,-4.0021714,5.423623,node/6903296481,A Gauche,0
,-4.0037249,5.4214359,node/6903296482,Makan Traoré,0
,-3.9324706,5.3286546,node/6903347574,Cocody Riviera M'badon,0
,-3.9332267,5.3293417,node/6903347575,Nouveau marché,0
,-3.9339946,5.329969,node/6903347576,Ancien marché,0
,-3.9350317,5.3307517,node/6903347577,Centre de santé Municipal de M'Badon,0
,-3.9352626,5.331008,node/6903347578,La ferme,0
,-3.9393933,5.3353839,node/6903347579,Pharmacie,0
,-3.9427407,5.3384154,node/6903347580,2 poteaux,0
,-3.945032,5.339948,node/6903347581,Antenne,0
,-3.9457017,5.345935,node/6903347582,Carrefour Akouédo,0
,-3.9471733,5.3461517,node/6903347583,École,0
,-3.9505483,5.3458217,node/6903347584,2ème rond-point,0
,-4.0227501,5.3503568,node/6903370485,Gare en haut,0
,-4.0100339,5.4210882,node/6903374200,Station,0
,-4.00729,5.4196516,node/6903374201,Immeuble Cercueil,0
,-4.0074563,5.4195595,node/6903374202,Immeuble Cercueil,0
,-3.9978515,5.4234508,node/6903397403,Terminus mosquée Ado Kenedy,0
,-3.9978489,5.4215774,node/6903397404,A l'école,0
,-3.9979409,5.4198617,node/6903397405,[Arret sans nom],0
,-3.9980283,5.4185867,node/6903397406,Dahico,0
,-3.9992242,5.4157689,node/6903397407,Étage Noir,0
,-4.0059533,5.415578,node/6903406997,Samake,0
,-4.0037419,5.4156671,node/6903406998,Eglise,0
,-4.0037763,5.415458,node/6903504058,Eglise,0
,-4.0007226,5.4155835,node/6903504059,Monastère,0
,-4.0008192,5.415434,node/6903504060,Monastère,0
,-3.999403,5.4157731,node/6903504061,Étage Noir,0
,-3.9981732,5.4185995,node/6903504062,Dahico,0
,-4.0272132,5.4339087,node/6903525051,Hôtel du centre,0
,-4.0337387,5.437375,node/6903525052,A la Pompe,0
,-4.0360617,5.4377181,node/6903525053,Dépôt,0
,-4.0444772,5.4390697,node/6903525054,Anokoi,0
,-4.0444823,5.439303,node/6903525055,Anokoi,0
,-4.0479148,5.4422211,node/6903525056,Marahoué,0
,-4.0487972,5.4439581,node/6903525057,Agripac,0
,-4.0509604,5.447775,node/6903525058,Terminus,0
,-4.0508555,5.4479797,node/6903525059,Terminus,0
,-4.0489498,5.4446545,node/6903525060,Agripac,0
,-4.0477433,5.4425017,node/6903525061,Marahoué,0
,-4.0360937,5.4379717,node/6903525062,Dépôt,0
,-4.033852,5.4376377,node/6903525063,A la Pompe,0
,-4.030245,5.4367133,node/6903525064,Marché de Nuit,0
,-4.026894,5.4340417,node/6903525065,Hôtel du centre,0
,-4.018191,5.4217034,node/6903525066,Abobo Gare,0
,-4.0206447,5.3489387,node/6903535584,Complexe,0
,-4.0224464,5.350348,node/6903544086,Gare en haut,0
,-4.0180948,5.3481387,node/6903544087,Maternité,0
,-4.014163,5.3521055,node/6903544088,Adjamé Liberté,0
,-4.0029137,5.3547793,node/6903544089,2ème pont,0
,-3.9339759,5.3301187,node/6903544090,Marché,0
,-4.0203577,5.4263231,node/6903602207,Gendarmerie,0
,-4.0233336,5.4298704,node/6903602208,Mosquée Blanche,0
,-4.0262471,5.4332219,node/6903602209,Solibra,0
,-4.0288774,5.4359152,node/6903602210,Château,0
,-4.0383071,5.4383388,node/6903602211,A l'escalier,0
,-4.0521369,5.4497913,node/6903602212,PK 18 ancien marché,0
,-4.0184916,5.4220421,node/6903602213,Gare abobo,0
,-4.0204342,5.4260466,node/6903602214,Gendarmerie,0
,-4.0208376,5.426524,node/6903602215,Gendarmerie Avant le Feu,0
,-4.0236152,5.4297276,node/6903602216,Mosquée Blanche,0
,-4.0264367,5.4330817,node/6903602217,Solibra,0
,-4.0290698,5.4357519,node/6903602218,Château,0
,-4.0306363,5.4365893,node/6903602219,Marché de Nuit,0
,-4.0384581,5.4380495,node/6903602220,A l'escalier,0
,-4.0411411,5.4382834,node/6903602221,Nouvelle Gare,0
,-4.0493193,5.4448006,node/6903602222,Agripac Avant le Feu,0
,-4.0520966,5.4493883,node/6903602223,Station Total,0
,-4.052542,5.4499639,node/6903602224,PK 18 ancien marché,0
,-3.9761316,5.370557,node/6903639366,Attoban camp,0
,-3.9776678,5.3694267,node/6903639367,Escalier,0
,-3.9794185,5.3673899,node/6903639368,Pharmacie Saint Bernard,0
,-3.9793174,5.3658448,node/6903639369,Carrefour Garage,0
,-3.9792552,5.365069,node/6903639370,Polyclinique Sacré-Coeur,0
,-3.9790994,5.3642087,node/6903639371,Jules ferry,0
,-3.9788028,5.362115,node/6903639372,Hôtel Manhatan,0
,-3.978316,5.3589924,node/6903639373,Doraville,0
,-3.9780678,5.3571667,node/6903639374,Pharmacie Saint ange,0
,-3.9777617,5.356275,node/6903639375,André Malraux,0
,-4.0228251,5.3505392,node/6903639376,Gare en haut,0
,-3.9796695,5.3672689,node/6903968407,Pharmacie Saint Bernard,0
,-3.9794498,5.3655779,node/6903968408,Carrefour garage,0
,-4.0345833,5.343795,node/6904171063,Attécoubé Terminus 04,0
,-4.0345467,5.346448,node/6904171064,[Arret sans nom],0
,-4.033957,5.3490624,node/6904171065,Marché,0
,-4.032333,5.3501257,node/6904171066,Station Afriquia,0
,-4.0328135,5.3524283,node/6904171067,Carrefour Attecoubé,0
,-4.0309717,5.3574167,node/6904171068,[Arret sans nom],0
,-4.0254169,5.3513557,node/6904171070,Arrêt,0
,-4.0261722,5.3412757,node/6904171071,Adjamé Santé,0
,-4.025807,5.3381159,node/6904171072,Institut National de la Santé Publique,0
,-4.0230192,5.3318344,node/6904171073,Arrêts tours Administratives,0
,-4.0206008,5.3266073,node/6904171074,Cité financière Plateau,0
,-4.0196512,5.3237991,node/6904171075,SIB Alpha 2000,0
,-4.0196681,5.3206169,node/6904171076,Primature,0
,-4.0157481,5.3089287,node/6904171077,Résidence Cheick Yacouba Sylla,0
,-4.0142576,5.3094876,node/6904171078,Marché Treichville,0
,-4.0099697,5.3109791,node/6904171079,[Arret sans nom],0
,-4.006092,5.3126563,node/6904171080,Biafra,0
,-3.9933399,5.3076251,node/6904171081,Banque Atlantique,0
,-3.9888629,5.3052787,node/6904171082,Hôtel Hamanieh,0
,-3.9869873,5.3043423,node/6904171083,Sainte Thérèse,0
,-3.9858381,5.3064581,node/6904171084,Commissariat du 9 ème,0
,-3.9839517,5.3088083,node/6904188585,Gare Marcory,0
,-4.0281877,5.3589119,node/6905326498,Gare Nord,0
,-4.0307925,5.4366266,node/6905326503,Château,0
,-4.0219308,5.3843543,node/6905344262,Préfecture de Police,0
,-4.0351608,5.4375564,node/6905344263,Arrêt Centre Bus,0
,-4.0390169,5.4384645,node/6905344264,Terminus 45 À l'escalier,0
,-4.0351391,5.4378844,node/6905344265,Arrêt Centre Bus,0
,-4.0299554,5.4365245,node/6905344266,Château,0
,-4.0259685,5.4328931,node/6905344267,Arrêt,0
,-4.0222108,5.4284112,node/6905344268,Gendarmerie,0
,-4.0219627,5.3836534,node/6905344273,Préfecture de Police,0
,-4.0225102,5.4284566,node/6905553518,Gendarmerie,0
,-4.0261674,5.4327155,node/6905553519,[Arret sans nom],0
,-4.0256884,5.3485701,node/6905719605,Foire de Chine,0
,-4.0206943,5.3299376,node/6905719606,Église Méthodiste Unie de Côte d'Ivoire,0
,-4.0201163,5.3251345,node/6905719607,60 logements Plateau,0
,-4.0177138,5.3087867,node/6905719608,Hôpital du port,0
,-4.0148424,5.3097288,node/6905719609,Maison du Congres,0
,-4.0116929,5.3073425,node/6905719610,Pharmacie du Rond-point,0
,-4.0069793,5.3090218,node/6905719611,[Arret sans nom],0
,-4.005442,5.3080275,node/6905719612,Nanan Yamousso,0
,-4.0043543,5.3048828,node/6905719613,Paroisse Notre-Dame de Treichville,0
,-4.0015648,5.3045623,node/6905719614,Pharmacie de l'Entente,0
,-3.998829,5.3055251,node/6905719615,Marché de Belleville,0
,-3.9931172,5.3075214,node/6905719616,Banque Atlantique,0
,-3.9887868,5.3049722,node/6905719617,Hôtel Hamanieh,0
,-3.986118,5.3055778,node/6905719618,Commissariat du 9éme,0
,-3.9847286,5.308097,node/6905719619,Station Shell,0
,-4.0284151,5.3584965,node/6905719620,[Arret sans nom],0
,-4.0304951,5.357702,node/6905719621,[Arret sans nom],0
,-4.0321715,5.3515438,node/6905719622,Carrefour Attecoubé,0
,-4.03386,5.3489601,node/6905719623,Banque Atlantique,0
,-4.0344246,5.3471108,node/6905719624,Commissariat du 10ᵉ arrondissement,0
,-4.0344802,5.3437946,node/6905719625,Attécoubé Terminus 04,0
,-4.0219475,5.3251603,node/6905772459,Saint Paul,0
,-4.0239746,5.3282245,node/6905772460,Immeuble Sogephia Hévéa,0
,-4.0245113,5.3337809,node/6905772461,Musée du Plateau,0
,-4.0160546,5.4383593,node/6905772466,Cours Sociaux,0
,-4.0275686,5.3590397,node/6905842305,Gare Nord,0
,-4.0224693,5.3252327,node/6905842307,Long Champs,0
,-3.9560075,5.293902,node/6906463287,Gare Koumassi,0
,-3.9602508,5.2928524,node/6906463288,Pharmacie Ehilie,0
,-3.966735,5.2913568,node/6906463289,Mosquée,0
,-3.980944,5.2956714,node/6906463290,Échangeur de Marcory,0
,-3.98845,5.2998527,node/6906463291,Grand carrefour Marcory,0
,-3.9976917,5.2998184,node/6906463292,Collège Moderne Autoroute,0
,-4.0026734,5.2999823,node/6906463293,Gare de Bassam,0
,-4.003273,5.3018099,node/6906463294,Ecobank,0
,-4.0155251,5.3534012,node/6906463296,Adjamé Liberté,0
,-4.0124238,5.4365892,node/6906507833,BICICI,0
,-4.0164467,5.3546594,node/6906575629,Adjamé - Liberté,0
,-4.0169033,5.3631417,node/6906575630,Williams-Ville,0
,-4.0157829,5.3658197,node/6906575631,Carrefour 2 plateaux,0
,-4.0156117,5.3662557,node/6906575632,[Arret sans nom],0
,-4.0122293,5.3716139,node/6906575633,Paillet,0
,-4.0112578,5.374069,node/6906575634,[Arret sans nom],0
,-4.005605,5.3898833,node/6906575635,[Arret sans nom],0
,-4.0065311,5.4045622,node/6906575636,[Arret sans nom],0
,-4.0064187,5.4113412,node/6906575637,[Arret sans nom],0
,-4.0064133,5.4126483,node/6906575638,ANADER,0
,-4.0064263,5.4148754,node/6906590689,Samake,0
,-4.0068417,5.41527,node/6906590691,Samake,0
,-4.0063152,5.4101483,node/6906590692,Chaîne avion,0
,-4.0063867,5.4073533,node/6906590693,1ere Boutique,0
,-4.0155634,5.3659384,node/6906590694,Carrefour 2 plateaux,0
,-4.0162927,5.3546002,node/6906590695,Adajmé Liberté,0
,-4.015528,5.35345,node/6906596960,Adjamé Liberté,0
,-4.0060884,5.3100359,node/6906596961,Nanan Yamousso,0
,-4.0044435,5.3054677,node/6906596962,Karwil,0
,-4.0036369,5.3031308,node/6906596963,Notre-dame,0
,-4.0026404,5.3003893,node/6906596964,Gare de Bassam,0
,-3.9983918,5.2998444,node/6906596965,Collège Moderne Autoroute,0
,-3.9859637,5.2987234,node/6906596966,Cap Sud,0
,-3.981013,5.2959351,node/6906596967,Échangeur Marcory,0
,-3.9675638,5.2912433,node/6906596968,Auto-école,0
,-3.964494,5.2919737,node/6906596969,Arrêt,0
,-3.9610541,5.292783,node/6906596970,Boulangerie,0
,-4.0069936,5.3790616,node/6906699462,ZOO,0
,-4.0065336,5.4074152,node/6906699463,1ere Boutique,0
,-4.0116794,5.3723989,node/6906699464,Paillet,0
,-4.0054621,5.3898979,node/6906699465,[Arret sans nom],0
,-4.0065122,5.3967647,node/6906699466,Arrêt Dokui,0
,-4.0063445,5.3968689,node/6906699467,Arrêt Dokui,0
,-4.0062842,5.4121402,node/6906699468,ANADER,0
,-4.0106347,5.4169293,node/6906699469,[Arret sans nom],0
,-4.0106159,5.4170815,node/6906699470,[Arret sans nom],0
,-4.0159368,5.4197017,node/6906699471,Abobo Mairie,0
,-4.0156192,5.4197512,node/6906699472,Abobo Mairie,0
,-4.0235294,5.3675641,node/6907121506,Gare Williamsville,0
,-4.0207037,5.3658243,node/6907121507,Mosquée,0
,-4.0189161,5.3643529,node/6907121508,Croix Bleue,0
,-4.0160715,5.3576606,node/6907121509,Agban avant le pont,0
,-4.0169929,5.3501391,node/6907121510,Pharmacie le Belier,0
,-4.0230855,5.3417336,node/6907121511,Indenié,0
,-4.018503,5.3220152,node/6907121512,Mairie du Plateau,0
,-4.0170059,5.3219502,node/6907121513,Institut Français,0
,-4.0144649,5.3195012,node/6907121514,CNPS,0
,-3.984068,5.3088742,node/6907121515,Gare Marcory,0
,-4.0033579,5.342209,node/6907141795,RTI,0
,-4.0029046,5.3459837,node/6907141796,Archibat,0
,-4.0007897,5.3356901,node/6907141797,Marché de Cocody,0
,-4.0021679,5.3232894,node/6907141798,Gare Blockauss,0
,-4.0013589,5.3278237,node/6907141799,Banque Mondiale,0
,-4.0007635,5.3355267,node/6907141800,Marché de Cocody,0
,-4.0038072,5.3384172,node/6907141801,CIE,0
,-4.0021657,5.351632,node/6907141802,Palm Club,0
,-4.0274511,5.3587491,node/6907141803,Gare Nord,0
,-4.0180323,5.3543654,node/6907147644,Texaco,0
,-4.0101289,5.3478735,node/6907147645,Pont lycée technique,0
,-4.0038018,5.3442806,node/6907147646,SODEMI,0
,-4.0033259,5.3404792,node/6907147647,Sgbci,0
,-3.9999757,5.336444,node/6907147648,Marché de Cocody,0
,-4.0003179,5.3334363,node/6907147649,PMI,0
,-4.00118,5.3280617,node/6907147650,Banque mondiale,0
,-4.0020444,5.323287,node/6907147651,Gare Blockauss,0
,-4.0168481,5.3528511,node/6907154300,Boulangerie Top baquette,0
,-4.017115,5.3472669,node/6907154301,220 logements,0
,-4.0273707,5.3589598,node/6907157792,Gare Nord,0
,-4.0213836,5.3559786,node/6907157793,Renault,0
,-4.0158064,5.3534802,node/6907157794,Adjamé Liberté,0
,-4.000587,5.339615,node/6907157795,CERAP - INADES,0
,-3.9946557,5.3464621,node/6908599212,Gare Campus Cocody,0
,-4.0013186,5.343718,node/6908599213,ISTC,0
,-4.0153091,5.4354972,node/6908599215,Quai 49,0
,-3.9968976,5.3456864,node/6908618074,INSAAC,0
,-4.016795,5.427395,node/6908618077,EPV Konaté,0
,-4.0147611,5.4286546,node/6908618078,Lycée Moderne d'Abobo,0
,-4.012329,5.4339703,node/6908728765,[Arret sans nom],0
,-4.013431,5.432656,node/6908728766,[Arret sans nom],0
,-4.0162121,5.4273213,node/6908728767,[Arret sans nom],0
,-4.0008199,5.343821,node/6908728771,ISTC,0
,-3.9937238,5.3462119,node/6908728772,Gare Campus Cocody,0
,-4.0147361,5.43182,node/6908782549,[Arret sans nom],0
,-4.014638,5.429723,node/6908782550,[Arret sans nom],0
,-3.9978676,5.3450487,node/6908782552,Cité des Arts,0
,-3.993895,5.3466283,node/6908782553,université méthodiste de Côte D'Ivoire,0
,-4.0160582,5.357415,node/6908914485,[Arret sans nom],0
,-4.0171632,5.3491257,node/6908914486,Cours socio éducatif,0
,-3.9996571,5.3082112,node/6908914487,Piscine d’État de Treichville,0
,-3.9839441,5.3090397,node/6908914488,Gare Marcory,0
,-4.0161239,5.3555536,node/6908914489,Boulangerie Top Qualité,0
,-4.0170747,5.3513262,node/6908914490,Liberté,0
,-4.0170975,5.3503722,node/6908914491,Pharmacie le Belier,0
,-4.0230188,5.3418097,node/6908914492,Indenié,0
,-4.025647,5.3421743,node/6908914493,Banque SIB,0
,-4.0183783,5.321186,node/6908914494,Bicici plateau,0
,-4.0167837,5.321624,node/6908914495,Pyramide,0
,-4.0145266,5.3184312,node/6908914496,Siège Moov,0
,-4.0188664,5.3641726,node/6908914498,Croix Bleue,0
,-4.0202826,5.3653249,node/6908914499,Infirmerie Sinikeya,0
,-4.0235066,5.3670874,node/6908914500,Gare Williamsville,0
,-4.0318263,5.3589877,node/6909039462,Petro Ivoire,0
,-4.0257324,5.3468603,node/6909039464,Pharmacie Sainte Marie,0
,-4.0159526,5.3080247,node/6909039468,Cité Policière,0
,-4.0046789,5.2958623,node/6909039469,CHU,0
,-3.9984496,5.2927793,node/6909039470,PTT Km4,0
,-3.9957435,5.2914467,node/6909039471,Pharmacie Santé Publique,0
,-4.0375583,5.3585383,node/6909108442,Terminus Cité Fairmont,0
,-4.0149536,5.305135,node/6909108450,arrêt,0
,-3.9902017,5.29123,node/6909108451,Services Techniques du District,0
,-3.9840127,5.3088407,node/6909121487,Gare Marcory,0
,-4.0074831,5.2971256,node/6909208699,Parc des Sports,0
,-3.990781,5.2895393,node/6909208700,"SIYOA, Boulevard de Marseille",0
,-4.0724972,5.36188,node/6909225529,[Arret sans nom],0
,-4.0745652,5.3647534,node/6909225530,[Arret sans nom],0
,-4.0961792,5.3727101,node/6909225533,[Arret sans nom],0
,-4.0895635,5.3742257,node/6909225534,[Arret sans nom],0
,-4.0867558,5.372722,node/6909225535,Nestlé,0
,-4.0781781,5.3745633,node/6909225536,Arrêt,0
,-4.0796923,5.3703887,node/6909225537,[Arret sans nom],0
,-4.0786743,5.3683786,node/6909225538,[Arret sans nom],0
,-4.0761986,5.3670367,node/6909225539,Direction de la Sotra,0
,-4.0736157,5.3628133,node/6909225540,[Arret sans nom],0
,-4.0702482,5.3612471,node/6909225541,[Arret sans nom],0
,-4.0678704,5.3623019,node/6909225542,Lycée Moderne Yopougon Andokoi,0
,-4.0667894,5.3615148,node/6909225543,Centre Ivoire Couture,0
,-4.0278578,5.3585831,node/6909225544,Gare Nord,0
,-4.0183049,5.3146893,node/6909225545,Gare Sud,0
,-4.0033954,5.2948194,node/6909237619,CHU Treichville,0
,-3.9881326,5.301827,node/6909237622,Délices de France,0
,-3.9900511,5.2913004,node/6909237623,Services Techniques du District,0
,-3.9994307,5.2931333,node/6909237624,PTT Km4,0
,-4.0141223,5.3023437,node/6909237625,Quincaillerie Générale,0
,-4.0150089,5.3049356,node/6909237626,Arrêt,0
,-4.0161832,5.308109,node/6909237627,Cité Policière,0
,-4.0279602,5.3591167,node/6909237631,Gare Nord,0
,-4.0319963,5.358876,node/6909237632,Station Petro Ivoire,0
,-4.0364602,5.3582206,node/6909237633,Terminus 02 Cité Fairmont,0
,-4.094158,5.3765208,node/6909430718,[Arret sans nom],0
,-4.0668847,5.3618706,node/6909430720,Gare CTE,0
,-4.0678369,5.3621938,node/6909430721,Lycée Moderne Yopougon Andokoi,0
,-4.0710622,5.3607938,node/6909430722,Station Total,0
,-4.0736572,5.362382,node/6909430723,[Arret sans nom],0
,-4.0742996,5.365409,node/6909430724,[Arret sans nom],0
,-4.0764347,5.36707,node/6909430725,Direction de la Sotra,0
,-4.0788862,5.3683719,node/6909430726,[Arret sans nom],0
,-4.080222,5.3690582,node/6909430727,Station,0
,-4.0819788,5.3699698,node/6909430728,[Arret sans nom],0
,-4.0896792,5.3741086,node/6909430729,JOMACO,0
,-4.0958456,5.3741528,node/6909430730,Dépôt Yopougon zone Industrielle,0
,-3.9848298,5.2645534,node/6909521603,Hôpital Municipal,0
,-3.9834323,5.2632614,node/6909521604,Groupe Scolaire N'Sikan,0
,-3.9849267,5.257665,node/6909521605,CIE,0
,-3.9956283,5.2558751,node/6909521606,arrêt,0
,-3.9989162,5.26373,node/6909521607,Gestoci,0
,-4.0062621,5.2704314,node/6909521608,Pont de Vridi,0
,-4.0143099,5.2978357,node/6909521609,"Etablissements Rey, Port",0
,-4.0175241,5.3005436,node/6909521610,Sicodis,0
,-4.0231458,5.305037,node/6909521611,Terminus 32,0
,-4.0211629,5.3069377,node/6909521612,Grand Moulin Abidjan,0
,-4.0179278,5.3088247,node/6909521613,Hôpital du Pont,0
,-4.0117363,5.305655,node/6909521614,"Avenue 11, Rue 12, Treichville",0
,-4.0111588,5.3039938,node/6909521615,"Avenue 15, Rue 12, Treichville",0
,-4.0034158,5.3040254,node/6909521616,Paroisse Notre Dame,0
,-3.9987874,5.3056574,node/6909521617,Marché Belleville,0
,-3.9838718,5.3087649,node/6909521620,Gare Marcory,0
,-3.9871428,5.266603,node/6909546905,Vridi Cité - Terminus 53,0
,-3.9818252,5.259526,node/6909546906,Pharmacie Vridi Port,0
,-3.9892306,5.2571616,node/6909546907,Stade de la SIR,0
,-3.9978983,5.2588247,node/6909546908,Vridi-Iran,0
,-4.0031425,5.2676512,node/6909546909,"CPMA, Vridi",0
,-4.0085496,5.277976,node/6909546910,PALM-CI,0
,-4.0084685,5.2821643,node/6909546911,Bolloré,0
,-4.008455,5.2864977,node/6909546912,Siège SOTRA,0
,-4.008424,5.292271,node/6909546913,Arrêt,0
,-4.0131528,5.296841,node/6909546914,Ciment Bélier,0
,-4.0212547,5.3029759,node/6909546915,Port Autonome Abidjan,0
,-4.0149741,5.309804,node/6909546916,Maison du Congres,0
,-4.0050815,5.3059215,node/6909546917,Collège Bosco,0
,-4.1045,5.3226268,node/6909707221,Niangon Sud à droite,0
,-4.1057378,5.3233679,node/6909707223,Carrefour Académie,0
,-4.1059349,5.325714,node/6909707224,Caféier,0
,-4.1037691,5.3310513,node/6909707225,Lubafrique,0
,-4.1029765,5.3338915,node/6909707226,2ème arrêt ANADOR,0
,-4.1014047,5.3358784,node/6909707227,Carrefour Anador,0
,-4.1004632,5.3404237,node/6909707228,Pharmacie Cité Maroc,0
,-4.0892462,5.3407014,node/6909707229,CIE,0
,-4.0892456,5.3450164,node/6909707230,[Arret sans nom],0
,-4.0875008,5.3481316,node/6909707231,Grand Centre,0
,-4.0874934,5.3540742,node/6909707232,Port-Bouët II,0
,-4.0851103,5.3561104,node/6909707233,[Arret sans nom],0
,-4.0850901,5.3604209,node/6909707234,BAE,0
,-4.0277736,5.358951,node/6909707236,Gare Nord,0
,-4.0183735,5.3147518,node/6909707238,Gare Sud,0
,-4.0049374,5.3058324,node/6909737821,Feu du Collège Bosco,0
,-4.0120606,5.3062141,node/6909737822,"Avenue 10, Rue 12, Treichville",0
,-4.0211598,5.3067759,node/6909737824,Grand Moulin Abidjan,0
,-4.0217286,5.3033621,node/6909737825,Siège Port Autonome Abidjan,0
,-4.0095509,5.2945614,node/6909737826,Port Autonome Abidjan,0
,-4.0082981,5.2878677,node/6909737827,Siège SOTRA,0
,-4.0083516,5.2820277,node/6909737828,Bolloré,0
,-4.00841,5.2787,node/6909737829,Movis,0
,-4.0061063,5.2705271,node/6909737830,Pont de Vridi,0
,-4.0239378,5.3309411,node/6909812227,Cité Administrative,0
,-4.0849641,5.3572641,node/6909812228,Carrefour Zone,0
,-4.0867444,5.3552565,node/6909812229,[Arret sans nom],0
,-4.0880983,5.3469666,node/6909812230,Pharmacie Port-Bouët II,0
,-4.0891591,5.3453455,node/6909812231,[Arret sans nom],0
,-4.0974297,5.3400138,node/6909812232,Mosquée du Maroc,0
,-4.1003975,5.3401847,node/6909812233,Pharmacie Cité Maroc,0
,-4.1013081,5.335861,node/6909812234,Carrefour Anador,0
,-4.1037999,5.3305692,node/6909812235,Lubafrique,0
,-4.1051263,5.3273952,node/6909812236,[Arret sans nom],0
,-4.1058531,5.32569,node/6909812237,Caféier,0
,-4.1045248,5.3226401,node/6909812238,Niangon Sud à droite,0
,-4.0739979,5.3568101,node/6909923471,Siporex-Sicomex,0
,-4.0740046,5.3538004,node/6909923472,Siporex avant le feu,0
,-4.0732898,5.3448074,node/6909923473,William-Ponty,0
,-4.0732871,5.3388868,node/6909923474,Yopougon 16ème Advans,0
,-4.0733247,5.3326109,node/6909923475,Saguidiba,0
,-4.0735526,5.3297734,node/6909923477,Gare Yopougon Kouté,0
,-3.9936456,5.3463096,node/6910224899,Gare Campus Cocody,0
,-4.0738578,5.3297134,node/6910224902,Gare Yopougon Kouté,0
,-4.0735191,5.3315587,node/6910224905,Saguidiba,0
,-4.0734252,5.3344863,node/6910224906,Côte d'Ivoire-Telecom,0
,-4.0734096,5.338834,node/6910224907,Yopougon 16ème Advans,0
,-4.0734078,5.3418778,node/6910224908,Saint André lavage,0
,-4.0734038,5.345666,node/6910224909,William-Ponty,0
,-4.0741883,5.3540928,node/6910224910,Siporex après le feu,0
,-4.0741772,5.3566819,node/6910224911,Siporex-Sicomex,0
,-4.0031259,5.2678334,node/6910272309,CPMA-Vridi,0
,-3.9977641,5.2588726,node/6910272310,Vridi-Iran,0
,-3.9932473,5.2565075,node/6910272311,"SIR, Vridi",0
,-3.9854582,5.2577882,node/6910272312,CIE,0
,-3.9824273,5.2582659,node/6910272313,"Cité CIE, Vridi",0
,-3.9820028,5.2600531,node/6910272314,Temple des Vainqueurs,0
,-3.9850263,5.2644761,node/6910272315,Hôpital Municipal,0
,-3.9874196,5.2666602,node/6910272316,Terminus Cité Vridi,0
,-4.0228166,5.3313223,node/6910518025,Cité Administrative,0
,-4.0201529,5.4267852,node/6910584802,Gendarmerie Abobo,0
,-4.0632851,5.350955,node/6910703473,Institut des aveugles,0
,-4.0632758,5.3476916,node/6910703474,Bel Air,0
,-4.0622364,5.3418057,node/6910703475,Complexe sportif de Yopougon,0
,-4.0622136,5.3380456,node/6910703476,Nouveau quartier,0
,-4.0621975,5.3333961,node/6910703477,Clinique les Oliviers,0
,-4.061462,5.3294751,node/6910743309,Terminus 85,0
,-4.0623826,5.333826,node/6910743310,Clinique les Oliviers,0
,-4.0623477,5.3375141,node/6910743311,Nouveau quartier,0
,-4.0634635,5.3460439,node/6910743312,Bel Air,0
,-4.0660062,5.3556644,node/6910743313,Sable,0
,-4.0634474,5.3513983,node/6910743314,Institut des aveugles,0
,-4.0804794,5.3237979,node/6910755171,Ben,0
,-4.0764964,5.3255979,node/6910755172,Marejea,0
,-4.0718266,5.3255738,node/6910755173,Iris3,0
,-4.0802502,5.3198733,node/6910755174,Yopougon Sideci - Terminus 42,0
,-4.0667291,5.3242746,node/6910755176,Marché Kouté,0
,-4.0615042,5.3236042,node/6910755177,L'usine du camp,0
,-4.0577316,5.3236336,node/6910755178,Stenb,0
,-4.0535085,5.3222355,node/6910755179,Le petit soleil,0
,-4.0507693,5.3222275,node/6910755180,Yopougon Kowëit,0
,-4.0464583,5.3222395,node/6910755181,La faveur,0
,-4.0439746,5.3198693,node/6910755182,Pharmacie Chenain,0
,-4.0439826,5.3171339,node/6910755183,Iris 3,0
,-4.0440027,5.3137348,node/6910755184,Bon choix,0
,-4.0439558,5.3095505,node/6910794085,Santé Village,0
,-4.0353389,5.3101983,node/6910794088,Gare Abobodoumé,0
,-4.01971,5.4258812,node/6910797790,Arrêt,0
,-4.0128435,5.4182684,node/6910797791,Arrêt,0
,-4.0054353,5.4156089,node/6910797792,Arrêt,0
,-3.999584,5.4155902,node/6910797793,Arrêt,0
,-3.9856156,5.4038607,node/6910797794,Termunis 81/82,0
,-3.9792073,5.4031254,node/6910797795,BICICI,0
,-3.9780821,5.4011881,node/6910797796,Arrêt,0
,-3.9776878,5.3988302,node/6910797797,Arrêt,0
,-3.977036,5.3963428,node/6910797798,Arrêt,0
,-3.9761992,5.3932466,node/6910797799,Arrêt,0
,-3.971504,5.3946558,node/6910797800,Arrêt,0
,-3.9649835,5.4000986,node/6910797801,Cité Diaspora,0
,-3.9621642,5.4025338,node/6910797802,SOCIAM,0
,-3.9620463,5.4022965,node/6910797803,SOCIAM,0
,-3.9570893,5.399963,node/6910797804,CHU Angré,0
,-4.0022783,5.4154527,node/6910797805,Arrêt,0
,-3.9570173,5.3997812,node/6910797806,CHU Angré,0
,-3.9592423,5.4003923,node/6910797807,Arrêt,0
,-3.960527,5.4011774,node/6910797808,Arrêt,0
,-3.9657399,5.3991713,node/6910797809,Arrêt,0
,-3.9689626,5.3964463,node/6910797810,Arrêt,0
,-3.9736088,5.3933681,node/6910797811,Arrêt,0
,-3.9754415,5.3929368,node/6910797812,Arrêt,0
,-3.9769683,5.3954823,node/6910797813,Arrêt,0
,-3.9772754,5.3963101,node/6910797814,Arrêt,0
,-3.9781552,5.4003569,node/6910797815,Arrêt,0
,-3.978471,5.4022415,node/6910797816,Arrêt,0
,-3.9794534,5.4029505,node/6910797817,BICICI,0
,-3.9898295,5.4042516,node/6910797818,Arrêt,0
,-3.9911934,5.4070126,node/6910797819,Saint Ambroise,0
,-3.9941237,5.4103992,node/6910797820,Arrêt,0
,-3.9953287,5.4136035,node/6910797821,Arrêt,0
,-4.0043772,5.3317315,node/6912410269,Lycée Classique d'Abidjan,0
,-4.0047695,5.3286968,node/6912410270,Hotel Ivoire 2,0
,-4.0029871,5.3278806,node/6912410271,Hotel Ivoire,0
,-4.0032565,5.3277329,node/6912410272,Hotel Ivoire,0
,-4.0045047,5.3327049,node/6912410273,Lycée Classique d'Abidjan,0
,-4.0037108,5.3439798,node/6912410274,SODEMI,0
,-4.0095505,5.3477876,node/6912410275,Pont lycée technique,0
,-4.0751626,5.3290976,node/6912654329,Carrefour Express,0
,-4.0012691,5.3581253,node/6912729876,BMW,0
,-3.998725,5.3601195,node/6912729877,SOCITECH,0
,-3.9976354,5.3648148,node/6912729878,MACACI,0
,-3.9983993,5.367356,node/6912729879,Mobil 2 Plateaux,0
,-3.9984268,5.3718047,node/6912729880,Sococé 2 Plateaux,0
,-3.9985198,5.3745478,node/6912729881,BOA,0
,-3.9985338,5.3755833,node/6912729882,SNEDAI,0
,-3.9976312,5.3776569,node/6912729883,Carrefour Duncan,0
,-3.9943103,5.3809527,node/6912729884,Las Palmas,0
,-4.0792393,5.3388207,node/6912805206,Pharmacie du Marché,0
,-4.0765581,5.3373258,node/6912805207,[Arret sans nom],0
,-4.0752894,5.3384061,node/6912805208,Patisserie,0
,-4.0652525,5.3467623,node/6912805209,Ex Chaine Avion Rue Princesse,0
,-4.0599974,5.3408189,node/6912805210,Camp FRCI,0
,-4.0572368,5.3398655,node/6912805211,Carrefour Marché,0
,-4.0549944,5.3373205,node/6912805212,Carrefour Lama Fofana,0
,-4.0550186,5.3337105,node/6912805213,Banque Atlantique,0
,-4.0520655,5.3316575,node/6912805214,Offoumou Yapo,0
,-4.0497521,5.3293394,node/6912805215,Tizra,0
,-4.0494691,5.3264792,node/6912805216,[Arret sans nom],0
,-4.0494999,5.3247299,node/6912805217,[Arret sans nom],0
,-4.0354465,5.3104606,node/6912805219,Gare Abobo Doumé,0
,-3.9932407,5.3847656,node/6912820385,Carrefour Opéra,0
,-3.9927523,5.3888111,node/6912820386,Mahikari,0
,-3.992269,5.3926338,node/6912820387,Ambassade de Chine,0
,-3.9921141,5.3942154,node/6912820388,Les Oscars,0
,-3.9918337,5.3963811,node/6912820389,BHCI,0
,-3.9913523,5.4005116,node/6912820390,Shawarma House,0
,-3.9909124,5.4038172,node/6912820391,Petro Ivoire,0
,-3.9882535,5.4042033,node/6912820392,Notre Dame,0
,-3.9819806,5.4034748,node/6912820393,FIRDA,0
,-3.9765606,5.4033098,node/6912820394,"Ancien Terminus 90, Les Arcades",0
,-3.9728354,5.4006902,node/6912820395,Soleil 2,0
,-3.9694727,5.3971939,node/6912820396,Clinique Médicale Sainte Justine,0
,-3.9648829,5.3998522,node/6912820397,Cité Diaspora,0
,-3.9697282,5.3972237,node/6912820398,Clinique Médicale Sainte Justine,0
,-3.9764213,5.4031598,node/6912820399,"Ancien Terminus 90, Les Arcades",0
,-3.9820585,5.4033208,node/6912820400,FIRDA,0
,-3.9856793,5.4037772,node/6912820401,Termunis 81/82,0
,-3.9887434,5.4041375,node/6912820402,Notre Dame,0
,-3.9906882,5.4037567,node/6912820403,Petro Ivoire,0
,-3.9911377,5.4002961,node/6912820404,Carrefour 22è,0
,-3.9915941,5.3965825,node/6912820405,BHCI,0
,-3.9920829,5.3926201,node/6912820406,Ambassade de Chine,0
,-3.9924668,5.3895654,node/6912820407,Mahikari,0
,-3.9930996,5.3845481,node/6912820408,Opéra,0
,-3.9940546,5.3809502,node/6912820409,Las Palmas,0
,-3.9970644,5.3779505,node/6912820410,Carrefour Duncan,0
,-3.9983567,5.3753472,node/6912820411,Le Roi du Pain,0
,-3.9983278,5.3725038,node/6912820412,Sococé 2 Plateaux,0
,-3.9981432,5.3677225,node/6912820413,Mobil 2 Plateaux,0
,-3.9973648,5.3654376,node/6912820414,MACACI,0
,-4.0012391,5.3574699,node/6912820415,Saint Jacques,0
,-4.0018639,5.3525544,node/6912820416,Palm Club,0
,-4.0022742,5.3493692,node/6912820417,Carrefour la Vie,0
,-4.0028093,5.344562,node/6912820418,Arrêt,0
,-4.0255438,5.3266074,node/6913011676,Sitarail,0
,-4.073499,5.3293875,node/6913011677,Gare Yopougon Kouté,0
,-4.0441328,5.3134744,node/6913190443,Bon choix,0
,-4.043768,5.3087112,node/6913190444,Santé Village,0
,-4.0440879,5.3166799,node/6913190445,[Arret sans nom],0
,-4.0441167,5.3208014,node/6913190446,[Arret sans nom],0
,-4.0468311,5.3221154,node/6913190447,[Arret sans nom],0
,-4.0496448,5.323918,node/6913190448,[Arret sans nom],0
,-4.0503167,5.3270841,node/6913190449,Commissariat de Police du 19ᵉ Arrondissement,0
,-4.0501732,5.3295798,node/6913190450,Tizra,0
,-4.0519957,5.3313998,node/6913190451,Offoumou Yapo,0
,-4.0550937,5.3337753,node/6913190452,La Poste,0
,-4.055093,5.3369773,node/6913190453,Pharmacie Sacré-cœur,0
,-4.058547,5.3401473,node/6913190454,Pharmacie Béatitude,0
,-4.0608235,5.3407362,node/6913190455,Nouveau quartier,0
,-4.0650474,5.3466167,node/6913190456,Ex Chaine Avion Rue Princesse,0
,-4.0678006,5.3447353,node/6913190457,Newton,0
,-4.0745628,5.3395304,node/6913190458,Marche Sicogi,0
,-4.0751928,5.3379928,node/6913190459,Patisserie,0
,-4.0770331,5.3372574,node/6913190460,Pharmacie du Marché,0
,-4.0806585,5.3372711,node/6913190461,Terrain Sogefiha,0
,-4.0733126,5.3335416,node/6913201897,Antenne,0
,-4.0757574,5.3290163,node/6913201898,Cabine Bleue,0
,-4.0799806,5.3243327,node/6913201899,Akadjoba,0
,-4.0871836,5.3239194,node/6913201900,Saint Pierre,0
,-4.0925668,5.3233739,node/6913201901,EPP Niangon,0
,-4.0944323,5.3197171,node/6913201902,Arrêt,0
,-4.0947904,5.3163701,node/6913201903,Arrêt,0
,-4.0928994,5.3152357,node/6913201904,Arrêt Yop 38,0
,-4.0900334,5.315995,node/6913201907,Terminus 27,0
,-4.0934497,5.3150643,node/6913201908,Arrêt,0
,-4.0948509,5.3172602,node/6913201909,EPP SICOGI Niangon Sud,0
,-4.0943199,5.3202551,node/6913201910,Carrefour Marché,0
,-4.0926667,5.3233885,node/6913201911,EPP Niangon,0
,-4.0869619,5.3240967,node/6913201912,Saint Pierre,0
,-4.0797426,5.3246783,node/6913201913,Akadjoba,0
,-4.0762905,5.3287702,node/6913201914,Arrêt de bus,0
,-4.0184952,5.3146172,node/6913201915,Gare Sud,0
,-4.0183564,5.3144986,node/6913291219,Gare Sud,0
,-3.9977011,5.329485,node/6913703797,CNTG-BNETD,0
,-3.9970399,5.3310059,node/6913703798,UCAO,0
,-3.9973538,5.3350719,node/6913703799,Maison du PDCI-RDA,0
,-3.9997195,5.3084936,node/6913703800,Piscine d’État de Treichville,0
,-3.990551,5.3074734,node/6913703801,NSIA,0
,-3.9837714,5.3086966,node/6913703802,Gare Marcory,0
,-3.9975172,5.3353656,node/6913703803,Maison du Parti,0
,-3.9969162,5.3310313,node/6913703804,UCAO,0
,-3.9976804,5.3293836,node/6913703805,CNTG-BNETD,0
,-4.0658437,5.3556761,node/6913857608,Sable,0
,-4.0646331,5.3407344,node/6913857611,"Complexe Sportif, Yopougon",0
,-4.0665987,5.3424009,node/6913857612,Mairie de Yopougon,0
,-4.0375561,5.3443401,node/6913929664,La Marine,0
,-4.0262003,5.3278599,node/6913929665,Sitarail,0
,-4.0182404,5.3146272,node/6913929666,Gare Sud,0
,-4.0376761,5.3441859,node/6913929668,La Marine,0
,-4.0737128,5.3295615,node/6913929669,Gare Yopougon Kouté,0
,-4.0216157,5.3367091,node/6913931703,Gendarmerie,0
,-4.0217222,5.3369705,node/6913974340,Gendarmerie,0
,-3.9728972,5.400545,node/6915341517,Soleil 2,0
,-3.9837323,5.4035247,node/6915341518,Arrêt,0
,-3.9906836,5.4062326,node/6915341519,Arrêt,0
,-3.9894234,5.4297269,node/6915341520,Arrêt,0
,-3.9891222,5.4313416,node/6915341521,Arrêt,0
,-3.9725804,5.4564179,node/6915341523,Abobo Biabou,0
,-3.9726482,5.4564283,node/6915341525,Abobo Biabou,0
,-3.978184,5.4454571,node/6915341526,Arrêt,0
,-3.9810371,5.4430187,node/6915341527,Arrêt,0
,-3.9831075,5.441543,node/6915341528,Arrêt,0
,-3.9847859,5.4403681,node/6915341529,Arrêt,0
,-3.9859783,5.4391313,node/6915341530,Arrêt,0
,-3.9875153,5.4368688,node/6915341531,Arrêt,0
,-3.987991,5.4356843,node/6915341532,Arrêt,0
,-3.9883619,5.434457,node/6915341533,Arrêt,0
,-3.9887503,5.4327625,node/6915341534,Arrêt,0
,-3.9889419,5.4312302,node/6915341535,Arrêt,0
,-3.9892581,5.4293215,node/6915341536,Arrêt,0
,-3.9896961,5.4264243,node/6915341537,Arrêt,0
,-3.9902515,5.4229496,node/6915341538,Arrêt,0
,-3.9905681,5.4208149,node/6915341539,Arrêt,0
,-3.9907254,5.4195345,node/6915341540,Arrêt,0
,-3.9909298,5.4182159,node/6915341541,Arrêt,0
,-3.9922122,5.4158878,node/6915341542,Arrêt,0
,-3.9928597,5.4154923,node/6915341543,Arrêt,0
,-3.9947036,5.4148205,node/6915341544,Arrêt,0
,-3.9952879,5.4141247,node/6915341545,Arrêt,0
,-3.9932262,5.409531,node/6915341546,Arrêt,0
,-3.990564,5.4050885,node/6915341547,Petro Ivoire Angré,0
,-3.9829561,5.403643,node/6915341548,Arrêt,0
,-3.9807645,5.4033522,node/6915341549,Arrêt,0
,-3.96346,5.3585446,node/6915487638,9 Kilo,0
,-3.9586683,5.360974,node/6915487639,Rond-Point de la Palmeraie,0
,-3.9598948,5.3606149,node/6915487640,Carrefour de la Gendarmerie,0
,-3.9665508,5.3568703,node/6915487641,Cap Nord,0
,-3.9779824,5.3532599,node/6915487642,Riviéra 2,0
,-3.9881887,5.3502292,node/6915487643,École de Police,0
,-3.9943092,5.3492233,node/6915487644,École de la Gendarmerie,0
,-4.0018322,5.3485522,node/6915487645,Carrefour de la Vie,0
,-4.0185375,5.4217637,node/6915647682,Mairie d'ABOBO,0
,-4.0212736,5.4270593,node/6915647683,Arrêt,0
,-4.0241622,5.4303911,node/6915647684,Arrêt,0
,-3.9635319,5.3587403,node/6915696792,9 Kilo,0
,-3.9620358,5.3596047,node/6915696795,Chic Shop,0
,-3.9657802,5.3574857,node/6915696796,Cap Nord,0
,-3.9881605,5.3504609,node/6915696797,École de Police,0
,-3.9916044,5.3494956,node/6915696798,Carrefour CHU,0
,-3.994457,5.3493834,node/6915696799,École de la Gendarmerie,0
,-4.0029649,5.3485982,node/6915696800,Carrefour de la Vie,0
,-4.0266778,5.4333404,node/6915722685,Arrêt,0
,-4.0446977,5.4390733,node/6915722686,Anokoi,0
,-4.0485036,5.4434752,node/6915722687,PK 18 Agripac,0
,-4.0512502,5.4482915,node/6915722688,Arrêt,0
,-4.0529903,5.4503535,node/6915722689,Arrêt,0
,-4.0545715,5.4565524,node/6915722690,Arrêt,0
,-4.054497,5.4574448,node/6915722691,Arrêt,0
,-4.0544278,5.465098,node/6915722692,Arrêt,0
,-4.0540279,5.4662168,node/6915722693,Arrêt,0
,-4.0530974,5.4680953,node/6915722694,Arrêt,0
,-4.0538658,5.4794949,node/6915722695,Arrêt,0
,-4.0513358,5.4828953,node/6915722696,Arrêt,0
,-4.0513476,5.4837187,node/6915722697,Arrêt,0
,-4.05146,5.4866626,node/6915722698,Arrêt,0
,-4.0515593,5.4890597,node/6915722699,Arrêt,0
,-4.0516047,5.4904279,node/6915722700,Arrêt,0
,-4.0516233,5.490915,node/6915722701,Arrêt,0
,-4.051639,5.4914503,node/6915722702,Arrêt,0
,-4.0516636,5.4928779,node/6915722703,Arrêt,0
,-4.0517658,5.4940805,node/6915722704,Arrêt,0
,-4.0517794,5.495095,node/6915722705,Arrêt,0
,-4.0516644,5.4960474,node/6915722706,Arrêt,0
,-4.0515036,5.4970767,node/6915722707,Arrêt,0
,-4.051438,5.497669,node/6915722708,Arrêt,0
,-4.0513918,5.4979794,node/6915722709,Arrêt,0
,-4.0516497,5.4995751,node/6915722710,Arrêt,0
,-4.0519247,5.500507,node/6915722711,Arrêt,0
,-4.0520934,5.5011338,node/6915722712,Arrêt,0
,-4.0522125,5.5015989,node/6915722713,Arrêt,0
,-4.0525268,5.5026911,node/6915722714,Arrêt,0
,-4.0530594,5.5045432,node/6915722715,Arrêt,0
,-4.0532829,5.5053444,node/6915722716,Arrêt,0
,-4.0531365,5.5064599,node/6915722717,Mairie d'Anyama,0
,-4.0530408,5.5064064,node/6915722719,Mairie d'Anyama,0
,-4.0513828,5.4976427,node/6915722720,Arrêt,0
,-4.0523687,5.5027177,node/6915722721,Arrêt,0
,-4.0514357,5.4994894,node/6915722722,Arrêt,0
,-4.0516383,5.4949787,node/6915722723,Arrêt,0
,-4.051407,5.4888603,node/6915722724,Arrêt,0
,-4.0513417,5.4863031,node/6915722725,Arrêt,0
,-4.0512201,5.4825896,node/6915722726,Arrêt,0
,-4.0531887,5.479955,node/6915722727,Arrêt,0
,-4.0552147,5.4757466,node/6915722728,Arrêt A l'Ecole,0
,-4.0531044,5.470731,node/6915722729,Arrêt Contrôle,0
,-4.0534141,5.4669354,node/6915722730,Arrêt,0
,-4.053759,5.4611068,node/6915722731,Arrêt Ancienne Gendarmerie,0
,-4.0544875,5.4526174,node/6915722732,Arrêt,0
,-4.0526523,5.4503748,node/6915722733,Arrêt Ancien Marché,0
,-4.0510764,5.4483606,node/6915722734,Arrêt Terminus,0
,-4.0491425,5.4449974,node/6915722735,Arrêt Agripac,0
,-4.0484067,5.4436482,node/6915722736,Arrêt,0
,-4.0057551,5.28758,node/6916152424,Terminus dépôt SOTRA,0
,-4.0084018,5.2890666,node/6916152425,Pharmacie du Port,0
,-4.0033572,5.2961604,node/6916152426,Arrêt du CHU,0
,-4.0024808,5.2991407,node/6916152427,Gare de Bassam,0
,-4.0026565,5.3478959,node/6916181080,Arrêt,0
,-3.9983308,5.3700062,node/6916181081,Grande Pharmacie /Terminus 300FCFA,0
,-3.9930971,5.4157357,node/6916280433,Arrêt,0
,-3.9940211,5.4149934,node/6916280434,Terminus Abobo Baoulé,0
,-3.9948875,5.4129627,node/6916280435,Pharmacie Actuelle,0
,-3.9939447,5.4103431,node/6916280436,Arrêt,0
,-3.9923863,5.4085794,node/6916280437,Arrêt,0
,-3.9910921,5.4071215,node/6916280438,Saint Ambroise,0
,-3.990494,5.4055233,node/6916280439,Arrêt,0
,-3.9910264,5.4011787,node/6916280440,Arrêt,0
,-3.9912618,5.3991513,node/6916280441,Carrefour 22ème,0
,-3.991524,5.3973362,node/6916280442,SODECI,0
,-3.9918311,5.3945043,node/6916280443,Paris Baguette,0
,-3.9927256,5.3875127,node/6916280444,Arrêt,0
,-3.9952144,5.3797969,node/6916280445,Arrêt,0
,-3.9983542,5.3737207,node/6916280446,NSIA,0
,-3.9981216,5.3700155,node/6916280447,SGBGI,0
,-4.002571,5.3465781,node/6916280448,Cité BAD,0
,-4.0035403,5.3386878,node/6916280449,CIE,0
,-3.9865047,5.3065218,node/6917146061,Commissariat du 9 ème,0
,-3.9857063,5.3061086,node/6917146062,Commissariat du 9 ème,0
,-3.9807831,5.3034179,node/6917146063,King Cash,0
,-3.9776047,5.3015677,node/6917146064,Cabinet Médical du 3ème pont,0
,-3.9757915,5.3005869,node/6917146065,Marché de Marcory,0
,-3.9722389,5.2986259,node/6917146066,Paroisse Sainte Bernadette,0
,-3.9714765,5.2982013,node/6917146067,Pharmacie Bagoué,0
,-3.9688084,5.2968312,node/6917146068,Banque of Africa,0
,-3.9650103,5.2965895,node/6917146069,Arrêt,0
,-3.9608221,5.2975636,node/6917146070,Arrêt,0
,-3.9572333,5.2983628,node/6917146071,Place Inchallah,0
,-3.9531506,5.299281,node/6917146072,Koumassi Prodomo,0
,-3.9494388,5.3001329,node/6917146073,Gare Mesano,0
,-3.9476752,5.3008577,node/6917146074,Koumassi Mesano,0
,-3.9483867,5.3002935,node/6917146075,Koumassi Mesano,0
,-3.9505841,5.2998074,node/6917146076,Station Petro Ivoire,0
,-3.9543702,5.2989496,node/6917146077,Palce Inchallah,0
,-3.9585451,5.2980163,node/6917146078,Arrêt,0
,-3.9619419,5.2972737,node/6917146079,Arrêt,0
,-3.9660523,5.2962808,node/6917146080,Arrêt,0
,-3.9687629,5.296728,node/6917146081,Banque of Africa,0
,-3.9712863,5.2980069,node/6917146082,Pharmacie Bagoué,0
,-3.9759814,5.3006211,node/6917146083,Marché de Marcory,0
,-3.9778785,5.3016585,node/6917146084,Cabinet Médical du 3ème pont,0
,-3.9828404,5.3044464,node/6917151685,Arrêt,0
,-3.9860886,5.3062161,node/6917151686,Commissariat du 9 ème,0
,-3.988849,5.3077309,node/6917151687,Arrêt,0
,-3.9904413,5.3084636,node/6917151688,Yan Auto Ecole,0
,-4.0352896,5.3106101,node/6919194336,Gare Abobodoumé,0
,-4.0923844,5.3270854,node/6919312942,Cité Bracodi Rte Cité verte,0
,-4.1119954,5.332209,node/6919312943,Cité Verte,0
,-4.109973,5.3316148,node/6919312945,Collège Sebaco,0
,-4.1058974,5.3306787,node/6919312946,Cité Bracodi Rte Cité verte,0
,-4.1035223,5.3296893,node/6919312947,Banque BNI,0
,-4.100539,5.3284241,node/6919312948,Le repère,0
,-4.0976201,5.3278005,node/6919312949,Carrefour de Niangon,0
,-4.0812954,5.3241547,node/6919312950,Akadjoba,0
,-4.0351267,5.3103655,node/6919312951,Gare Abobodoumé,0
,-4.053652,5.322126,node/6919327587,Le petit soleil,0
,-4.0573213,5.3235388,node/6919327588,Blé Doré,0
,-4.0669544,5.3241224,node/6919327589,Marché Kouté,0
,-4.0710314,5.3251706,node/6919327590,Carrefour Kouté,0
,-4.0761933,5.325455,node/6919327591,Marejea,0
,-4.0818366,5.3238646,node/6919327593,Akadjoba,0
,-4.0914322,5.3264405,node/6919327594,Arrêt,0
,-4.0976496,5.327729,node/6919327595,Carrefour de Niangon,0
,-4.1005786,5.3283566,node/6919327596,Le repère,0
,-4.1035169,5.3295851,node/6919327597,Top Qualitée,0
,-4.1063239,5.3307695,node/6919327598,Cité Bracodi Rte Cité verte,0
,-3.9831407,5.2982594,node/6919758025,Arrêt,0
,-3.9792079,5.2961308,node/6919758026,Arrêt,0
,-3.9763809,5.2945624,node/6919758027,Arrêt,0
,-3.9743974,5.293456,node/6919758028,Arrêt,0
,-3.9712223,5.2927669,node/6919758029,Arrêt,0
,-3.9690283,5.2932236,node/6919758030,Arrêt,0
,-3.965347,5.2940469,node/6919758031,Arrêt,0
,-3.9603108,5.2951953,node/6919758032,Arrêt,0
,-3.9565101,5.2961324,node/6919758033,Arrêt,0
,-3.9526269,5.297599,node/6919758034,Sogefia,0
,-3.9478318,5.2987064,node/6919758035,Arrêt,0
,-3.9469644,5.3015424,node/6919758036,Station Petro Ivoire,0
,-3.9453759,5.3043266,node/6919758037,Arrêt,0
,-3.946713,5.3080062,node/6919758038,Bon Samaritain,0
,-3.9473403,5.3099762,node/6919758039,Pharmacie Fanny,0
,-3.9466942,5.3109106,node/6919758040,Patisserie MC,0
,-3.9450346,5.311165,node/6919758041,Terminus 05 Lycée Municipal de Koumassi,0
,-4.0106387,5.3023303,node/6924851825,"Avenue 19, Rue 12, Treichville",0
,-4.0115547,5.3047639,node/6924851826,FIESTA,0
,-4.0006757,5.3028704,node/6924851828,Treichville Entente,0
,-4.0016802,5.3015791,node/6924851829,Nostalgie,0
,-4.003555,5.300882,node/6924851830,Banque Bicici,0
,-4.0062869,5.2999593,node/6924851831,[Arret sans nom],0
,-4.0277536,5.3586294,node/6924851833,Gare Nord,0
,-4.0106307,5.3025272,node/6924979791,"Avenue 19, Rue 12, Treichville",0
,-4.0062426,5.3029946,node/6924979792,Pharmacie de l'Avenue 27,0
,-4.0008245,5.3032777,node/6924979794,Treichville Entente,0
,-4.0208888,5.3296238,node/6926746685,[Arret sans nom],0
,-4.0236032,5.3309876,node/6926746686,Terminus tours Administratives,0
,-4.018979,5.3149603,node/6926746688,Terminus Gare Sud,0
,-4.0096436,5.3018048,node/6926746689,Station Total,0
,-3.9737989,5.4538834,node/6926746749,Arrêt,0
,-3.9864522,5.4385456,node/6926746750,Arrêt,0
,-3.9903197,5.4222388,node/6926746751,Arrêt,0
,-3.9996626,5.4154549,node/6926746752,Arrêt,0
,-4.0016378,5.4154484,node/6926746753,Arrêt,0
,-4.0054049,5.4155231,node/6926746754,Arrêt,0
,-4.0071858,5.4152696,node/6926746755,Samake,0
,-4.0280449,5.3590439,node/6926746757,Gare Nord,0
,-4.0019605,5.4155963,node/6926746758,Arrêt,0
,-3.9928882,5.4156232,node/6926746759,Arrêt,0
,-3.9908193,5.4196603,node/6926746760,Sotra,0
,-3.9904401,5.422222,node/6926746761,Arrêt,0
,-3.9898619,5.4265157,node/6926746762,Arrêt,0
,-3.9886816,5.43368,node/6926746763,Arrêt,0
,-3.9873449,5.4374054,node/6926746764,Arrêt,0
,-3.9850082,5.4402786,node/6926746765,Arrêt,0
,-3.9807703,5.443381,node/6926746766,Arrêt,0
,-3.9785569,5.4451883,node/6926746767,Arrêt,0
,-3.946597,5.3079127,node/6926943107,Bon Samaritain,0
,-3.9451392,5.3050831,node/6926943108,Pharmacie Campement,0
,-3.9835873,5.3011838,node/6926943109,Hôpital Général de Marcory,0
,-4.0046641,5.3034579,node/6926943110,Pharmacie Notre-Dame,0
,-4.0185633,5.3146776,node/6926943111,Gare Sud,0
,-4.0236086,5.3311928,node/6926943112,Terminus tours Administratives,0
,-3.9840318,5.3051694,node/6927022357,[Arret sans nom],0
,-3.9930649,5.4159386,node/6927037611,Arrêt,0
,-4.0063405,5.408251,node/6927037612,Arrêt,0
,-4.0063848,5.4057129,node/6927037613,Arrêt,0
,-4.0064518,5.4013897,node/6927037614,Arrêt,0
,-4.0057893,5.3930717,node/6927037615,Arrêt,0
,-4.0056726,5.3875774,node/6927037616,Arrêt,0
,-4.0066168,5.3801858,node/6927037617,Arrêt,0
,-4.0168427,5.3625903,node/6927037618,Arrêt,0
,-4.0169801,5.3503578,node/6927037619,Pharmacie le Belier,0
,-4.0178358,5.3456673,node/6927037620,Fraternité Matin,0
,-4.0237561,5.3411247,node/6927037621,Arrêt,0
,-4.0237963,5.3372751,node/6927037622,Arrêt,0
,-4.0238252,5.3339228,node/6927037623,Arrêt,0
,-4.0238251,5.3310139,node/6927037625,Terminus tours Administratives,0
,-4.0238861,5.3339515,node/6927037626,Arrêt,0
,-4.0238741,5.3377117,node/6927037627,Ministère de la défense,0
,-4.0161668,5.3557539,node/6927037628,Arrêt,0
,-4.0068716,5.379605,node/6927037629,Arrêt,0
,-4.0059958,5.386285,node/6927037630,Arrêt,0
,-4.0065437,5.4018603,node/6927037631,Arrêt,0
,-3.9933257,5.4158855,node/6927037633,Abobo Belleville,0
,-4.0125125,5.3434193,node/6927327302,Arrêt,0
,-4.0103402,5.346265,node/6927327303,Arrêt,0
,-4.0088409,5.3494085,node/6927327304,Arrêt,0
,-4.0044479,5.3529759,node/6927327305,Arrêt,0
,-3.989773,5.4043844,node/6927327306,Arrêt,0
,-3.9851483,5.4048944,node/6927327307,Arrêt,0
,-3.9867901,5.4082838,node/6927327308,Arrêt,0
,-3.9890592,5.407261,node/6927327309,Arrêt,0
,-4.0043218,5.3528041,node/6927327310,Arrêt,0
,-4.0085859,5.3493597,node/6927327311,Arrêt,0
,-4.0102683,5.3461658,node/6927327312,Arrêt,0
,-4.0124663,5.3433536,node/6927327313,Polyclinique,0
,-4.0186967,5.3147983,node/6927327314,Gare Sud,0
,-3.9464354,5.3022414,node/6927330411,Campement,0
,-3.9450815,5.3120389,node/6927330412,Terminus 05 Lycée Municipal de Koumassi,0
,-3.9472561,5.3099838,node/6927330413,Pharmacie Fanny,0
,-4.0047298,5.3362229,node/6927330414,Arrêt,0
,-3.9938503,5.3462362,node/6927330416,Gare Campus Cocody,0
,-3.9972169,5.3463523,node/6927544633,INSAAC,0
,-4.0030417,5.3359628,node/6927544634,Saint Jean,0
,-4.0029552,5.3358129,node/6927544636,Saint Jean,0
,-3.9970998,5.3482687,node/6927544637,Gendarmerie,0
,-4.0175371,5.3536864,node/6927600976,Arrêt,0
,-4.0250561,5.3567305,node/6927600977,Mirador,0
,-4.0241115,5.3566458,node/6927631763,Arrêt SICOGI,0
,-4.0275494,5.3592856,node/6927694921,Gare Nord,0
,-3.9971908,5.3470894,node/6927701716,Arrêt,0
,-3.9700449,5.3534453,node/6928179123,Terminus Riviera 2,0
,-3.9736351,5.3533983,node/6928179124,Cité étudiante Riviera 2,0
,-3.9780678,5.3525929,node/6928179125,Riviera 2,0
,-3.9805625,5.3512739,node/6928179126,Petite Mosquée Riviéra Jardin,0
,-3.9803499,5.3516026,node/6928250859,Petite Mosquée Riviéra Jardin,0
,-3.9781867,5.3526374,node/6928250860,Riviera 2,0
,-3.9761267,5.3530707,node/6928250861,Arrêt,0
,-3.9702004,5.3534857,node/6928250862,Terminus Riviera 2,0
,-3.9975737,5.2563753,node/6928681599,Terminus Vridi-Iran,0
,-4.0101948,5.2947326,node/6928681601,Arrêt Cuirasse Ciment,0
,-4.0279685,5.3588804,node/6928681602,Gare Nord,0
,-4.0228924,5.3050571,node/6928704112,Terminus 32,0
,-4.0170398,5.3002851,node/6928704113,[Arret sans nom],0
,-4.0140854,5.29778,node/6928704114,"Etablissements Rey, Port",0
,-3.9995223,5.264595,node/6928704115,Arrêt Bolloré logistique,0
,-3.9975522,5.2562337,node/6928704117,Terminus Vridi-Iran,0
,-4.0182207,5.3143818,node/6929796960,Gare Sud,0
,-4.0189046,5.314962,node/6929849943,Terminus Gare Sud,0
,-3.9888954,5.3078566,node/6930487819,Arrêt,0
,-3.8943455,5.3612016,node/6930917942,Station Corlay Bingerville,0
,-3.9581935,5.3618466,node/6930917943,Après barrage,0
,-3.9537437,5.364055,node/6930917944,Dalia,0
,-3.9497378,5.3653603,node/6930917945,Église Apostolique de Côte d'Ivoire,0
,-3.94563,5.3673945,node/6930917946,Camp Millitaire d'Akouédo,0
,-3.9389929,5.370105,node/6930917947,Carrefour Faya,0
,-3.9347483,5.3712573,node/6930917948,Résidence Genie 2000,0
,-3.9301188,5.3725084,node/6930917949,Optic 2000,0
,-3.9237472,5.3741413,node/6930917950,Jules Verne,0
,-3.9108525,5.3718715,node/6930917951,Pharmacie Saint Sylvestre,0
,-3.9083956,5.3645064,node/6930917952,Cité Hévéas,0
,-3.9031767,5.3606115,node/6930917953,Université de Cocody Pole Scientifique,0
,-3.8979524,5.360275,node/6930917954,CIE,0
,-3.8963887,5.360916,node/6930917955,[Arret sans nom],0
,-3.8909747,5.3577634,node/6930917956,Lycée garçon de Bingerville,0
,-3.8866322,5.3574363,node/6930917957,Carrefour marché,0
,-3.8843503,5.3583363,node/6930917958,Espace Orange,0
,-3.8841063,5.360674,node/6930917959,Hôpital Mère-Enfant de Bingerville,0
,-3.886655,5.3573589,node/6930917961,Carrefour marché,0
,-3.8908299,5.3576746,node/6930917962,Lycée garçon de Bingerville,0
,-3.8980114,5.3601255,node/6930917963,CIE,0
,-3.9020951,5.360215,node/6930917964,Université de Cocody Pole Scientifique,0
,-3.9084667,5.3643261,node/6930917965,Cité Hévéas,0
,-3.9097783,5.368265,node/6930917966,Cité Marina,0
,-3.9108391,5.3714883,node/6930917967,Arrêt,0
,-3.9233838,5.3740098,node/6930917968,Jules Verne,0
,-3.9324215,5.3716378,node/6930917969,Coris Bank,0
,-3.9379911,5.3701704,node/6930917970,Arrêt,0
,-3.9456984,5.3671088,node/6930917971,Camp Millitaire d'Akouédo,0
,-3.9527636,5.3637324,node/6930917972,[Arret sans nom],0
,-3.9579964,5.3617224,node/6930917973,Après barrage,0
,-3.94723,5.2993777,node/6931151021,Arrêt,0
,-3.9523798,5.2975523,node/6931151022,Sogefia,0
,-3.9571428,5.2958991,node/6931151023,Arrêt,0
,-3.9596352,5.2952895,node/6931151024,Pharmacie Saint François,0
,-3.9646348,5.2941237,node/6931151025,Grande Pharmacie Iroko,0
,-3.9695299,5.2929966,node/6931151026,Arrêt,0
,-3.971683,5.2924858,node/6931151027,Pharmacie Du Boulevard Du Gabon,0
,-3.9757097,5.2940696,node/6931151028,Polyclinique La Madone,0
,-3.9801776,5.2965781,node/6931151029,Arrêt,0
,-3.9828604,5.298031,node/6931151030,Arrêt,0
,-4.027668,5.3590066,node/6931151031,Gare Nord,0
,-3.9540428,5.2873212,node/6931273195,Koumassi Sicogi - Dépôt SOTRA,0
,-3.964256,5.2849829,node/6931273196,[Arret sans nom],0
,-3.9651793,5.2875055,node/6931273197,[Arret sans nom],0
,-3.9684516,5.2873493,node/6931273198,Arrêt,0
,-3.9694119,5.2883388,node/6931273199,[Arret sans nom],0
,-3.9762314,5.293018,node/6931273200,Sicomex,0
,-4.0184375,5.3148159,node/6931273203,Gare Sud,0
,-4.0117713,5.3074119,node/6931792543,Pharmacie du Rond-point,0
,-4.0071049,5.3090558,node/6931792544,[Arret sans nom],0
,-3.9672808,5.2889971,node/6931792545,Centre comercial Koumassi,0
,-3.9622262,5.2839293,node/6931792546,Arrêt,0
,-3.9586401,5.2847439,node/6931792547,Pharmacie Bethanie,0
,-3.9543311,5.2857761,node/6931792548,Arrêt,0
,-3.9538698,5.2884523,node/6931792550,Koumassi Sicogi - Dépôt SOTRA,0
,-3.970533,5.2870688,node/6931985671,Grand Carrefour de Koumassi,0
,-4.001299,5.2985627,node/6931985672,Ivosep Treichville,0
,-4.060057,5.3266769,node/6932152400,Arrêt,0
,-4.0598402,5.3250076,node/6932152402,Ghandi,0
,-4.0599193,5.3253408,node/6932152404,Ghandi,0
,-4.0669167,5.3600658,node/6932152405,Arrêt,0
,-4.0182858,5.314853,node/6932152407,Gare Sud,0
,-3.9502595,5.3286224,node/6932239010,CIAD,0
,-3.951901,5.3291271,node/6932239011,Arrêt,0
,-3.9522216,5.338314,node/6932239012,Arrêt,0
,-3.9526011,5.3443655,node/6932239013,Carrefour Mel Theodore,0
,-3.9535043,5.348653,node/6932239014,Pharmacie Riviera III,0
,-3.9545015,5.3509724,node/6932239015,Collège l'Ardoise,0
,-3.9606719,5.3550168,node/6932239016,Arrêt,0
,-3.9637336,5.3569209,node/6932239017,Arrêt,0
,-4.0185761,5.3149333,node/6932239019,Gare Sud,0
,-3.9808642,5.4127978,node/6932253478,Angré Château,0
,-3.984559,5.4102497,node/6932253479,Arrêt,0
,-3.9930569,5.3866094,node/6932253480,Arrêt,0
,-3.9885655,5.4076842,node/6932253481,Arrêt,0
,-3.9809279,5.4128518,node/6932253483,Angré Château,0
,-3.9635029,5.3569409,node/6932323632,Arrêt,0
,-3.9543647,5.3517214,node/6932323633,Collège Ardoise,0
,-3.9531872,5.3485048,node/6932323634,Pharmacie Riviera III,0
,-3.9524998,5.3446873,node/6932323635,Carrefour Mel Theodore,0
,-3.9448656,5.3284521,node/6932323636,École libanaise Al Ghadir,0
,-4.0617429,5.3228845,node/6933043352,Terminus Yopougon Camp Militaire,0
,-4.0599163,5.3245991,node/6933043354,Ghandi,0
,-4.0607049,5.3278586,node/6933043355,[Arret sans nom],0
,-4.0581514,5.3300685,node/6933043356,[Arret sans nom],0
,-4.0559573,5.3314439,node/6933043357,[Arret sans nom],0
,-4.018425,5.3145591,node/6933043359,Gare Sud,0
,-3.9428298,5.3283246,node/6933080250,Arrêt,0
,-3.9447637,5.3282992,node/6933080251,École libanaise Al Ghadir,0
,-3.9460498,5.3283286,node/6933080252,Arrêt,0
,-3.9479502,5.328364,node/6933080253,Pharmacie M'pouto,0
,-3.9527768,5.3380122,node/6933080254,Beverly,0
,-3.9578046,5.3311481,node/6933080255,Carrefour Sol Béni,0
,-3.980421,5.329493,node/6933080256,Arrêt,0
,-3.9996752,5.3353723,node/6933080257,SIB,0
,-3.9401878,5.3284154,node/6933080258,Mosquée Cité Eden,0
,-3.9401855,5.3283646,node/6933080260,Mosquée Cité Eden,0
,-4.0026096,5.3461454,node/6933080262,Arrêt,0
,-3.9789297,5.3391939,node/6933080263,Mosquée Golf,0
,-3.9812806,5.3325809,node/6933080264,Arrêt,0
,-3.9790913,5.3297881,node/6933080265,Arrêt,0
,-3.9529652,5.3380134,node/6933080266,Beverly,0
,-4.0560298,5.3312516,node/6933128807,[Arret sans nom],0
,-4.0580978,5.3299817,node/6933128808,[Arret sans nom],0
,-4.0623571,5.3222556,node/6933128810,Terminus Yopougon Camp Militaire,0
,-4.0094478,5.3017767,node/6933231056,Station Total,0
,-4.0061849,5.3029158,node/6933231057,Pharmacie de l'Avenue 27,0
,-4.0272913,5.3589712,node/6933291484,Gare Nord,0
,-4.0277539,5.3591995,node/6933302185,Gare Nord,0
,-4.0210558,5.4266332,node/6934648710,Arrêt,0
,-4.0538116,5.4438112,node/6934648711,Arrêt,0
,-4.0603428,5.4435976,node/6934648712,Arrêt,0
,-4.0647738,5.4434975,node/6934648713,Arrêt,0
,-4.0679455,5.4433733,node/6934648714,Arrêt,0
,-4.0693985,5.442806,node/6934648715,Arrêt,0
,-4.0686147,5.4392747,node/6934648716,Arrêt,0
,-4.068663,5.4321434,node/6934648717,Arrêt,0
,-4.0699659,5.428223,node/6934648718,Arrêt,0
,-4.0783779,5.413004,node/6934648719,Arrêt,0
,-4.0834808,5.4036687,node/6934648720,Arrêt,0
,-4.0842761,5.4009224,node/6934648721,Arrêt,0
,-4.0810159,5.3935763,node/6934648722,Arrêt,0
,-4.078453,5.3892384,node/6934648723,Arrêt,0
,-4.0757427,5.3836466,node/6934648724,Arrêt,0
,-4.0773951,5.3747704,node/6934648725,Arrêt,0
,-4.0820444,5.3762544,node/6934648726,Arrêt,0
,-4.0759718,5.3838941,node/6934648728,Arrêt,0
,-4.0784458,5.389032,node/6934648729,Arrêt,0
,-4.0806236,5.3928929,node/6934648730,Arrêt,0
,-4.0842976,5.4014804,node/6934648731,Arrêt,0
,-4.0784144,5.4130749,node/6934648732,Arrêt,0
,-4.070195,5.4279813,node/6934648733,Arrêt,0
,-4.0686617,5.4326393,node/6934648734,Arrêt,0
,-4.069498,5.4427909,node/6934648735,Arrêt,0
,-4.0650186,5.4435987,node/6934648736,Arrêt,0
,-4.0602688,5.4437261,node/6934648737,Arrêt,0
,-4.0536714,5.4438909,node/6934648738,Arrêt,0
,-4.0481434,5.4432611,node/6934648739,Arrêt,0
,-4.0438735,5.4392603,node/6934648740,Arrêt,0
,-4.0169741,5.3480962,node/6934657650,220 logements,0
,-3.9618933,5.2690497,node/6934657651,Carrefour Akwaba,0
,-3.9633662,5.2629137,node/6934657652,Hôpital de Port-Bouët,0
,-3.9637684,5.2574343,node/6934657653,Nouveau marché Port-Bouët,0
,-3.961553,5.2567198,node/6934657654,Océan Espadon,0
,-3.9621216,5.2542438,node/6934657655,Église Méthodiste Unie Port-Bouët,0
,-3.9607128,5.2530566,node/6934657656,Wharf Port-Bouët,0
,-3.9560196,5.2510654,node/6934657657,Terminus Port-Bouët Phare,0
,-4.0201934,5.400118,node/6934749721,Arrêt,0
,-4.0027148,5.3970398,node/6934798183,Centre Commercial du Dokui,0
,-4.0014133,5.3997114,node/6934798184,Sainte Monique,0
,-3.9960703,5.3994163,node/6934815685,Superette Akwaba,0
,-3.9916306,5.3979557,node/6934815686,22ème,0
,-3.9959845,5.3992227,node/6934815687,Superette Akwaba,0
,-3.9972693,5.3994417,node/6934815688,Pharmacie Sainte Monique,0
,-4.0008152,5.3997942,node/6934815689,Station Petro Ivoire,0
,-4.0013301,5.3994657,node/6934815690,Sainte Monique,0
,-4.0026122,5.3970104,node/6934815692,Centre Commercial du Dokui,0
,-4.0506908,5.3221354,node/6934872150,Yopougon Kowëit,0
,-4.0802555,5.3218817,node/6934872151,Sideci Matignon,0
,-4.0109827,5.4604925,node/6934922723,Abobo Akeikoi Village,0
,-4.0111108,5.4554315,node/6934922724,Destin,0
,-4.0126598,5.4531085,node/6934922725,André Bar,0
,-4.0136415,5.4493063,node/6934922726,Arrêt,0
,-4.0143429,5.4446991,node/6934922727,Arrêt,0
,-4.0141618,5.4400103,node/6934922728,Arrêt,0
,-4.0137548,5.4327535,node/6934922731,Arrêt,0
,-4.0124023,5.4336247,node/6934922732,Arrêt,0
,-4.0143033,5.4393221,node/6934922733,Arrêt,0
,-4.0145279,5.4445716,node/6934922734,Arrêt,0
,-4.0137662,5.4493357,node/6934922735,Arrêt,0
,-4.0127617,5.4531566,node/6934922736,André Bar,0
,-4.0112489,5.4554448,node/6934922737,Destin,0
,-4.0110518,5.4604068,node/6934922738,Abobo Akeikoi Village,0
,-4.0352396,5.3102833,node/6934970640,Gare Abobodoumé,0
,-4.0240914,5.4306528,node/6935113685,Arrêt,0
,-4.0236072,5.3314011,node/6935113687,Terminus tours Administratives,0
,-4.0273828,5.3591731,node/6935117220,Gare Nord,0
,-3.9897309,5.3610508,node/6935117222,Woodin,0
,-3.9897537,5.3653222,node/6935117223,[Arret sans nom],0
,-3.9898489,5.3685842,node/6935117224,Nsia Banque,0
,-3.9904759,5.372732,node/6935117225,Leader price,0
,-3.9926612,5.3770534,node/6935117227,Carrefour Sainte Cécile - Terminus 35,0
,-3.9926425,5.3771843,node/6935251104,Carrefour Sainte Cécile - Terminus 35,0
,-3.9904471,5.3742722,node/6935251105,Sococé Vallon,0
,-3.9897873,5.3686002,node/6935251106,Nsia Banque,0
,-3.9897014,5.364963,node/6935251107,[Arret sans nom],0
,-3.9896753,5.3606736,node/6935251108,Woodin,0
,-3.9907542,5.3576192,node/6935251109,Versus Bank,0
,-3.9912866,5.3522302,node/6935251110,École de Police,0
,-3.99993,5.3387479,node/6935251111,Mermoz,0
,-4.0278565,5.3591581,node/6935251112,Gare Nord,0
,-3.9831166,5.2627714,node/6935274791,Groupe Scolaire Kouamé Konan,0
,-3.9774759,5.2569108,node/6935274792,Groupe Scolaire Petit Bassam,0
,-3.9696513,5.2576259,node/6935274793,Arrêt,0
,-3.965703,5.2585828,node/6935274794,Marché,0
,-3.9608596,5.2568159,node/6935274796,Pharmacie Océan,0
,-3.9581761,5.256199,node/6935274797,Lycée Moderne Port Bouët,0
,-3.9610527,5.2658583,node/6935274798,Carrefour Akwaba,0
,-3.9661886,5.2758153,node/6935274799,Digue de Koumassi,0
,-3.9692871,5.2813533,node/6935274800,CIE Bia Sud,0
,-3.962945,5.2900094,node/6935274801,Arrêt,0
,-3.9596587,5.2907532,node/6935274802,Arrêt,0
,-3.9555147,5.294113,node/6935274803,Gare Koumassi,0
,-3.9498116,5.298266,node/6935274804,Pharmacie Regina,0
,-3.9495504,5.2982253,node/6935274805,Pharmacie Regina,0
,-3.9582726,5.2909815,node/6935274806,Ajavon,0
,-3.9612938,5.2902818,node/6935274807,Foyer des Jeunes,0
,-3.9668678,5.2889304,node/6935274808,Centre Commercial Koumassi,0
,-3.9667035,5.2768282,node/6935274809,Carrefour Ancien Koumassi,0
,-3.9577992,5.2576733,node/6935274810,43ème Bima,0
,-3.9579253,5.2560567,node/6935274811,Lycée moderne Port-bouët ,0
,-3.9642432,5.2574824,node/6935274812,Nouveau Marché Port-Bouët,0
,-3.965754,5.2584759,node/6935274813,District de Port-Bouet,0
,-3.9693877,5.2576319,node/6935274814,Arrêt,0
,-3.9790309,5.2572754,node/6935274815,Arrêt,0
,-3.9893487,5.2569161,node/6935274816,Stade de la SIR,0
,-4.006142,5.3852315,node/6935401276,Arrêt,0
,-4.0060079,5.3852595,node/6935401277,Arrêt,0
,-4.0064532,5.3984537,node/6935401278,Arrêt,0
,-4.0064304,5.4022949,node/6935401279,Arrêt,0
,-4.0063405,5.4087036,node/6935401280,Arrêt,0
,-4.0062828,5.4109493,node/6935401281,Arrêt,0
,-4.0062493,5.4143906,node/6935401282,Arrêt,0
,-4.0170009,5.420498,node/6935401283,Arrêt,0
,-4.0141176,5.4189547,node/6935401284,Arrêt,0
,-4.0123071,5.4179854,node/6935407385,Arrêt,0
,-4.0094626,5.4164927,node/6935407386,Arrêt,0
,-4.0041834,5.2983706,node/6935488165,"Parc des Sports, Boulevard Valéry Giscard d'Estaing",0
,-3.9445075,5.2470403,node/6935488166,Carrefour Aéroport,0
,-3.9295542,5.2446806,node/6935488167,Arrêt,0
,-3.925598,5.2440381,node/6935488168,Arrêt,0
,-3.922044,5.2434545,node/6935488169,Arrêt,0
,-3.9170243,5.2426599,node/6935488170,Arrêt,0
,-3.9115848,5.2417851,node/6935488171,Arrêt,0
,-3.9051327,5.2407648,node/6935488172,Mosquée,0
,-3.9593026,5.260825,node/6935494486,Arrêt,0
,-3.984569,5.2976825,node/6935494487,Avenue de la Côte d'Ivoire / Boulevard V.G.E.,0
,-3.9005903,5.2402774,node/6935494488,Terminus Gonzagueville,0
,-3.9050053,5.2405691,node/6935494499,Mosquée,0
,-3.9104489,5.2414058,node/6935494500,Arrêt,0
,-3.9156765,5.2422365,node/6935494501,Arrêt,0
,-3.9216458,5.243186,node/6935494502,Arrêt,0
,-3.9251152,5.2437256,node/6935494503,Arrêt,0
,-3.9298091,5.2444775,node/6935494504,Arrêt,0
,-3.9372025,5.2456701,node/6935494505,Arrêt,0
,-3.94366,5.2467051,node/6935494506,Arrêt,0
,-3.9541537,5.2492829,node/6935494507,Arrêt,0
,-3.9579213,5.2573475,node/6935494508,43ème Bima,0
,-4.0065188,5.299118,node/6935494509,Palais des Sports,0
,-4.0149692,5.3101948,node/6935494511,Avenue Christiani,0
,-4.0082087,5.3002327,node/6937770645,Arrêt,0
,-3.9594314,5.2618319,node/6937770646,Arrêt,0
,-3.9424717,5.2467278,node/6937770647,Arrêt,0
,-3.9007735,5.2400864,node/6937770648,Terminus Gonzagueville,0
,-3.8973275,5.2395482,node/6937770649,Arrêt,0
,-3.893671,5.2389973,node/6937770650,Arrêt,0
,-3.8845293,5.2375957,node/6937770652,Pharmacie Bénediction,0
,-3.8802069,5.2369286,node/6937770653,Anani,0
,-3.8798529,5.2368898,node/6937770654,Anani,0
,-3.8749894,5.2369172,node/6937770655,Anani - Rond-point,0
,-3.8833565,5.2372444,node/6937770656,Arrêt,0
,-3.888965,5.2380744,node/6937770657,Collège privé les Cartésiens d'Abidjan,0
,-3.8928086,5.2386868,node/6937770658,Arrêt,0
,-3.8962466,5.2391862,node/6937770659,Arrêt,0
,-3.9013763,5.2399789,node/6937770660,Terminus Gonzagueville,0
,-3.9649889,5.256211,node/6937789671,Arrêt,0
,-4.01522,5.4354794,node/6938095648,Gare Abobo Sogephia,0
,-4.0222809,5.4251869,node/6938222040,Arrêt,0
,-4.0239143,5.4191963,node/6938222041,Arrêt,0
,-4.0240283,5.4148659,node/6938222042,Arrêt,0
,-4.0292727,5.4147991,node/6938222043,Arrêt,0
,-4.0807772,5.5005578,node/6938324861,Ebimpé Village,0
,-4.0807946,5.5031942,node/6938324862,Arrêt,0
,-4.0801696,5.5033771,node/6938324863,Arrêt,0
,-4.0769751,5.5031182,node/6938324864,Arrêt,0
,-4.0770207,5.5007033,node/6938324865,Arrêt,0
,-4.0762322,5.5002134,node/6938324866,Arrêt,0
,-4.07344,5.5002334,node/6938324867,Arrêt,0
,-4.0699397,5.5000185,node/6938324868,Arrêt,0
,-4.066591,5.4982283,node/6938324869,Arrêt,0
,-4.0678543,5.4912933,node/6938324870,Arrêt,0
,-4.0690076,5.4869787,node/6938324871,Arrêt,0
,-4.0697157,5.4842033,node/6938324872,Arrêt,0
,-4.0709844,5.4791892,node/6938324873,Arrêt,0
,-4.0715718,5.4769371,node/6938324874,Arrêt,0
,-4.072693,5.4724328,node/6938324875,Arrêt,0
,-4.0737471,5.4679499,node/6938324876,Arrêt,0
,-4.0739322,5.4644949,node/6938324877,Arrêt,0
,-4.0733501,5.4606874,node/6938324878,Arrêt,0
,-4.0724757,5.4565342,node/6938324879,Arrêt,0
,-4.0713693,5.4517454,node/6938324880,Arrêt,0
,-4.0706693,5.4485133,node/6938324881,Arrêt,0
,-4.0696567,5.4441757,node/6938324882,Arrêt,0
,-4.0681963,5.4435135,node/6938324883,Arrêt,0
,-4.056062,5.443862,node/6938324884,Arrêt,0
,-4.0494295,5.4440736,node/6938343085,Arrêt,0
,-3.9639542,5.2608437,node/6938407500,Hotel Communal Port-Bouët,0
,-3.9635653,5.2629757,node/6938407501,Hôpital Géneral de Port-Bouët,0
,-3.9564407,5.293872,node/6938407503,Arrêt,0
,-3.8886204,5.2382227,node/6938407504,Collège privé les Cartésiens d'Abidjan,0
,-3.9975952,5.3640511,node/6938756997,Farandole,0
,-3.9845087,5.4036801,node/6938792077,Arrêt,0
,-3.993252,5.3829263,node/6938792078,Arrêt,0
,-4.0186301,5.3147389,node/6938792079,Gare Sud,0
,-3.9887345,5.3010837,node/6939014886,Arrêt,0
,-3.9663789,5.3023803,node/6939014887,Pharmacie Sainte Aghate,0
,-3.9640502,5.3029659,node/6939014888,Terminus Remblais 03,0
,-3.9638825,5.302855,node/6939014890,Terminus Remblais 03,0
,-3.9684999,5.3018088,node/6939014891,Arrêt,0
,-3.9714879,5.2984764,node/6939014892,Arrêt,0
,-3.9848064,5.3022895,node/6939014894,Arrêt,0
,-4.0274686,5.359076,node/6939014895,Gare Nord,0
,-4.0059154,5.2875728,node/6939076692,Terminus dépôt SOTRA,0
,-4.0768933,5.3314425,node/6944816371,Sideci Pharmacie Lem,0
,-4.0798317,5.3305385,node/6944816372,Sideci Lem,0
,-4.0813807,5.3270574,node/6944816373,[Arret sans nom],0
,-4.0806283,5.3246445,node/6944816374,Akadjoba,0
,-4.0237293,5.3310827,node/6944887181,Terminus tours Administratives,0
,-4.0220542,5.4253525,node/6944887182,Arrêt,0
,-4.0240122,5.4193151,node/6944887183,Arrêt,0
,-4.0241008,5.4150828,node/6944887184,Arrêt,0
,-4.0292533,5.4148679,node/6944920985,Arrêt,0
,-4.0334697,5.4148038,node/6944920986,Terminus bus 51/52,0
,-4.0817052,5.3274379,node/6944934858,Arrêt,0
,-4.080812,5.330154,node/6944934859,Sideci Lem - Carrefour Sgbci,0
,-4.0773064,5.3314305,node/6944934860,Sideci Pharmacie Lem,0
,-3.99141,5.3521541,node/6945017053,École de Police,0
,-3.9914516,5.3569943,node/6945017054,Arrêt,0
,-4.0082677,5.2865574,node/6945458783,Siège SOTRA,0
,-3.9722067,5.2569502,node/6945659474,Station Oilibya,0
,-3.9647529,5.2566851,node/6945659475,Arrêt,0
,-3.9643009,5.2546846,node/6945659476,Pharmacie Atlantique,0
,-3.9565238,5.2511255,node/6945659477,Port-Bouët Phare,0
,-4.0047848,5.2531341,node/6945864857,Vridi canal - Terminus 23,0
,-4.0046923,5.2531701,node/6945864858,Vridi canal - Terminus 23,0
,-4.0087358,5.2657115,node/6945864859,[Arret sans nom],0
,-4.0033337,5.2957541,node/6945864860,Arrêt du CHU,0
,-4.0134249,5.260642,node/6945966271,Ciprel,0
,-4.0138507,5.2649101,node/6945966272,[Arret sans nom],0
,-4.011446,5.265254,node/6945966273,[Arret sans nom],0
,-4.0086137,5.2660346,node/6945966274,[Arret sans nom],0
,-4.0060763,5.2688363,node/6945966275,[Arret sans nom],0
,-3.9581171,5.3539352,node/6948222228,Arrêt,0
,-3.9522725,5.3417576,node/6948222230,Arrêt,0
,-3.9521505,5.3392567,node/6948222231,Arrêt,0
,-3.952243,5.3384929,node/6948222232,Arrêt,0
,-3.943904,5.334941,node/6948222233,Carrefour Ambassade de Chine,0
,-3.9452136,5.3392333,node/6948222234,Antenne,0
,-3.9428439,5.3385917,node/6948222235,Akwaba,0
,-3.9393644,5.3355172,node/6948222236,Pharmacie,0
,-3.9368539,5.3328633,node/6948222237,Arrêt,0
,-3.9348771,5.3307248,node/6948222238,Centre de santé Municipal de M'Badon,0
,-3.9323347,5.3286344,node/6948222239,Teminus M'Badon,0
,-3.9322612,5.3285142,node/6948270620,Teminus M'Badon,0
,-3.9347577,5.3305385,node/6948270621,Centre de santé Municipal de M'Badon,0
,-3.9397017,5.3357956,node/6948270622,Pharmacie,0
,-3.9451191,5.339027,node/6948270623,Arrêt,0
,-3.9418454,5.3329114,node/6948270624,Ambassade de Chine,0
,-3.9568537,5.3538285,node/6948270625,Arrêt,0
,-3.9368337,5.3327177,node/6948290580,Arrêt,0
,-3.9429814,5.3385823,node/6948290581,Bureau Bad,0
,-3.9438068,5.3350024,node/6948290582,[Arret sans nom],0
,-3.9767852,5.353946,node/6948466331,Arrêt,0
,-3.9695473,5.3560356,node/6948466332,Arrêt,0
,-3.9273548,5.3732347,node/6948466333,Arrêt,0
,-3.9221262,5.3744488,node/6948466334,Arrêt,0
,-3.9116914,5.3738883,node/6948466335,Késsé,0
,-3.9090387,5.3664705,node/6948466336,Syndicat,0
,-3.8946091,5.3613312,node/6948466337,Station TEXACO,0
,-3.8895766,5.357652,node/6948466338,La Poste,0
,-3.8879555,5.357433,node/6948466339,Pharmacie Du Marché,0
,-3.8903531,5.3576379,node/6948466341,Sous-Prefecture de Bingerville,0
,-3.9285967,5.372677,node/6948466343,Nouveau Goudron,0
,-4.0026914,5.3455151,node/6948466345,Pharmacie les 7 Colonnes,0
,-3.9906777,5.3346312,node/6948695731,Arrêt,0
,-3.9758237,5.3396564,node/6948695732,Arrêt,0
,-3.9761442,5.3414919,node/6948695733,Arrêt,0
,-3.9751571,5.3438403,node/6948695734,Arrêt,0
,-3.975412,5.3470921,node/6948695735,Arrêt,0
,-3.9767209,5.3520693,node/6948695736,Arrêt,0
,-3.9760919,5.3530066,node/6948695738,Arrêt,0
,-3.9766203,5.35209,node/6948695739,Arrêt,0
,-3.9752188,5.3468223,node/6948695740,Arrêt,0
,-3.9750874,5.343802,node/6948695741,Arrêt,0
,-3.9760651,5.3416148,node/6948695742,Arrêt,0
,-3.9757586,5.3397193,node/6948695743,Arrêt,0
,-3.9754911,5.3385022,node/6948695744,Arrêt,0
,-3.9902714,5.3344937,node/6948695745,Arrêt,0
,-3.9957176,5.3349056,node/6948695746,Arrêt,0
,-4.0157926,5.321664,node/6948706680,Warafa Assurance,0
,-4.0152582,5.3184017,node/6948706681,Arrêt Résidence Nabil,0
,-4.0092923,5.3044274,node/6948706682,[Arret sans nom],0
,-4.0042001,5.2949249,node/6948791226,Terminus CHU Treichville,0
,-3.9679608,5.3565604,node/6948855820,Arrêt,0
,-3.9614752,5.3599399,node/6948855821,Arrêt,0
,-3.9289306,5.3717967,node/6948855822,Cité Millenium,0
,-3.9253854,5.3584311,node/6948855823,Arrêt,0
,-3.9247158,5.3556661,node/6948855824,Arrêt,0
,-3.924163,5.3532496,node/6948855825,Arrêt,0
,-3.9233825,5.3498507,node/6948855826,Collège Jeune Filles,0
,-3.9225573,5.3397928,node/6948855827,Oribat Cité Don Mello,0
,-3.9226348,5.3329467,node/6948855828,Arrêt,0
,-3.9191627,5.3282217,node/6948855829,Arrêt,0
,-3.9169304,5.3283086,node/6948855830,Paroisse,0
,-3.9164444,5.3221383,node/6948855831,EPP Abatta,0
,-3.923136,5.3342136,node/6948920956,Arrêt,0
,-3.9158679,5.3262131,node/6948920957,Arrêt,0
,-3.9161935,5.3267028,node/6948920958,EPP Abatta,0
,-3.9169358,5.3282218,node/6948920959,Paroisse,0
,-3.9227374,5.3329487,node/6948920960,Arrêt,0
,-3.9220896,5.3417243,node/6948920961,Arrêt,0
,-3.9222706,5.3443775,node/6948920962,Arrêt,0
,-3.9228521,5.3471041,node/6948920963,Arrêt,0
,-3.9242797,5.3532917,node/6948920964,Arrêt,0
,-3.9254397,5.3583733,node/6948920965,Arrêt,0
,-3.9258534,5.359984,node/6948920966,Sodeci Abatta,0
,-3.9301027,5.3722754,node/6948920967,Nouveau Goudron,0
,-3.968976,5.2579604,node/6951127812,Arrêt,0
,-3.9654422,5.2597086,node/6951127813,Mairie Port-Bouët,0
,-3.9687383,5.2595919,node/6951127815,[Arret sans nom],0
,-4.0181731,5.3145654,node/6951127816,Gare Sud,0
,-3.9533649,5.3373639,node/6951182059,Arrêt,0
,-3.9559445,5.3344449,node/6951182060,Arrêt,0
,-3.9570247,5.3308416,node/6951182061,Arrêt,0
,-3.9531144,5.3295658,node/6951182062,Arrêt,0
,-3.9535137,5.3296352,node/6951182064,Arrêt,0
,-3.9572031,5.330835,node/6951182065,Arrêt,0
,-3.952412,5.3414479,node/6951182066,Arrêt,0
,-3.9630926,5.2921887,node/6951224049,Arrêt,0
,-3.9693582,5.2898905,node/6951224050,Commissariat de Police du 6ᵉ,0
,-4.0276527,5.3586694,node/6951224051,Gare Nord,0
,-3.9554248,5.2941431,node/6951939383,Gare Koumassi,0
,-4.0273499,5.3587923,node/6951939384,Gare Nord,0
,-3.9635003,5.3024324,node/6952071069,Terminus 31 Remblais,0
,-3.9623322,5.2975569,node/6952071070,Trois Ampoules,0
,-4.0109539,5.2988296,node/6952132224,"BIAO, Treichville",0
,-3.9883868,5.2884596,node/6952132225,"Pizza, Marcory",0
,-3.9855024,5.2853422,node/6952132226,"Bernabé Parc à Fer, Boulevard de Marseille",0
,-3.9824903,5.2786718,node/6952132227,[Arret sans nom],0
,-3.9767262,5.2734369,node/6952132228,Église Notre-Dame d'Afrique,0
,-3.9714865,5.2734089,node/6952132229,Sept Villas,0
,-3.9672503,5.276028,node/6952132230,Arrêt,0
,-3.9434065,5.2486135,node/6952132232,Arrêt,0
,-3.9386439,5.2544081,node/6952132233,EPP Aéroport,0
,-3.934246,5.2536201,node/6952132234,Aéroport,0
,-3.9450909,5.2469401,node/6952132235,Carrefour Aéroport,0
,-3.9409603,5.2544028,node/6952132240,Cité ASECNA,0
,-3.9424355,5.2508117,node/6952132241,Arrêt,0
,-3.9435728,5.2480679,node/6952132242,Arrêt,0
,-3.947171,5.247278,node/6952132243,Maquis 5 sur 5,0
,-3.9610943,5.2567618,node/6952132244,Pharmacie Océan,0
,-3.9627318,5.266498,node/6952132245,Abattoir Port-Bouët,0
,-3.9751598,5.2726637,node/6952132246,Arrêt,0
,-3.9878453,5.28785,node/6952132247,Arrêt,0
,-3.9917104,5.2895893,node/6952132248,Arrêt,0
,-3.9954532,5.2912033,node/6952132250,Arrêt,0
,-4.0104501,5.2984459,node/6952132251,"BIAO, Treichville",0
,-4.0182926,5.3144382,node/6952132252,Gare Sud,0
,-3.9495367,5.3091986,node/6952200468,Arrêt,0
,-3.9481486,5.3097742,node/6952200469,Centre Médico-social,0
,-3.9837456,5.3012025,node/6952200470,Hôpital Général de Marcory,0
,-3.986865,5.3034286,node/6952200471,Arrêt,0
,-4.0094613,5.3042605,node/6952200472,Arrêt,0
,-4.007007,5.3052353,node/6952200475,Arrêt,0
,-3.9855715,5.3027926,node/6952200476,Arrêt,0
,-3.952005,5.3118954,node/6952200477,Akromiambla-Terminus 32 Koumassi,0
,-4.0471624,5.441531,node/6952244517,Arrêt,0
,-4.0559909,5.4436978,node/6952566208,Arrêt,0
,-4.0699545,5.4448793,node/6952566209,Arrêt,0
,-4.0708852,5.4490874,node/6952566210,Arrêt,0
,-4.0716147,5.4522514,node/6952566211,Arrêt,0
,-4.0718146,5.4532246,node/6952566212,Arrêt,0
,-4.0726206,5.4567491,node/6952566213,Arrêt,0
,-4.0734789,5.4606701,node/6952566214,Arrêt,0
,-4.0739724,5.4636378,node/6952566215,Arrêt,0
,-4.074022,5.4644695,node/6952566216,Arrêt,0
,-4.0738437,5.4679793,node/6952566217,Arrêt,0
,-4.0727828,5.4724295,node/6952566218,Arrêt,0
,-4.0716872,5.4769985,node/6952566219,Arrêt,0
,-4.0710461,5.4793881,node/6952566220,Arrêt,0
,-4.0703045,5.4821955,node/6952566221,Arrêt,0
,-4.0699115,5.4839777,node/6952566222,Arrêt,0
,-4.0692893,5.486354,node/6952566223,Arrêt,0
,-4.0680795,5.4911611,node/6952566224,Arrêt,0
,-4.0667948,5.4982644,node/6952566225,Arrêt,0
,-4.0740864,5.5001119,node/6952566226,Arrêt,0
,-4.0767123,5.5000518,node/6952566227,Arrêt,0
,-3.9734097,5.2862329,node/6954138437,Petit Café,0
,-3.9775054,5.2807083,node/6954138438,Arrêt,0
,-3.9804116,5.2823321,node/6954138439,Arrêt,0
,-4.0126625,5.300639,node/6954138440,Arrêt,0
,-3.9828832,5.28394,node/6954138442,Agence Nationale de la Formation Professionnelle (AGEFOP),0
,-3.9776556,5.2809293,node/6954138443,Arrêt,0
,-3.973057,5.2870755,node/6954138444,UTTb Université Loko,0
,-3.9693475,5.2892455,node/6954138445,Marché DjeKonan,0
,-3.9518099,5.3133129,node/6954138446,Arrêt,0
,-3.9679319,5.2834138,node/6954511639,CIE Koumassi,0
,-3.9686649,5.286559,node/6954511640,Hôpital de Koumassi,0
,-4.0989914,5.3583583,node/6954926526,[Arret sans nom],0
,-4.1000086,5.3615502,node/6954926527,[Arret sans nom],0
,-4.0967993,5.3641759,node/6954926528,[Arret sans nom],0
,-3.9531577,5.2859504,node/6955038705,Koumassi Soweto - Dépôt 5,0
,-3.9582532,5.2847586,node/6955038706,Pharmacie Bethanie,0
,-3.9611265,5.2840528,node/6955038707,Sation Lavage,0
,-3.9680882,5.2836422,node/6955038708,CIE Koumassi,0
,-3.9688808,5.2870421,node/6955038709,Hôpital de Koumassi,0
,-3.984628,5.2996014,node/6955038710,Pharmacie Massarana,0
,-4.0275521,5.3587075,node/6955038711,Gare Nord,0
,-4.0217512,5.3331711,node/6955514933,Cité Administrative,0
,-3.9598243,5.3635731,node/6955514934,Arrêt Pharmacie Palmeraie,0
,-3.9580205,5.3710263,node/6955514935,Arrêt,0
,-3.9587393,5.3720811,node/6955514936,Arrêt,0
,-3.964382,5.3808935,node/6955514937,Cocody SCI Les Rosiers,0
,-3.9598592,5.3727874,node/6955514938,Arrêt,0
,-3.9592516,5.3685488,node/6955514939,Arrêt,0
,-4.0184346,5.3149553,node/6955514940,Gare Sud,0
,-3.9341971,5.253474,node/6958966895,Aéroport,0
,-3.981805,5.2774525,node/6961370878,Arrêt,0
,-3.9788787,5.2744205,node/6961370879,Pharmacie de Bietry,0
,-3.9421921,5.2516684,node/6961370880,Arrêt Dr08,0
,-3.9410589,5.2543801,node/6961370881,Cité ASECNA,0
,-4.0725361,5.3618139,node/6961643500,[Arret sans nom],0
,-4.0923724,5.373881,node/6961643501,[Arret sans nom],0
,-4.0945986,5.3718154,node/6961643502,[Arret sans nom],0
,-4.0858988,5.3396466,node/6963093974,Amondji,0
,-4.0810166,5.3395998,node/6963093975,Arrêt,0
,-4.0792436,5.3382505,node/6963093976,Pont Vagabond,0
,-4.0747274,5.3403236,node/6963093977,Arrêt,0
,-4.0181436,5.3147296,node/6963093979,Gare Sud,0
,-4.0732643,5.3415106,node/6963093981,Saint André lavage,0
,-4.0859069,5.3395197,node/6963093982,Amondji,0
,-3.9928235,5.3883091,node/6964184463,Aghien 2 plateaux,0
,-4.0044791,5.3359625,node/6964184464,[Arret sans nom],0
,-3.9923066,5.3885302,node/6964184466,Aghien 2 plateaux,0
,-4.0021368,5.3502206,node/6964184467,Carrefour la Vie,0
,-3.9596674,5.3635871,node/6964502135,Arrêt Pharmacie Palmeraie,0
,-4.0846449,5.3609547,node/6966758103,BAE,0
,-4.0882243,5.3551851,node/6966758104,Arrêt,0
,-4.0957546,5.3549701,node/6966758105,Carrefour Antenne Ananeraie,0
,-4.0988526,5.354878,node/6966758106,Oasis,0
,-4.0993729,5.3502259,node/6966758107,Sorbonne,0
,-4.0997625,5.3462622,node/6966758108,Arrêt,0
,-4.1031267,5.333344,node/6966758109,Arrêt,0
,-4.1044571,5.3292232,node/6966758111,Arrêt,0
,-4.1004723,5.3441658,node/6966758112,Arrêt,0
,-4.0999784,5.3460138,node/6966758113,Arrêt,0
,-4.0994869,5.3500978,node/6966758114,Sorbonne,0
,-4.0994742,5.3529605,node/6966758115,Arrêt,0
,-4.0992308,5.3549421,node/6966758116,Oasis,0
,-4.0918869,5.3551971,node/6966758117,Arrêt,0
,-4.016671,5.3233545,node/6966849451,Arrêt,0
,-4.0138976,5.4486134,node/6966849452,Arrêt,0
,-3.9637296,5.2613392,node/6966927285,Hotel Communal Port-Bouët,0
,-3.9605525,5.2528723,node/6966927286,Wharf Port-Bouët,0
,-4.0132633,5.3027916,node/6966927287,Arrêt,0
,-4.0140968,5.4469386,node/6966942817,Arrêt,0
,-4.0166429,5.4381706,node/6966942818,Arrêt,0
,-4.0159589,5.4141149,node/6966942819,Arrêt,0
,-4.0164229,5.4069719,node/6966942820,Arrêt,0
,-4.0007964,5.2655592,node/6967070473,Arrêt,0
,-4.0085238,5.2772629,node/6967070474,Arrêt,0
,-4.0085185,5.279469,node/6967070475,Arrêt,0
,-4.0210712,5.3959876,node/6967070476,Arrêt,0
,-4.016604,5.4118438,node/6967070477,Arrêt,0
,-4.0178807,5.4197437,node/6967070478,Arrêt,0
,-4.0187565,5.4227157,node/6967070479,Arrêt,0
,-4.0289891,5.4356834,node/6967070480,Arrêt,0
,-4.0302558,5.4364023,node/6967070481,Arrêt,0
,-4.0319341,5.4370672,node/6967070482,Arrêt,0
,-4.0332256,5.4373075,node/6967070483,Arrêt,0
,-4.0362847,5.4377581,node/6967070484,Arrêt,0
,-4.0391982,5.4381539,node/6967074785,Arrêt,0
,-4.0485819,5.4435976,node/6967074787,PK 18 Agripac,0
,-4.0197301,5.4255661,node/6967158577,Arrêt,0
,-4.017465,5.4195782,node/6967158578,Arrêt,0
,-4.0226068,5.3053862,node/6967158579,Arrêt,0
,-4.0082905,5.2891307,node/6967158580,Pharmacie du Port,0
,-4.0212006,5.4269192,node/6968911549,Abobo Gendarmerie,0
,-4.0229219,5.4289586,node/6968911550,Arrêt,0
,-4.0812264,5.4078444,node/6968911551,Arrêt,0
,-4.0851445,5.3570551,node/6968911556,CHU de Yopougon,0
,-4.080236,5.3698106,node/6968911557,Arrêt,0
,-4.0777087,5.3746728,node/6968911558,Arrêt,0
,-4.0687166,5.4392253,node/6968911559,Arrêt,0
,-4.0793476,5.3423532,node/6969221528,Arrêt,0
,-4.0177429,5.3141434,node/6969221530,Gare Sud,0
,-3.9117702,5.3743039,node/6969371620,Feh Kessé,0
,-4.0097992,5.3472803,node/6969583471,Clinique Providence,0
,-4.0106696,5.3451973,node/6969583472,Supermarché Casino,0
,-4.0185824,5.3147951,node/6969583474,Gare Sud,0
,-4.01752,5.3154387,node/6969583476,Gare Sud,0
,-4.0166201,5.3161731,node/6969583477,Novotel,0
,-4.0151837,5.3172748,node/6969583478,[Arret sans nom],0
,-4.015578,5.3202726,node/6969583479,Arrêt,0
,-4.0192916,5.3209056,node/6969583480,Arrêt,0
,-4.0207359,5.3217388,node/6969583481,Arrêt,0
,-4.0207185,5.3233639,node/6969583482,Hotel de Ville,0
,-4.0207171,5.3257514,node/6969583483,Arrêt,0
,-4.0207332,5.3278011,node/6969583484,Arrêt,0
,-4.0217525,5.3335937,node/6969620785,Cité Administrative,0
,-3.985249,5.4031227,node/6970095632,Termunis 81/82,0
,-3.9859892,5.3971746,node/6970095633,Arrêt,0
,-3.9875704,5.3841166,node/6970095634,Pharmacie Les 7 Lys,0
,-3.979157,5.3643008,node/6970095635,Arrêt,0
,-3.977256,5.3542958,node/6970095637,Riviera 2,0
,-3.978931,5.3623286,node/6970095638,Arrêt,0
,-3.9866585,5.3924174,node/6970095639,DGI,0
,-3.9853522,5.4031427,node/6970095641,Termunis 81/82,0
,-3.9506122,5.3554107,node/6970366278,Arrêt,0
,-3.950804,5.3552038,node/6970366281,Arrêt,0
,-3.9482653,5.3652007,node/6970366282,Arrêt,0
,-3.9522095,5.3643008,node/6970366283,Arrêt,0
,-4.0181825,5.403546,node/6979256984,Arrêt,0
,-3.9848581,5.4038146,node/6979431044,Arrêt,0
,-3.977142,5.39671,node/6979431045,Arrêt,0
,-3.9754421,5.3902524,node/6979431046,Arrêt,0
,-3.9747639,5.387788,node/6979431047,Arrêt,0
,-3.9737651,5.3839137,node/6979431048,Arrêt,0
,-3.9734902,5.3828575,node/6979431049,Arrêt,0
,-3.9627425,5.3749859,node/6979431051,Arrêt,0
,-3.984727,5.4036825,node/6979431052,Arrêt,0
,-3.9195342,5.3281463,node/6979712503,Arrêt,0
,-3.9224169,5.3318471,node/6979712504,Arrêt,0
,-3.9227159,5.3394623,node/6979712505,Arrêt,0
,-3.923066,5.3479974,node/6979712506,Arrêt,0
,-3.9234415,5.3497346,node/6979712507,Arrêt,0
,-3.924564,5.3546363,node/6979712508,Arrêt,0
,-3.9253713,5.3579717,node/6979712509,Arrêt,0
,-3.9221386,5.3601,node/6979712510,Arrêt;Sodeci,0
,-3.9265072,5.3622665,node/6979712511,Arrêt,0
,-3.9268023,5.3635464,node/6979712512,Arrêt,0
,-3.928193,5.3687351,node/6979712513,Arrêt,0
,-3.9379911,5.3703787,node/6979712514,Arrêt,0
,-3.9279167,5.3679286,node/6979712515,Arrêt,0
,-3.9227716,5.3470093,node/6979712516,Arrêt,0
,-3.9223344,5.3449917,node/6979712517,Arrêt,0
,-3.9218402,5.3428352,node/6979712518,Arrêt,0
,-3.9221104,5.3413324,node/6979712519,Arrêt,0
,-3.9344399,5.2452454,node/6980029236,Arrêt,0
,-3.9723435,5.2569228,node/6980029237,Arrêt,0
,-4.0062828,5.2684644,node/6980029238,Bank Of Africa,0
,-4.0139727,5.2646043,node/6980029239,Arrêt,0
,-4.0112543,5.2587043,node/6980029241,Arrêt,0
,-4.0138916,5.2648347,node/6980029242,[Arret sans nom],0
,-4.006083,5.2686721,node/6980029243,[Arret sans nom],0
,-3.9560491,5.2509145,node/6980258130,Terminus Port-Bouët Phare,0
,-4.0032211,5.3433974,node/6980521688,Arrêt,0
,-3.9976139,5.3628414,node/6980521689,Arrêt,0
,-4.0057075,5.399921,node/6980521690,Arrêt,0
,-4.0065511,5.4015232,node/6980521691,Arrêt,0
,-4.0065081,5.4034191,node/6980521692,Arrêt,0
,-4.0192406,5.4241696,node/6980521695,Terminus Gendarmerie Abobo,0
,-4.0134712,5.4185708,node/6980521696,Arrêt,0
,-4.0074744,5.4155561,node/6980521697,Arrêt,0
,-4.0062694,5.4135434,node/6980521698,Arrêt,0
,-4.0064277,5.4035807,node/6980521699,Arrêt,0
,-3.9990999,5.3998663,node/6980521700,Arrêt,0
,-3.992904,5.3987194,node/6980521701,Arrêt,0
,-3.9927913,5.387006,node/6980521702,Arrêt,0
,-3.9934525,5.3819122,node/6980521703,Arrêt,0
,-3.9718473,5.2578469,node/7025968250,Arrêt,0
,-3.9994057,5.2642798,node/7025975082,Arrêt,0
,-4.003783,5.2682835,node/7025975083,Arrêt,0
,-4.10439,5.3292373,node/7025992286,Arrêt,0
,-4.0083388,5.2771214,node/7026069662,[Arret sans nom],0
,-4.0149826,5.341978,node/7026279881,Arrêt,0
,-3.9547831,5.2855772,node/7026364429,Arrêt,0
,-3.9641359,5.2850417,node/7026390486,[Arret sans nom],0
,-3.9616643,5.2566557,node/7028872830,Océan Espadon,0
,-4.0278525,5.3588917,node/7028872831,Gare Nord,0
,-3.9736383,5.3534289,node/7043603291,Cité étudiante Riviera 2,0
,-4.0957761,5.3550743,node/7043642288,Carrefour Antenne Ananeraie,0
,-4.0344058,5.3109066,node/7044975088,Gare Lagunaire Yopougon STL,0
,-4.0170439,5.3143858,node/7044975089,Gare Lagunaire Plateau STL,0
,-4.0100701,5.3135839,node/7044975090,Gare Lagunaire Treichville STL,0
,-3.952125,5.315627,node/7046900012,Gare Lagunaire Koumassi STL,0
,-3.9603245,5.3240676,node/7046900013,Gare Lagunaire M'pouto STL,0
,-4.015859,5.3108107,node/7046964142,Gare Lagunaire de Treichville Sotra,0
,-4.0347196,5.3107009,node/7046964143,Gare Lagunaire d’Abobo-Doumé Sotra,0
,-4.0176728,5.3140753,node/7047063325,Gare Lagunaire du Plateau Sotra,0
,-4.0021442,5.3212342,node/7047101136,Gare lagunaire de Blockauss Sotra,0
,-4.0016118,5.3562773,node/7047930662,Arrêt,0
,-3.9856634,5.4096636,node/7047930663,Arrêt,0
,-3.9091802,5.3665112,node/7048020780,Syndicat,0
,-3.9119428,5.3739184,node/7048020781,Késsé,0
,-3.9446417,5.3676562,node/7048020782,Camp Millitaire d'Akouédo,0
,-3.9495032,5.3652501,node/7048020783,Église Apostolique de Côte d'Ivoire,0
,-4.1020069,5.3672056,node/7049258139,Yopougon Gesco - Terminus du bus 34,0
,-4.0973914,5.365903,node/7049258140,Arrêt,0
,-4.0976979,5.3634963,node/7049258141,Arrêt,0
,-4.1003995,5.3608051,node/7049258142,Arrêt,0
,-4.0998034,5.3587021,node/7049258143,Arrêt,0
,-4.0940326,5.3582214,node/7049258144,Mamie Adjoua,0
,-4.088628,5.3552799,node/7049258145,Arrêt,0
,-4.0120965,5.3009034,node/7049730219,Arrêt,0
,-3.9392397,5.2545644,node/7049730220,EPP Aéroport,0
,-3.9712512,5.2734289,node/7049730221,Sept Villas,0
,-3.9852691,5.2844982,node/7049730222,Arrêt,0
,-4.0031956,5.3485715,node/7051810979,Carrefour La Vie,0
,-4.0128221,5.3528057,node/7051810981,Terminus Liberté,0
,-3.9885668,5.3503194,node/7051810982,Ecole de Police,0
,-3.9797437,5.3530834,node/7051810984,Riviera 2,0
,-3.9788968,5.3529853,node/7051811086,Station Total Riviera 2,0
,-3.9909077,5.35446,node/7051811087,Vallon,0
,-4.0043946,5.3546991,node/7051811088,Escalier,0
,-4.0146225,5.3533605,node/7051811090,Adjamé liberté,0
,-4.0228106,5.3498521,node/7051905145,Gare Anono,0
,-4.0223607,5.3495777,node/7051905146,Station,0
,-4.0227932,5.347757,node/7051905147,Banfora,0
,-4.0227107,5.3464705,node/7051905148,Marché,0
,-4.0226899,5.3451372,node/7051905149,Eglise Saint Michel,0
,-4.0234597,5.343631,node/7051905150,Eglise,0
,-3.9993949,5.3490415,node/7051905151,SODEFOR,0
,-3.9919236,5.3494341,node/7051905152,Carrefour CHU,0
,-3.9869374,5.3505471,node/7051905153,Arrêt,0
,-3.9724706,5.3445751,node/7051905154,Terminus Anono,0
,-3.9744008,5.3452895,node/7051905155,Marché,0
,-3.9724521,5.34455,node/7051905157,Terminus Anono,0
,-3.9769623,5.3504075,node/7051905159,Arrêt,0
,-3.9778259,5.3500924,node/7051905160,Au Lavage,0
,-3.9809205,5.3510311,node/7051905161,A la Mosquée,0
,-3.9905101,5.349577,node/7051905162,Carrefour CHU,0
,-4.0228461,5.3497766,node/7051905163,Gare Anono,0
,-3.989405,5.3501191,node/7052162358,Ecole de Police,0
,-4.0226577,5.3454176,node/7052162359,Carrefour Saint Michel,0
,-4.0216117,5.3418391,node/7052162360,A La Caisse,0
,-3.9457347,5.3673438,node/7052162361,Akouédo,0
,-3.9324155,5.3719142,node/7052162362,Playce Palmeraie,0
,-3.9287925,5.3728529,node/7052162363,Nouveau Goudron,0
,-3.9122875,5.3743603,node/7052162364,Kessé,0
,-3.8981583,5.3602229,node/7052162365,CIE,0
,-3.8947412,5.3613609,node/7052162366,Station Texaco,0
,-3.8882764,5.3575885,node/7052162367,Collège Moderne,0
,-3.8845441,5.3573081,node/7052162369,Carrefour Bangui,0
,-3.8843443,5.357718,node/7052162370,Terminus Carrefour Bangui,0
,-3.8844985,5.3571933,node/7052162371,Carrefour Bangui,0
,-3.887693,5.3574283,node/7052162372,Collège Moderne,0
,-3.9374359,5.3703106,node/7052162373,Faya,0
,-4.0224532,5.350286,node/7052162375,Gare en haut,0
,-4.0218316,5.3493033,node/7052340401,Clinique Fraternité,0
,-4.0042631,5.3548993,node/7052340402,Escalier,0
,-3.9904813,5.3546376,node/7052340403,Vallon-1er Pont,0
,-4.0227482,5.3504162,node/7052340404,Gare en haut,0
,-3.9542839,5.3271876,node/7052340405,Terminus M'Pouto,0
,-3.9543486,5.3271989,node/7052340406,Terminus M'Pouto,0
,-3.9579682,5.3310206,node/7052340407,A l'Arrêt,0
,-3.9557567,5.3347781,node/7052340408,Banny,0
,-3.9537035,5.337175,node/7052340409,Maison Blanche,0
,-3.952691,5.3452694,node/7052340410,Mel Théodore,0
