stop_lon,parent_station,location_type,stop_name,stop_lat,stop_id
-4.0893341,,0,Yopougon Niangon-Terminus 27,5.3164439,node/768587345
-4.0804016,,0,Yopougon Sideci - Terminus 42,5.3198783,node/768587373
-4.0148847,,0,Gare lagunaire Aqualines du Plateau,5.3158647,node/1227889258
-4.0171229,,0,Agban,5.3608351,node/2381298633
-4.018311,,0,Fraternité Matin,5.3438972,node/2444131222
-4.0732432,,0,Saint André lavage,5.3423485,node/2460519991
-4.0238611,,0,Arrêt,5.3413464,node/2493226931
-3.9551669,,0,Gare Koumassi,5.2942027,node/2493730483
-3.945225,,0,Terminus 05 Lycée Municipal de Koumassi,5.3121324,node/2760843854
-4.0832298,,0,Terminus bus 47,5.3396167,node/2948146673
-4.0912463,,0,Arrêt du Maroc,5.3396157,node/3067761599
-4.0973067,,0,Mosquée du Maroc,5.3400629,node/3067766555
-4.0738295,,0,Saint André,5.3423254,node/3075945505
-4.0668084,,0,[Arret sans nom],5.3427541,node/3137208051
-4.0709484,,0,2 poteaux,5.3436761,node/3137217828
-4.0679411,,0,Newton,5.3446768,node/3137243386
-3.979568,,0,Riviera 2,5.3531115,node/3145728412
-3.9487208,,0,Eglise Evangélique Internationnal Foursquare,5.3117096,node/3218806159
-4.0037743,,0,Saint Jean,5.3368705,node/3326195828
-4.0884501,,0,Pharmacie Port-Bouët II,5.3470567,node/3666057101
-4.0734547,,0,Figayo,5.3493507,node/3950172145
-3.9973698,,0,ENA,5.3616481,node/4029208102
-3.9787018,,0,Pharmacie de Bietry,5.2742845,node/4107240891
-4.061373,,0,Terminus 85,5.3296306,node/4411562346
-4.004071,,0,Terminus CHU Treichville,5.2948647,node/4999458824
-4.011123,,0,Ex-pharmacie Mockey,5.30185,node/5057165424
-4.0039817,,0,Carrefour St Jean,5.3369029,node/5057297311
-3.9933116,,0,Terminus 704 abobo Belleville,5.4158258,node/5068855021
-3.940785,,0,Terminus M'pouto - CIAD,5.328322,node/5143730222
-3.9410686,,0,Terminus M'pouto - CIAD,5.3284442,node/5143751833
-4.0711802,,0,[Arret sans nom],5.3437686,node/5281604034
-4.0374018,,0,Gare lagunaire Aqualines Yopougon,5.3078259,node/5390465849
-4.0205264,,0,Stif,5.3555889,node/5414376221
-4.0623618,,0,Complexe sportif de Yopougon,5.3415133,node/5739489700
-4.073208,,0,Figayo,5.3493427,node/5927302128
-4.1003513,,0,Arrêt,5.3419897,node/5934409413
-4.1020437,,0,Yopougon Gesco - Terminus du bus 34,5.3671401,node/5936892363
-3.967352,,0,Pharmacie Val de Grace,5.3802448,node/5953580661
-3.9593077,,0,Carrefour Palmeraie,5.3618751,node/5953580667
-3.9643623,,0,Station Shell Riviera 3,5.3582581,node/5953580668
-3.9498433,,0,CIAD,5.3286164,node/5954541435
-3.9902179,,0,Boulevard de France,5.3347766,node/5954541439
-4.0024723,,0,Carrefour de la Vie,5.3492831,node/5954541440
-3.991548,,0,Carrefour 22ème,5.3989296,node/5957239662
-3.9931428,,0,Carrefour Opéra,5.3855754,node/5957239663
-3.9975968,,0,ENA,5.3615936,node/5957239665
-4.0050058,,0,Hôtel Ivoire,5.328578,node/5957239666
-3.9860303,,0,Pharmacie Les Laureades,5.3975314,node/5958266385
-3.9881294,,0,Petro Ivoire 7è Tranche,5.3806539,node/5958266386
-3.9845519,,0,Commisariat 30è Art.,5.373758,node/5958266387
-3.9813021,,0,Terminus 202 Attoban,5.3701109,node/5958266388
-3.9797109,,0,Parmacie St Bernard,5.3673274,node/5958266389
-3.9782153,,0,Pharmacie St Ange,5.3573659,node/5958266390
-3.9779596,,0,Collège André Malraux,5.3558222,node/5958266391
-3.9773239,,0,Riviera 2,5.3541895,node/5958266392
-4.0207447,,0,Saint Paul Plateau,5.3247785,node/6098848385
-4.0205509,,0,Hôtel de Ville,5.3238162,node/6136850508
-4.0205339,,0,Hôtel de Ville,5.3234932,node/6136850509
-4.0205256,,0,Terminus Hotel de Ville,5.3226907,node/6136858285
-4.021322,,0,Cathédrale Saint paul,5.3317403,node/6195348341
-4.0333199,,0,Terminus bus 51/52,5.4148488,node/6281030720
-4.0144508,,0,Gare Abobo Sogephia,5.4351428,node/6474137921
-4.0125419,,0,BICICI,5.4364247,node/6474137923
-4.0147435,,0,Cours Sociaux,5.4382745,node/6474137925
-4.019424,,0,Avenue Kaza,5.4381179,node/6474137927
-4.0202491,,0,Camp Commando,5.4355472,node/6474137929
-4.0200922,,0,Station Shell,5.4306474,node/6474137931
-4.0198488,,0,Abobo Gendarmerie,5.4263959,node/6474137932
-4.0187446,,0,Abobo Gendarmerie,5.4234101,node/6474137934
-4.0166455,,0,2ème Arrêt,5.4171616,node/6474137936
-4.015971,,0,Banco,5.4131456,node/6474137938
-4.0160152,,0,Anador,5.4089746,node/6474137940
-4.0207427,,0,Université Nangui Abrogoua,5.392647,node/6474137942
-4.0255918,,0,Macaci,5.3774907,node/6474137944
-4.027655,,0,Gare Nord,5.3592442,node/6474137946
-4.0274455,,0,Gare Nord,5.3591608,node/6474137948
-4.0257671,,0,Grande Mosquée Adjamé,5.3533564,node/6474137950
-4.0256668,,0,Foire de Chine,5.347769,node/6474137952
-4.0259753,,0,Mairie d'Adjamé,5.3431984,node/6474137954
-4.0238205,,0,Cité Administrative,5.3312372,node/6474137956
-4.0238801,,0,Immeuble Sogefiha,5.3278045,node/6474137958
-4.0181049,,0,Gare Sud,5.3145043,node/6474137967
-4.019718,,0,Présidence,5.3179651,node/6474137979
-4.0197472,,0,Galerie du Parc,5.3225013,node/6474137980
-4.0247204,,0,Camp Galliéni,5.3339569,node/6474137981
-4.026107,,0,Institut National de la Santé Publique,5.3386571,node/6474137982
-4.0260496,,0,Mairie d'Adjamé,5.343713,node/6474137983
-4.0258452,,0,Marché Forum,5.3459921,node/6474137984
-4.0255664,,0,Pharmacie du Banco,5.3503682,node/6474138985
-4.0259071,,0,Grande Mosquée Adjamé,5.3534527,node/6474138986
-4.028099,,0,Gare Nord,5.3586829,node/6474138987
-4.0263861,,0,Macaci,5.3765774,node/6474138988
-4.021035,,0,Filtisac,5.3906844,node/6474138989
-4.0162969,,0,Anador,5.4085961,node/6474138990
-4.0162419,,0,Banco,5.4135848,node/6474138991
-4.0173344,,0,Saint-Joseph 2ème Arrêt,5.4183764,node/6474138992
-4.0190818,,0,Abobo Gendarmerie,5.4237125,node/6474138993
-4.020231,,0,Bar Ivoire Abobo,5.4315506,node/6474138994
-4.0203886,,0,DGI Abobo,5.4363436,node/6474138995
-4.0189201,,0,Avenue Kaza,5.4382274,node/6474138996
-4.0138587,,0,Carrefour Akeïkoi,5.4383936,node/6474138997
-4.0190673,,0,Terminus Gare Sud,5.3149589,node/6474138999
-4.0127537,,0,Cité Universitaire Abobo,5.4350792,node/6474139031
-4.0154322,,0,Quai 15,5.4354761,node/6474139033
-3.9641507,,0,Station Shell Riviera 3,5.3580852,node/6815808830
-3.9591336,,0,Carrefour Palmeraie,5.3620442,node/6815808831
-3.9744202,,0,CNPS 9ème Tranche,5.3865761,node/6815808833
-3.9780418,,0,Marché COCOVICO,5.4010646,node/6815808834
-3.9618125,,0,Quick Market,5.3738506,node/6815808839
-3.9618581,,0,Quick Market,5.3737728,node/6815808840
-3.9635563,,0,Commissariat 35è Art.,5.3776142,node/6815808842
-3.9745308,,0,CNPS 9ème Tranche,5.3866021,node/6815808843
-3.9781939,,0,Marché COCOVICO,5.4010482,node/6815808844
-3.9587098,,0,Pharmacie du bonheur,5.3698807,node/6815808845
-3.9725319,,0,Groupe Scolaire St Marc,5.383206,node/6815808846
-3.9692172,,0,Camp Commando de Koumassi,5.282599,node/6819328985
-3.9707407,,0,Grand Carrefour de Koumassi,5.2892136,node/6819329085
-3.9741109,,0,Hôtel Ibis Marcory,5.2921087,node/6819329086
-3.973691,,0,Hôtel Ibis Marcory,5.2916293,node/6819329185
-3.9897184,,0,Chimtec Grand carrefour Marcory,5.3008419,node/6819329285
-3.9767155,,0,Ambassade des USA,5.335819,node/6820855646
-3.9728877,,0,Hotel du Golf,5.3309825,node/6820855647
-3.9730064,,0,Hotel du Golf,5.3310297,node/6820855648
-3.9579229,,0,Ex Terminus Sotra;Carrefour Sol Beni,5.3312498,node/6820855649
-4.021605,,0,Cathédrale Saint paul,5.332764,node/6831076677
-4.0205671,,0,Église Méthodiste Unie de Côte d'Ivoire,5.3299678,node/6831076678
-4.0185085,,0,Gare Sud,5.3148704,node/6831076682
-3.9867521,,0,Cap Sud,5.2988832,node/6832290086
-4.0022393,,0,Gare de Bassam,5.2996481,node/6899034705
-3.9997862,,0,Gendarmerie,5.3004143,node/6899034706
-4.0037983,,0,Notre-dame,5.303315,node/6899034707
-4.005186,,0,Pharmacie Nanan Yamousso,5.3072484,node/6899034708
-4.0061407,,0,Après le Pont,5.3099574,node/6899034709
-4.0160603,,0,Adjamé Liberté,5.3534116,node/6899034710
-4.014858,,0,Adjamé Liberté,5.3534437,node/6899053345
-4.0120307,,0,Gare de Bingerville,5.3535364,node/6899053346
-4.0152949,,0,Feux du plateau,5.325075,node/6899053347
-4.0061218,,0,Nanan Yamousso,5.3101491,node/6899053348
-4.0024275,,0,Gare de Bassam,5.2996797,node/6899053349
-4.0174383,,0,Abobo Gare Mairie,5.4200067,node/6899241573
-4.0159818,,0,Mobil,5.4143755,node/6899241574
-4.0215029,,0,Lavage,5.3846161,node/6899241575
-4.0257575,,0,Macaci,5.37725,node/6899241576
-4.0164004,,0,Adjamé Liberté,5.3543459,node/6899241577
-4.0212174,,0,Marché Gouro,5.349107,node/6899264970
-4.0163905,,0,Adjamé Liberté,5.3547097,node/6899264971
-4.016791,,0,Station Total,5.358734,node/6899264972
-4.0171184,,0,Abobo Gare Mairie,5.4215493,node/6899264973
-4.0153363,,0,Carrefour Marché,5.4195759,node/6902638988
-4.0135168,,0,Petro Ivoire,5.4186048,node/6902638989
-4.0101975,,0,Au Bar,5.4168519,node/6902638990
-4.0080786,,0,Petit Carrefour,5.4157998,node/6902638991
-4.0067032,,0,Samaké,5.4152338,node/6902638992
-4.0064894,,0,Azur,5.3994804,node/6902638993
-4.0070352,,0,Panneau ZOO,5.3780522,node/6902638994
-4.0157753,,0,Abobo Gare Mairie,5.4197843,node/6902638995
-4.0117095,,0,Ciné Cool,5.4176548,node/6902638996
-4.0062697,,0,Boulangerie Samake,5.4144283,node/6902638997
-4.0062877,,0,Menuiserie,5.410863,node/6902638998
-4.0063067,,0,Tchapatcha,5.4101067,node/6902638999
-4.0063409,,0,Chaîne Avion,5.4092677,node/6902639000
-4.0063993,,0,Pharmacie Dokui,5.4051188,node/6902639001
-4.0064176,,0,SODECI,5.4036347,node/6902639002
-4.0064567,,0,Étage Noir,5.4020967,node/6902639003
-4.0064867,,0,Mobil,5.4001879,node/6902639004
-4.006353,,0,Arrêt Dokui,5.3968179,node/6902639005
-4.005793,,0,Ancien Feu,5.3929293,node/6902639006
-4.005732,,0,Bangui,5.3872276,node/6902639007
-4.0060126,,0,Vidange,5.3851864,node/6902639008
-4.0063262,,0,HMA,5.382931,node/6902639009
-4.0118134,,0,Carrefour paillet,5.3721147,node/6902639010
-4.0157876,,0,Carrefour 2 Plateaux,5.3653117,node/6902639011
-4.0160705,,0,Gare des gbakas d’Abobo par le zoo,5.3553627,node/6902639012
-4.0136214,,0,Petro Ivoire,5.4184847,node/6902868224
-4.0120067,,0,Ciné Cool,5.4176463,node/6902868225
-4.0102981,,0,Au Bar,5.4167077,node/6902868226
-4.0065403,,0,Pharmacie Dokui,5.4051935,node/6902868227
-4.0065873,,0,SODECI,5.4036701,node/6902868228
-4.0066315,,0,Étage Noir,5.40212,node/6902868229
-4.0066597,,0,Mobil,5.4002027,node/6902868230
-4.0066034,,0,Azur,5.3994577,node/6902868231
-4.0064518,,0,Arrêt Dokui,5.3965911,node/6902868232
-4.0059301,,0,Ancien Feu,5.3928327,node/6902868233
-4.005859,,0,Bangui,5.387253,node/6902868234
-4.0060952,,0,Vidange,5.3853034,node/6902868235
-4.0064118,,0,HMA,5.382907,node/6902868236
-4.0122239,,0,Carrefour paillet,5.3716859,node/6902868237
-4.0159576,,0,Carrefour 2 Plateaux,5.365405,node/6902868238
-4.0168128,,0,Willy Agban,5.3633371,node/6902868239
-4.0152077,,0,Cimetière,5.3668297,node/6902868240
-4.0094557,,0,CIE,5.3765337,node/6902868241
-4.0070149,,0,ZOO,5.3789939,node/6902868242
-4.0056173,,0,Eglise,5.3900553,node/6902868243
-4.0099567,,0,Pharmacie Racines,5.41329,node/6902868244
-4.0160257,,0,Abobo Gare Mairie,5.4197639,node/6902868245
-4.0135154,,0,Christine Bar,5.4500232,node/6902975747
-4.0109926,,0,Terminus Akéikoi Village,5.4607326,node/6902975748
-4.0107733,,0,À l'École,5.45899,node/6902975749
-4.0112928,,0,Destin,5.455207,node/6902975750
-4.0119566,,0,Monnaie,5.4542173,node/6902975751
-4.0128592,,0,André Bar,5.4528753,node/6902975752
-4.0133357,,0,Carrefour Marché,5.4510493,node/6902975753
-4.0143571,,0,A l'étage,5.446249,node/6902975754
-4.0141843,,0,Boulangerie,5.4394513,node/6902975755
-4.0140378,,0,Carrefour Akéikoi,5.4384053,node/6902975756
-4.0161726,,0,Gare Gbaka Akeïkoi,5.4225885,node/6902975757
-4.0134484,,0,Carrefour Marché,5.4510779,node/6903084141
-4.0129173,,0,André Bar,5.4530404,node/6903084142
-4.0120751,,0,Monnaie,5.4542793,node/6903084143
-4.0142825,,0,Au goudron,5.438503,node/6903097494
-4.0160694,,0,Abobo Gare,5.4227551,node/6903097495
-4.013945,,0,Au tournant,5.4230451,node/6903097496
-4.0146415,,0,Lycée Moderne Abobo 1 & 2,5.4278809,node/6903097497
-4.0124107,,0,Célibataire,5.433455,node/6903097498
-4.0124925,,0,JAUG,5.4352003,node/6903097499
-4.0135883,,0,Cité,5.4383233,node/6903097500
-4.0138345,,0,Boulangerie,5.449017,node/6903097501
-4.0136722,,0,Christine Bar,5.4500084,node/6903097502
-4.01134,,0,Destin,5.4552984,node/6903097503
-4.0109968,,0,À l'École,5.4594779,node/6903097504
-4.0111868,,0,Terminus Akéikoi Village,5.460775,node/6903097505
-4.0144891,,0,Mosquée,5.4429021,node/6903193216
-4.0144891,,0,A l'étage,5.4463091,node/6903193217
-4.0165181,,0,Abobo Gare Mairie,5.42194,node/6903268819
-4.0163197,,0,Gare Abobo Kennedy-Marché/ Mosquée Ado,5.4223082,node/6903268820
-4.0100057,,0,Station,5.4211585,node/6903268821
-4.0015221,,0,Kennedy Marché,5.4236887,node/6903268822
-4.011662,,0,Mosquée,5.4220774,node/6903296476
-4.0059623,,0,Carrefour Kennedy,5.4186997,node/6903296477
-4.0058919,,0,Carrefour Kennedy,5.418665,node/6903296478
-4.0039433,,0,Makan Traoré,5.4211643,node/6903296479
-4.0015453,,0,Au marché,5.4236156,node/6903296480
-4.0021714,,0,A Gauche,5.423623,node/6903296481
-4.0037249,,0,Makan Traoré,5.4214359,node/6903296482
-3.9324706,,0,Cocody Riviera M'badon,5.3286546,node/6903347574
-3.9332267,,0,Nouveau marché,5.3293417,node/6903347575
-3.9339946,,0,Ancien marché,5.329969,node/6903347576
-3.9350317,,0,Centre de santé Municipal de M'Badon,5.3307517,node/6903347577
-3.9352626,,0,La ferme,5.331008,node/6903347578
-3.9393933,,0,Pharmacie,5.3353839,node/6903347579
-3.9427407,,0,2 poteaux,5.3384154,node/6903347580
-3.945032,,0,Antenne,5.339948,node/6903347581
-3.9457017,,0,Carrefour Akouédo,5.345935,node/6903347582
-3.9471733,,0,École,5.3461517,node/6903347583
-3.9505483,,0,2ème rond-point,5.3458217,node/6903347584
-4.0227501,,0,Gare en haut,5.3503568,node/6903370485
-4.0100339,,0,Station,5.4210882,node/6903374200
-4.00729,,0,Immeuble Cercueil,5.4196516,node/6903374201
-4.0074087,,0,Immeuble Cercueil,5.4195942,node/6903374202
-3.9978515,,0,Terminus mosquée Ado Kenedy,5.4234508,node/6903397403
-3.9978489,,0,À l'École,5.4215774,node/6903397404
-3.9979409,,0,[Arret sans nom],5.4198617,node/6903397405
-3.9980283,,0,Dahico,5.4185867,node/6903397406
-3.9992242,,0,Étage Noir,5.4157689,node/6903397407
-4.0059533,,0,Samaké,5.415578,node/6903406997
-4.0037563,,0,Eglise,5.4156012,node/6903406998
-4.0037625,,0,Eglise,5.4155167,node/6903504058
-4.0007112,,0,Monastère,5.4155583,node/6903504059
-4.0008035,,0,Monastère,5.4154526,node/6903504060
-3.999403,,0,Étage Noir,5.4157731,node/6903504061
-3.9981732,,0,Dahico,5.4185995,node/6903504062
-4.0272132,,0,Hôtel du centre,5.4339087,node/6903525051
-4.0337387,,0,A la Pompe,5.437375,node/6903525052
-4.0360617,,0,Dépôt,5.4377181,node/6903525053
-4.0444772,,0,Anokoi,5.4390697,node/6903525054
-4.0444823,,0,Anokoi,5.439303,node/6903525055
-4.0479148,,0,Marahoué,5.4422211,node/6903525056
-4.0487972,,0,Agripac,5.4439581,node/6903525057
-4.0509604,,0,Terminus,5.447775,node/6903525058
-4.0508555,,0,Terminus,5.4479797,node/6903525059
-4.0489498,,0,Agripac,5.4446545,node/6903525060
-4.0477433,,0,Marahoué,5.4425017,node/6903525061
-4.0360937,,0,Dépôt,5.4379717,node/6903525062
-4.033852,,0,A la Pompe,5.4376377,node/6903525063
-4.030245,,0,Marché de Nuit,5.4367133,node/6903525064
-4.026894,,0,Hôtel du centre,5.4340417,node/6903525065
-4.018191,,0,Abobo Gare,5.4217034,node/6903525066
-4.0206447,,0,Complexe,5.3489387,node/6903535584
-4.0224464,,0,Gare en haut,5.350348,node/6903544086
-4.0180948,,0,Maternité,5.3481387,node/6903544087
-4.014163,,0,Adjamé Liberté,5.3521055,node/6903544088
-4.0029137,,0,2ème pont,5.3547793,node/6903544089
-3.9339759,,0,Marché,5.3301187,node/6903544090
-4.0203577,,0,Abobo Gendarmerie,5.4263231,node/6903602207
-4.0233336,,0,Mosquée Blanche,5.4298704,node/6903602208
-4.0262471,,0,Solibra,5.4332219,node/6903602209
-4.0288774,,0,Château,5.4359152,node/6903602210
-4.0383071,,0,A l'escalier,5.4383388,node/6903602211
-4.0521369,,0,PK 18 ancien marché,5.4497913,node/6903602212
-4.0184916,,0,Abobo Gare,5.4220421,node/6903602213
-4.0204342,,0,Abobo Gendarmerie,5.4260466,node/6903602214
-4.0208376,,0,Gendarmerie Avant le Feu,5.426524,node/6903602215
-4.0236152,,0,Mosquée Blanche,5.4297276,node/6903602216
-4.0264367,,0,Solibra,5.4330817,node/6903602217
-4.0290698,,0,Château,5.4357519,node/6903602218
-4.0306363,,0,Marché de Nuit,5.4365893,node/6903602219
-4.0384581,,0,A l'escalier,5.4380495,node/6903602220
-4.0411411,,0,Nouvelle Gare,5.4382834,node/6903602221
-4.0493193,,0,Agripac Avant le Feu,5.4448006,node/6903602222
-4.0520966,,0,Station Total,5.4493883,node/6903602223
-4.052542,,0,PK 18 ancien marché,5.4499639,node/6903602224
-3.9761316,,0,Attoban camp,5.370557,node/6903639366
-3.9776678,,0,Escalier,5.3694267,node/6903639367
-3.9794185,,0,Pharmacie Saint Bernard,5.3673899,node/6903639368
-3.9793174,,0,Carrefour Garage,5.3658448,node/6903639369
-3.9792552,,0,Polyclinique Sacré-Coeur,5.365069,node/6903639370
-3.9790994,,0,Jules ferry,5.3642087,node/6903639371
-3.9788028,,0,Hôtel Manhatan,5.362115,node/6903639372
-3.978316,,0,Doraville,5.3589924,node/6903639373
-3.9780678,,0,Pharmacie Saint ange,5.3571667,node/6903639374
-3.9777617,,0,André Malraux,5.356275,node/6903639375
-4.0228251,,0,Gare en haut,5.3505392,node/6903639376
-3.9796695,,0,Pharmacie Saint Bernard,5.3672689,node/6903968407
-3.9794498,,0,Carrefour Garage,5.3655779,node/6903968408
-4.0345833,,0,Attécoubé Terminus 04,5.343795,node/6904171063
-4.0345467,,0,[Arret sans nom],5.346448,node/6904171064
-4.033957,,0,Marché,5.3490624,node/6904171065
-4.032333,,0,Station Afriquia,5.3501257,node/6904171066
-4.0328135,,0,Carrefour Attecoubé,5.3524283,node/6904171067
-4.0309717,,0,[Arret sans nom],5.3574167,node/6904171068
-4.0254169,,0,Arrêt,5.3513557,node/6904171070
-4.0261722,,0,Adjamé Santé,5.3412757,node/6904171071
-4.025807,,0,Institut National de la Santé Publique,5.3381159,node/6904171072
-4.0230192,,0,Cité Administrative,5.3318344,node/6904171073
-4.0206008,,0,Cité financière Plateau,5.3266073,node/6904171074
-4.0196512,,0,SIB Alpha 2000,5.3237991,node/6904171075
-4.0196681,,0,Primature,5.3206169,node/6904171076
-4.0157481,,0,Résidence Cheick Yacouba Sylla,5.3089287,node/6904171077
-4.0142576,,0,Marché Treichville,5.3094876,node/6904171078
-4.0099697,,0,[Arret sans nom],5.3109791,node/6904171079
-4.006092,,0,Biafra,5.3126563,node/6904171080
-3.9933399,,0,Banque Atlantique,5.3076251,node/6904171081
-3.9888629,,0,Hôtel Hamanieh,5.3052787,node/6904171082
-3.9869873,,0,Sainte Thérèse,5.3043423,node/6904171083
-3.9858381,,0,Commissariat du 9 ème,5.3064581,node/6904171084
-3.9839517,,0,Gare Marcory,5.3088083,node/6904188585
-4.0281877,,0,Gare Nord,5.3589119,node/6905326498
-4.0307925,,0,Château,5.4366266,node/6905326503
-4.0219308,,0,Préfecture de Police,5.3843543,node/6905344262
-4.0351608,,0,Arrêt Centre Bus,5.4375564,node/6905344263
-4.0390169,,0,Terminus 45 À l'escalier,5.4384645,node/6905344264
-4.0351391,,0,Arrêt Centre Bus,5.4378844,node/6905344265
-4.0299554,,0,Château,5.4365245,node/6905344266
-4.0259685,,0,Arrêt,5.4328931,node/6905344267
-4.0222108,,0,Abobo Gendarmerie,5.4284112,node/6905344268
-4.0219627,,0,Préfecture de Police,5.3836534,node/6905344273
-4.0225102,,0,Abobo Gendarmerie,5.4284566,node/6905553518
-4.0261674,,0,[Arret sans nom],5.4327155,node/6905553519
-4.0256884,,0,Foire de Chine,5.3485701,node/6905719605
-4.0206943,,0,Église Méthodiste Unie de Côte d'Ivoire,5.3299376,node/6905719606
-4.0201163,,0,60 logements Plateau,5.3251345,node/6905719607
-4.0177138,,0,Hôpital du port,5.3087867,node/6905719608
-4.0148424,,0,Maison du Congres,5.3097288,node/6905719609
-4.0116929,,0,Pharmacie du Rond-point,5.3073425,node/6905719610
-4.0069793,,0,[Arret sans nom],5.3090218,node/6905719611
-4.005442,,0,Nanan Yamousso,5.3080275,node/6905719612
-4.0043543,,0,Paroisse Notre-Dame de Treichville,5.3048828,node/6905719613
-4.0015648,,0,Pharmacie de l'Entente,5.3045623,node/6905719614
-3.998829,,0,Marché de Belleville,5.3055251,node/6905719615
-3.9931172,,0,Banque Atlantique,5.3075214,node/6905719616
-3.9887868,,0,Hôtel Hamanieh,5.3049722,node/6905719617
-3.986118,,0,Commissariat du 9éme,5.3055778,node/6905719618
-3.9847286,,0,Station Shell,5.308097,node/6905719619
-4.0284151,,0,[Arret sans nom],5.3584965,node/6905719620
-4.0304951,,0,[Arret sans nom],5.357702,node/6905719621
-4.0321715,,0,Carrefour Attecoubé,5.3515438,node/6905719622
-4.03386,,0,Banque Atlantique,5.3489601,node/6905719623
-4.0344246,,0,Commissariat du 10ᵉ arrondissement,5.3471108,node/6905719624
-4.0344802,,0,Attécoubé Terminus 04,5.3437946,node/6905719625
-4.0219475,,0,Saint Paul,5.3251603,node/6905772459
-4.0239746,,0,Immeuble Sogephia Hévéa,5.3282245,node/6905772460
-4.0245113,,0,Musée du Plateau,5.3337809,node/6905772461
-4.0160546,,0,Cours Sociaux,5.4383593,node/6905772466
-4.0275686,,0,Gare Nord,5.3590397,node/6905842305
-4.0224693,,0,Long Champs,5.3252327,node/6905842307
-3.9560075,,0,Gare Koumassi,5.293902,node/6906463287
-3.9602508,,0,Pharmacie Ehilie,5.2928524,node/6906463288
-3.966735,,0,Mosquée,5.2913568,node/6906463289
-3.980944,,0,Échangeur de Marcory,5.2956714,node/6906463290
-3.98845,,0,Grand carrefour Marcory,5.2998527,node/6906463291
-3.9976917,,0,Collège Moderne Autoroute,5.2998184,node/6906463292
-4.0026734,,0,Gare de Bassam,5.2999823,node/6906463293
-4.003273,,0,Ecobank,5.3018099,node/6906463294
-4.0155251,,0,Adjamé Liberté,5.3534012,node/6906463296
-4.0124238,,0,BICICI,5.4365892,node/6906507833
-4.0164467,,0,Adjamé Liberté,5.3546594,node/6906575629
-4.0169033,,0,Williams-Ville,5.3631417,node/6906575630
-4.0157829,,0,Carrefour 2 Plateaux,5.3658197,node/6906575631
-4.0156117,,0,[Arret sans nom],5.3662557,node/6906575632
-4.0122293,,0,Paillet,5.3716139,node/6906575633
-4.0112578,,0,[Arret sans nom],5.374069,node/6906575634
-4.005605,,0,[Arret sans nom],5.3898833,node/6906575635
-4.0065311,,0,[Arret sans nom],5.4045622,node/6906575636
-4.0064187,,0,[Arret sans nom],5.4113412,node/6906575637
-4.0064133,,0,ANADER,5.4126483,node/6906575638
-4.0064263,,0,Samaké,5.4148754,node/6906590689
-4.0068417,,0,Samaké,5.41527,node/6906590691
-4.0063152,,0,Chaîne Avion,5.4101483,node/6906590692
-4.0063867,,0,1ere Boutique,5.4073533,node/6906590693
-4.0155634,,0,Carrefour 2 Plateaux,5.3659384,node/6906590694
-4.0162927,,0,Adajmé Liberté,5.3546002,node/6906590695
-4.015528,,0,Adjamé Liberté,5.35345,node/6906596960
-4.0060884,,0,Nanan Yamousso,5.3100359,node/6906596961
-4.0044435,,0,Karwil,5.3054677,node/6906596962
-4.0036369,,0,Notre-dame,5.3031308,node/6906596963
-4.0026404,,0,Gare de Bassam,5.3003893,node/6906596964
-3.9983918,,0,Collège Moderne Autoroute,5.2998444,node/6906596965
-3.9859637,,0,Cap Sud,5.2987234,node/6906596966
-3.981013,,0,Échangeur Marcory,5.2959351,node/6906596967
-3.9675638,,0,Auto-école,5.2912433,node/6906596968
-3.964494,,0,Arrêt,5.2919737,node/6906596969
-3.9610541,,0,Boulangerie,5.292783,node/6906596970
-4.0069936,,0,ZOO,5.3790616,node/6906699462
-4.0065336,,0,1ere Boutique,5.4074152,node/6906699463
-4.0116794,,0,Paillet,5.3723989,node/6906699464
-4.0054621,,0,[Arret sans nom],5.3898979,node/6906699465
-4.0065122,,0,Arrêt Dokui,5.3967647,node/6906699466
-4.0063445,,0,Arrêt Dokui,5.3968689,node/6906699467
-4.0062842,,0,ANADER,5.4121402,node/6906699468
-4.0106347,,0,[Arret sans nom],5.4169293,node/6906699469
-4.0106159,,0,[Arret sans nom],5.4170815,node/6906699470
-4.0159368,,0,Abobo Mairie,5.4197017,node/6906699471
-4.0156192,,0,Abobo Mairie,5.4197512,node/6906699472
-4.0235294,,0,Gare Williamsville,5.3675641,node/6907121506
-4.0207037,,0,Mosquée,5.3658243,node/6907121507
-4.0189161,,0,Croix Bleue,5.3643529,node/6907121508
-4.0160715,,0,Agban avant le pont,5.3576606,node/6907121509
-4.0169929,,0,Pharmacie le Belier,5.3501391,node/6907121510
-4.0230855,,0,Indenié,5.3417336,node/6907121511
-4.018503,,0,Mairie du Plateau,5.3220152,node/6907121512
-4.0170059,,0,Institut Français,5.3219502,node/6907121513
-4.0144649,,0,CNPS,5.3195012,node/6907121514
-3.984068,,0,Gare Marcory,5.3088742,node/6907121515
-4.0033579,,0,RTI,5.342209,node/6907141795
-4.0029046,,0,Archibat,5.3459837,node/6907141796
-4.0007897,,0,Marché de Cocody,5.3356901,node/6907141797
-4.0021679,,0,Gare Blockauss,5.3232894,node/6907141798
-4.0013589,,0,Banque Mondiale,5.3278237,node/6907141799
-4.0007635,,0,Marché de Cocody,5.3355267,node/6907141800
-4.0038072,,0,CIE,5.3384172,node/6907141801
-4.0021657,,0,Palm Club,5.351632,node/6907141802
-4.0274511,,0,Gare Nord,5.3587491,node/6907141803
-4.0180323,,0,Texaco,5.3543654,node/6907147644
-4.0101289,,0,Pont lycée technique,5.3478735,node/6907147645
-4.0038018,,0,SODEMI,5.3442806,node/6907147646
-4.0033259,,0,SGBCI,5.3404792,node/6907147647
-3.9999757,,0,Marché de Cocody,5.336444,node/6907147648
-4.0003179,,0,PMI,5.3334363,node/6907147649
-4.00118,,0,Banque Mondiale,5.3280617,node/6907147650
-4.0020444,,0,Gare Blockauss,5.323287,node/6907147651
-4.0168481,,0,Boulangerie Top baquette,5.3528511,node/6907154300
-4.017115,,0,220 logements,5.3472669,node/6907154301
-4.0273707,,0,Gare Nord,5.3589598,node/6907157792
-4.0213836,,0,Renault,5.3559786,node/6907157793
-4.0158064,,0,Adjamé Liberté,5.3534802,node/6907157794
-4.000587,,0,CERAP - INADES,5.339615,node/6907157795
-3.9946557,,0,Gare Campus Cocody,5.3464621,node/6908599212
-4.0013186,,0,ISTC,5.343718,node/6908599213
-4.0153091,,0,Quai 49,5.4354972,node/6908599215
-3.9968976,,0,INSAAC,5.3456864,node/6908618074
-4.016795,,0,EPV Konaté,5.427395,node/6908618077
-4.0146633,,0,Lycée Moderne d'Abobo,5.4286537,node/6908618078
-4.012329,,0,[Arret sans nom],5.4339703,node/6908728765
-4.013431,,0,[Arret sans nom],5.432656,node/6908728766
-4.0162121,,0,[Arret sans nom],5.4273213,node/6908728767
-4.0008199,,0,ISTC,5.343821,node/6908728771
-3.9937238,,0,Gare Campus Cocody,5.3462119,node/6908728772
-4.0147361,,0,[Arret sans nom],5.43182,node/6908782549
-4.014638,,0,[Arret sans nom],5.429723,node/6908782550
-3.9978676,,0,Cité des Arts,5.3450487,node/6908782552
-3.993895,,0,université méthodiste de Côte D'Ivoire,5.3466283,node/6908782553
-4.0160582,,0,[Arret sans nom],5.357415,node/6908914485
-4.0171632,,0,Cours socio éducatif,5.3491257,node/6908914486
-3.9996571,,0,Piscine d’État de Treichville,5.3082112,node/6908914487
-3.9839441,,0,Gare Marcory,5.3090397,node/6908914488
-4.0161239,,0,Boulangerie Top Qualité,5.3555536,node/6908914489
-4.0170747,,0,Liberté,5.3513262,node/6908914490
-4.0170975,,0,Pharmacie le Belier,5.3503722,node/6908914491
-4.0230188,,0,Indenié,5.3418097,node/6908914492
-4.025647,,0,Banque SIB,5.3421743,node/6908914493
-4.0183783,,0,Bicici plateau,5.321186,node/6908914494
-4.0167837,,0,Pyramide,5.321624,node/6908914495
-4.0145266,,0,Siège Moov,5.3184312,node/6908914496
-4.0188664,,0,Croix Bleue,5.3641726,node/6908914498
-4.0202826,,0,Infirmerie Sinikeya,5.3653249,node/6908914499
-4.0235066,,0,Gare Williamsville,5.3670874,node/6908914500
-4.0318263,,0,Petro Ivoire,5.3589877,node/6909039462
-4.0257324,,0,Pharmacie Sainte Marie,5.3468603,node/6909039464
-4.0159526,,0,Cité Policière,5.3080247,node/6909039468
-4.0046789,,0,CHU,5.2958623,node/6909039469
-3.9984496,,0,PTT Km4,5.2927793,node/6909039470
-3.9957435,,0,Pharmacie Santé Publique,5.2914467,node/6909039471
-4.0375583,,0,Terminus Cité Fairmont,5.3585383,node/6909108442
-4.0149536,,0,arrêt,5.305135,node/6909108450
-3.9902017,,0,Services Techniques du District,5.29123,node/6909108451
-3.9840127,,0,Gare Marcory,5.3088407,node/6909121487
-4.0074831,,0,Parc des Sports,5.2971256,node/6909208699
-3.990781,,0,"SIYOA, Boulevard de Marseille",5.2895393,node/6909208700
-4.0724972,,0,[Arret sans nom],5.36188,node/6909225529
-4.0745652,,0,[Arret sans nom],5.3647534,node/6909225530
-4.0961792,,0,[Arret sans nom],5.3727101,node/6909225533
-4.0895635,,0,[Arret sans nom],5.3742257,node/6909225534
-4.0867558,,0,Nestlé,5.372722,node/6909225535
-4.0781781,,0,Arrêt,5.3745633,node/6909225536
-4.0796923,,0,[Arret sans nom],5.3703887,node/6909225537
-4.0786743,,0,[Arret sans nom],5.3683786,node/6909225538
-4.0761986,,0,Direction de la Sotra,5.3670367,node/6909225539
-4.0736157,,0,[Arret sans nom],5.3628133,node/6909225540
-4.0702482,,0,[Arret sans nom],5.3612471,node/6909225541
-4.0678704,,0,Lycée Moderne Yopougon Andokoi,5.3623019,node/6909225542
-4.0667894,,0,Centre Ivoire Couture,5.3615148,node/6909225543
-4.0278578,,0,Gare Nord,5.3585831,node/6909225544
-4.0183049,,0,Gare Sud,5.3146893,node/6909225545
-4.0033954,,0,CHU Treichville,5.2948194,node/6909237619
-3.9881326,,0,Délices de France,5.301827,node/6909237622
-3.9900511,,0,Services Techniques du District,5.2913004,node/6909237623
-3.9994307,,0,PTT Km4,5.2931333,node/6909237624
-4.0141223,,0,Quincaillerie Générale,5.3023437,node/6909237625
-4.0150089,,0,Arrêt,5.3049356,node/6909237626
-4.0161832,,0,Cité Policière,5.308109,node/6909237627
-4.0279602,,0,Gare Nord,5.3591167,node/6909237631
-4.0319963,,0,Station Petro Ivoire,5.358876,node/6909237632
-4.0364602,,0,Terminus 02 Cité Fairmont,5.3582206,node/6909237633
-4.094158,,0,[Arret sans nom],5.3765208,node/6909430718
-4.0668847,,0,Gare CTE,5.3618706,node/6909430720
-4.0678369,,0,Lycée Moderne Yopougon Andokoi,5.3621938,node/6909430721
-4.0710622,,0,Station Total,5.3607938,node/6909430722
-4.0736572,,0,[Arret sans nom],5.362382,node/6909430723
-4.0742996,,0,[Arret sans nom],5.365409,node/6909430724
-4.0764347,,0,Direction de la Sotra,5.36707,node/6909430725
-4.0788862,,0,[Arret sans nom],5.3683719,node/6909430726
-4.080222,,0,Station,5.3690582,node/6909430727
-4.0819788,,0,[Arret sans nom],5.3699698,node/6909430728
-4.0896792,,0,JOMACO,5.3741086,node/6909430729
-4.0958456,,0,Dépôt Yopougon zone Industrielle,5.3741528,node/6909430730
-3.9848298,,0,Hôpital Municipal,5.2645534,node/6909521603
-3.9834323,,0,Groupe Scolaire N'Sikan,5.2632614,node/6909521604
-3.9849267,,0,CIE,5.257665,node/6909521605
-3.9956283,,0,arrêt,5.2558751,node/6909521606
-3.9989162,,0,Gestoci,5.26373,node/6909521607
-4.0062621,,0,Pont de Vridi,5.2704314,node/6909521608
-4.0143099,,0,"Etablissements Rey, Port",5.2978357,node/6909521609
-4.0175241,,0,Sicodis,5.3005436,node/6909521610
-4.0231458,,0,Terminus 32,5.305037,node/6909521611
-4.0211629,,0,Grand Moulin Abidjan,5.3069377,node/6909521612
-4.0179278,,0,Hôpital du Pont,5.3088247,node/6909521613
-4.0117363,,0,"Avenue 11, Rue 12, Treichville",5.305655,node/6909521614
-4.0111588,,0,"Avenue 15, Rue 12, Treichville",5.3039938,node/6909521615
-4.0034158,,0,Paroisse Notre Dame,5.3040254,node/6909521616
-3.9987874,,0,Marché Belleville,5.3056574,node/6909521617
-3.9838718,,0,Gare Marcory,5.3087649,node/6909521620
-3.9871428,,0,Vridi Cité - Terminus 53,5.266603,node/6909546905
-3.9818252,,0,Pharmacie Vridi Port,5.259526,node/6909546906
-3.9892306,,0,Stade de la SIR,5.2571616,node/6909546907
-3.9978983,,0,Vridi-Iran,5.2588247,node/6909546908
-4.0031425,,0,"CPMA, Vridi",5.2676512,node/6909546909
-4.0085496,,0,PALM-CI,5.277976,node/6909546910
-4.0084685,,0,Bolloré,5.2821643,node/6909546911
-4.008455,,0,Siège SOTRA,5.2864977,node/6909546912
-4.008424,,0,Arrêt,5.292271,node/6909546913
-4.0131528,,0,Ciment Bélier,5.296841,node/6909546914
-4.0212547,,0,Port Autonome Abidjan,5.3029759,node/6909546915
-4.0149741,,0,Maison du Congres,5.309804,node/6909546916
-4.0050815,,0,Collège Bosco,5.3059215,node/6909546917
-4.1045,,0,Niangon Sud à droite,5.3226268,node/6909707221
-4.1057378,,0,Carrefour Académie,5.3233679,node/6909707223
-4.1059349,,0,Caféier,5.325714,node/6909707224
-4.1037691,,0,Lubafrique,5.3310513,node/6909707225
-4.1029765,,0,2ème arrêt ANADOR,5.3338915,node/6909707226
-4.1014047,,0,Carrefour Anador,5.3358784,node/6909707227
-4.1004632,,0,Pharmacie Cité Maroc,5.3404237,node/6909707228
-4.0892462,,0,CIE,5.3407014,node/6909707229
-4.0892456,,0,[Arret sans nom],5.3450164,node/6909707230
-4.0875008,,0,Grand Centre,5.3481316,node/6909707231
-4.0874934,,0,Port-Bouët II,5.3540742,node/6909707232
-4.0851103,,0,[Arret sans nom],5.3561104,node/6909707233
-4.0850901,,0,BAE,5.3604209,node/6909707234
-4.0277736,,0,Gare Nord,5.358951,node/6909707236
-4.0183735,,0,Gare Sud,5.3147518,node/6909707238
-4.0049374,,0,Feu du Collège Bosco,5.3058324,node/6909737821
-4.0120606,,0,"Avenue 10, Rue 12, Treichville",5.3062141,node/6909737822
-4.0211598,,0,Grand Moulin Abidjan,5.3067759,node/6909737824
-4.0217286,,0,Siège Port Autonome Abidjan,5.3033621,node/6909737825
-4.0095509,,0,Port Autonome Abidjan,5.2945614,node/6909737826
-4.0082981,,0,Siège SOTRA,5.2878677,node/6909737827
-4.0083516,,0,Bolloré,5.2820277,node/6909737828
-4.00841,,0,Movis,5.2787,node/6909737829
-4.0061063,,0,Pont de Vridi,5.2705271,node/6909737830
-4.0239378,,0,Cité Administrative,5.3309411,node/6909812227
-4.0849641,,0,CHU de Yopougon,5.3572641,node/6909812228
-4.0867444,,0,[Arret sans nom],5.3552565,node/6909812229
-4.0880983,,0,Pharmacie Port-Bouët II,5.3469666,node/6909812230
-4.0891591,,0,[Arret sans nom],5.3453455,node/6909812231
-4.0974297,,0,Mosquée du Maroc,5.3400138,node/6909812232
-4.1003975,,0,Pharmacie Cité Maroc,5.3401847,node/6909812233
-4.1013081,,0,Carrefour Anador,5.335861,node/6909812234
-4.1037999,,0,Lubafrique,5.3305692,node/6909812235
-4.1051263,,0,[Arret sans nom],5.3273952,node/6909812236
-4.1058531,,0,Caféier,5.32569,node/6909812237
-4.1045248,,0,Niangon Sud à droite,5.3226401,node/6909812238
-4.0739979,,0,Siporex-Sicomex,5.3568101,node/6909923471
-4.0740046,,0,Siporex avant le feu,5.3538004,node/6909923472
-4.0732898,,0,William-Ponty,5.3448074,node/6909923473
-4.0732871,,0,Yopougon 16ème Advans,5.3388868,node/6909923474
-4.0733247,,0,Saguidiba,5.3326109,node/6909923475
-4.0735526,,0,Gare Yopougon Kouté,5.3297734,node/6909923477
-3.9936456,,0,Gare Campus Cocody,5.3463096,node/6910224899
-4.0738578,,0,Gare Yopougon Kouté,5.3297134,node/6910224902
-4.0735191,,0,Saguidiba,5.3315587,node/6910224905
-4.0734252,,0,Côte d'Ivoire-Telecom,5.3344863,node/6910224906
-4.0734096,,0,Yopougon 16ème Advans,5.338834,node/6910224907
-4.0734078,,0,Saint André lavage,5.3418778,node/6910224908
-4.0734038,,0,William-Ponty,5.345666,node/6910224909
-4.0741883,,0,Siporex après le feu,5.3540928,node/6910224910
-4.0741772,,0,Siporex-Sicomex,5.3566819,node/6910224911
-4.0031259,,0,CPMA-Vridi,5.2678334,node/6910272309
-3.9977641,,0,Vridi-Iran,5.2588726,node/6910272310
-3.9932473,,0,"SIR, Vridi",5.2565075,node/6910272311
-3.9854582,,0,CIE,5.2577882,node/6910272312
-3.9824273,,0,"Cité CIE, Vridi",5.2582659,node/6910272313
-3.9820028,,0,Temple des Vainqueurs,5.2600531,node/6910272314
-3.9850263,,0,Hôpital Municipal,5.2644761,node/6910272315
-3.9874196,,0,Terminus Cité Vridi,5.2666602,node/6910272316
-4.0228166,,0,Cité Administrative,5.3313223,node/6910518025
-4.0201529,,0,Abobo Gendarmerie,5.4267852,node/6910584802
-4.0632851,,0,Institut des aveugles,5.350955,node/6910703473
-4.0632758,,0,Bel Air,5.3476916,node/6910703474
-4.0622364,,0,Complexe sportif de Yopougon,5.3418057,node/6910703475
-4.0622136,,0,Nouveau quartier,5.3380456,node/6910703476
-4.0621975,,0,Clinique les Oliviers,5.3333961,node/6910703477
-4.061462,,0,Terminus 85,5.3294751,node/6910743309
-4.0623826,,0,Clinique les Oliviers,5.333826,node/6910743310
-4.0623477,,0,Nouveau quartier,5.3375141,node/6910743311
-4.0634635,,0,Bel Air,5.3460439,node/6910743312
-4.0660062,,0,Sable,5.3556644,node/6910743313
-4.0634474,,0,Institut des aveugles,5.3513983,node/6910743314
-4.0804794,,0,Ben,5.3237979,node/6910755171
-4.0764964,,0,Marejea,5.3255979,node/6910755172
-4.0718266,,0,Iris3,5.3255738,node/6910755173
-4.0802502,,0,Yopougon Sideci - Terminus 42,5.3198733,node/6910755174
-4.0667291,,0,Marché Kouté,5.3242746,node/6910755176
-4.0615042,,0,L'usine du camp,5.3236042,node/6910755177
-4.0577316,,0,Stenb,5.3236336,node/6910755178
-4.0535085,,0,Le petit soleil,5.3222355,node/6910755179
-4.0507693,,0,Yopougon Kowëit,5.3222275,node/6910755180
-4.0464583,,0,La faveur,5.3222395,node/6910755181
-4.0439746,,0,Pharmacie Chenain,5.3198693,node/6910755182
-4.0439826,,0,Iris 3,5.3171339,node/6910755183
-4.0440027,,0,Bon choix,5.3137348,node/6910755184
-4.0439558,,0,Santé Village,5.3095505,node/6910794085
-4.0353389,,0,Gare Abobodoumé,5.3101983,node/6910794088
-4.01971,,0,Arrêt,5.4258812,node/6910797790
-4.0128435,,0,Arrêt,5.4182684,node/6910797791
-4.0054353,,0,Arrêt,5.4156089,node/6910797792
-3.999584,,0,Arrêt,5.4155902,node/6910797793
-3.9856156,,0,Termunis 81/82,5.4038607,node/6910797794
-3.9792073,,0,BICICI,5.4031254,node/6910797795
-3.9780821,,0,Arrêt,5.4011881,node/6910797796
-3.9776878,,0,Arrêt,5.3988302,node/6910797797
-3.977036,,0,Arrêt,5.3963428,node/6910797798
-3.9761992,,0,Arrêt,5.3932466,node/6910797799
-3.971504,,0,Arrêt,5.3946558,node/6910797800
-3.9649835,,0,Cité Diaspora,5.4000986,node/6910797801
-3.9621642,,0,SOCIAM,5.4025338,node/6910797802
-3.9620463,,0,SOCIAM,5.4022965,node/6910797803
-3.9570893,,0,CHU Angré,5.399963,node/6910797804
-4.0022783,,0,Arrêt,5.4154527,node/6910797805
-3.9570173,,0,CHU Angré,5.3997812,node/6910797806
-3.9592423,,0,Arrêt,5.4003923,node/6910797807
-3.960527,,0,Arrêt,5.4011774,node/6910797808
-3.9657399,,0,Arrêt,5.3991713,node/6910797809
-3.9689626,,0,Arrêt,5.3964463,node/6910797810
-3.9736088,,0,Arrêt,5.3933681,node/6910797811
-3.9754415,,0,Arrêt,5.3929368,node/6910797812
-3.9769683,,0,Arrêt,5.3954823,node/6910797813
-3.9772754,,0,Arrêt,5.3963101,node/6910797814
-3.9781552,,0,Arrêt,5.4003569,node/6910797815
-3.978471,,0,Arrêt,5.4022415,node/6910797816
-3.9794534,,0,BICICI,5.4029505,node/6910797817
-3.9898295,,0,Arrêt,5.4042516,node/6910797818
-3.9911934,,0,Saint Ambroise,5.4070126,node/6910797819
-3.9941237,,0,Arrêt,5.4103992,node/6910797820
-3.9953287,,0,Arrêt,5.4136035,node/6910797821
-4.0043772,,0,Lycée Classique d'Abidjan,5.3317315,node/6912410269
-4.0047695,,0,Hôtel Ivoire,5.3286968,node/6912410270
-4.0029871,,0,Hôtel Ivoire,5.3278806,node/6912410271
-4.0032565,,0,Hôtel Ivoire,5.3277329,node/6912410272
-4.0045047,,0,Lycée Classique d'Abidjan,5.3327049,node/6912410273
-4.0037108,,0,SODEMI,5.3439798,node/6912410274
-4.0095505,,0,Pont lycée technique,5.3477876,node/6912410275
-4.0751626,,0,Carrefour Express,5.3290976,node/6912654329
-4.0012691,,0,BMW,5.3581253,node/6912729876
-3.998725,,0,SOCITECH,5.3601195,node/6912729877
-3.9976354,,0,Macaci,5.3648148,node/6912729878
-3.9983993,,0,Mobil 2 Plateaux,5.367356,node/6912729879
-3.9984268,,0,Sococé 2 Plateaux,5.3718047,node/6912729880
-3.9985198,,0,BOA,5.3745478,node/6912729881
-3.9985338,,0,Snedai,5.3755833,node/6912729882
-3.9976312,,0,Carrefour Duncan,5.3776569,node/6912729883
-3.9943103,,0,Las Palmas,5.3809527,node/6912729884
-4.0792393,,0,Pharmacie du Marché,5.3388207,node/6912805206
-4.0765581,,0,[Arret sans nom],5.3373258,node/6912805207
-4.0752894,,0,Patisserie,5.3384061,node/6912805208
-4.0652525,,0,Ex Chaine Avion Rue Princesse,5.3467623,node/6912805209
-4.0599974,,0,Camp FRCI,5.3408189,node/6912805210
-4.0572368,,0,Carrefour Marché,5.3398655,node/6912805211
-4.0549944,,0,Carrefour Lama Fofana,5.3373205,node/6912805212
-4.0550186,,0,Banque Atlantique,5.3337105,node/6912805213
-4.0520655,,0,Offoumou Yapo,5.3316575,node/6912805214
-4.0497521,,0,Tizra,5.3293394,node/6912805215
-4.0494691,,0,[Arret sans nom],5.3264792,node/6912805216
-4.0494999,,0,Arrêt,5.3247299,node/6912805217
-4.0354465,,0,Gare Abobo Doumé,5.3104606,node/6912805219
-3.9932407,,0,Carrefour Opéra,5.3847656,node/6912820385
-3.9927523,,0,Mahikari,5.3888111,node/6912820386
-3.992269,,0,Ambassade de Chine,5.3926338,node/6912820387
-3.9921141,,0,Les Oscars,5.3942154,node/6912820388
-3.9918337,,0,BHCI,5.3963811,node/6912820389
-3.9913523,,0,Shawarma House,5.4005116,node/6912820390
-3.9909124,,0,Petro Ivoire Angré,5.4038172,node/6912820391
-3.9882535,,0,Notre Dame,5.4042033,node/6912820392
-3.9819806,,0,FIRDA,5.4034748,node/6912820393
-3.9765606,,0,"Ancien Terminus 90, Les Arcades",5.4033098,node/6912820394
-3.9728354,,0,Soleil 2,5.4006902,node/6912820395
-3.9694727,,0,Clinique Médicale Sainte Justine,5.3971939,node/6912820396
-3.9648829,,0,Cité Diaspora,5.3998522,node/6912820397
-3.9697282,,0,Clinique Médicale Sainte Justine,5.3972237,node/6912820398
-3.9764213,,0,"Ancien Terminus 90, Les Arcades",5.4031598,node/6912820399
-3.9820585,,0,FIRDA,5.4033208,node/6912820400
-3.9856793,,0,Termunis 81/82,5.4037772,node/6912820401
-3.9887434,,0,Notre Dame,5.4041375,node/6912820402
-3.9906882,,0,Petro Ivoire Angré,5.4037567,node/6912820403
-3.9911377,,0,Carrefour 22è,5.4002961,node/6912820404
-3.9915941,,0,BHCI,5.3965825,node/6912820405
-3.9920829,,0,Ambassade de Chine,5.3926201,node/6912820406
-3.9924668,,0,Mahikari,5.3895654,node/6912820407
-3.9930996,,0,Opéra,5.3845481,node/6912820408
-3.9940546,,0,Las Palmas,5.3809502,node/6912820409
-3.9970644,,0,Carrefour Duncan,5.3779505,node/6912820410
-3.9983567,,0,Le Roi du Pain,5.3753472,node/6912820411
-3.9983278,,0,Sococé 2 Plateaux,5.3725038,node/6912820412
-3.9981432,,0,Mobil 2 Plateaux,5.3677225,node/6912820413
-3.9973648,,0,Macaci,5.3654376,node/6912820414
-4.0012391,,0,Saint Jacques,5.3574699,node/6912820415
-4.0018639,,0,Palm Club,5.3525544,node/6912820416
-4.0022742,,0,Carrefour la Vie,5.3493692,node/6912820417
-4.0028093,,0,Arrêt,5.344562,node/6912820418
-4.0255438,,0,Sitarail,5.3266074,node/6913011676
-4.073499,,0,Gare Yopougon Kouté,5.3293875,node/6913011677
-4.0441328,,0,Bon choix,5.3134744,node/6913190443
-4.043768,,0,Santé Village,5.3087112,node/6913190444
-4.0440879,,0,Iris 3,5.3166799,node/6913190445
-4.0441167,,0,Arrêt,5.3208014,node/6913190446
-4.0468311,,0,La faveur,5.3221154,node/6913190447
-4.0496448,,0,Arrêt,5.323918,node/6913190448
-4.0503167,,0,Commissariat de Police du 19ᵉ Arrondissement,5.3270841,node/6913190449
-4.0501732,,0,Tizra,5.3295798,node/6913190450
-4.0519957,,0,Offoumou Yapo,5.3313998,node/6913190451
-4.0550937,,0,La Poste,5.3337753,node/6913190452
-4.055093,,0,Pharmacie Sacré-cœur,5.3369773,node/6913190453
-4.058547,,0,Pharmacie Béatitude,5.3401473,node/6913190454
-4.0608235,,0,Nouveau quartier,5.3407362,node/6913190455
-4.0650474,,0,Ex Chaine Avion Rue Princesse,5.3466167,node/6913190456
-4.0678006,,0,Newton,5.3447353,node/6913190457
-4.0745628,,0,Marche Sicogi,5.3395304,node/6913190458
-4.0751928,,0,Patisserie,5.3379928,node/6913190459
-4.0770331,,0,Pharmacie du Marché,5.3372574,node/6913190460
-4.0806585,,0,Terrain Sogefiha,5.3372711,node/6913190461
-4.0733126,,0,Antenne,5.3335416,node/6913201897
-4.0757574,,0,Cabine Bleue,5.3290163,node/6913201898
-4.0799806,,0,Akadjoba,5.3243327,node/6913201899
-4.0871836,,0,Saint Pierre,5.3239194,node/6913201900
-4.0925668,,0,EPP Niangon,5.3233739,node/6913201901
-4.0944323,,0,Arrêt,5.3197171,node/6913201902
-4.0947904,,0,Arrêt,5.3163701,node/6913201903
-4.0928994,,0,Arrêt Yop 38,5.3152357,node/6913201904
-4.0900334,,0,Terminus 27,5.315995,node/6913201907
-4.0934497,,0,Arrêt,5.3150643,node/6913201908
-4.0948509,,0,EPP SICOGI Niangon Sud,5.3172602,node/6913201909
-4.0943199,,0,Carrefour Marché,5.3202551,node/6913201910
-4.0926667,,0,EPP Niangon,5.3233885,node/6913201911
-4.0869619,,0,Saint Pierre,5.3240967,node/6913201912
-4.0797426,,0,Akadjoba,5.3246783,node/6913201913
-4.0762905,,0,Arrêt de bus,5.3287702,node/6913201914
-4.0184952,,0,Gare Sud,5.3146172,node/6913201915
-4.0183564,,0,Gare Sud,5.3144986,node/6913291219
-3.9977011,,0,CNTG-BNETD,5.329485,node/6913703797
-3.9970399,,0,UCAO,5.3310059,node/6913703798
-3.9973538,,0,Maison du PDCI-RDA,5.3350719,node/6913703799
-3.9997195,,0,Piscine d’État de Treichville,5.3084936,node/6913703800
-3.990551,,0,NSIA,5.3074734,node/6913703801
-3.9837714,,0,Gare Marcory,5.3086966,node/6913703802
-3.9975172,,0,Maison du Parti,5.3353656,node/6913703803
-3.9969162,,0,UCAO,5.3310313,node/6913703804
-3.9976804,,0,CNTG-BNETD,5.3293836,node/6913703805
-4.0658826,,0,Sable,5.3557108,node/6913857608
-4.0646331,,0,Complexe Sportif de Yopougon,5.3407344,node/6913857611
-4.0665987,,0,Mairie de Yopougon,5.3424009,node/6913857612
-4.0375561,,0,La Marine,5.3443401,node/6913929664
-4.0262003,,0,Sitarail,5.3278599,node/6913929665
-4.0182404,,0,Gare Sud,5.3146272,node/6913929666
-4.0376761,,0,La Marine,5.3441859,node/6913929668
-4.0737128,,0,Gare Yopougon Kouté,5.3295615,node/6913929669
-4.0216157,,0,Gendarmerie,5.3367091,node/6913931703
-4.0217222,,0,Gendarmerie,5.3369705,node/6913974340
-3.9728972,,0,Soleil 2,5.400545,node/6915341517
-3.9837323,,0,Arrêt,5.4035247,node/6915341518
-3.9906836,,0,Arrêt,5.4062326,node/6915341519
-3.9894234,,0,Arrêt,5.4297269,node/6915341520
-3.9891222,,0,Arrêt,5.4313416,node/6915341521
-3.9725804,,0,Abobo Biabou,5.4564179,node/6915341523
-3.9726482,,0,Abobo Biabou,5.4564283,node/6915341525
-3.978184,,0,Arrêt,5.4454571,node/6915341526
-3.9810371,,0,Arrêt,5.4430187,node/6915341527
-3.9831075,,0,Arrêt,5.441543,node/6915341528
-3.9847859,,0,Arrêt,5.4403681,node/6915341529
-3.9859783,,0,Arrêt,5.4391313,node/6915341530
-3.9875153,,0,Arrêt,5.4368688,node/6915341531
-3.987991,,0,Arrêt,5.4356843,node/6915341532
-3.9883619,,0,Arrêt,5.434457,node/6915341533
-3.9887503,,0,Arrêt,5.4327625,node/6915341534
-3.9889419,,0,Arrêt,5.4312302,node/6915341535
-3.9892581,,0,Arrêt,5.4293215,node/6915341536
-3.9896961,,0,Arrêt,5.4264243,node/6915341537
-3.9902515,,0,Arrêt,5.4229496,node/6915341538
-3.9905681,,0,Arrêt,5.4208149,node/6915341539
-3.9907254,,0,Arrêt,5.4195345,node/6915341540
-3.9909298,,0,Arrêt,5.4182159,node/6915341541
-3.9922122,,0,Arrêt,5.4158878,node/6915341542
-3.9928597,,0,Arrêt,5.4154923,node/6915341543
-3.9947036,,0,Arrêt,5.4148205,node/6915341544
-3.9952879,,0,Arrêt,5.4141247,node/6915341545
-3.9932262,,0,Arrêt,5.409531,node/6915341546
-3.990564,,0,Petro Ivoire Angré,5.4050885,node/6915341547
-3.9829561,,0,Arrêt,5.403643,node/6915341548
-3.9807645,,0,Arrêt,5.4033522,node/6915341549
-3.96346,,0,9 Kilo,5.3585446,node/6915487638
-3.9586683,,0,Rond-Point de la Palmeraie,5.360974,node/6915487639
-3.9598948,,0,Carrefour de la Gendarmerie,5.3606149,node/6915487640
-3.9665508,,0,Cap Nord,5.3568703,node/6915487641
-3.9779824,,0,Riviera 2,5.3532599,node/6915487642
-3.9881887,,0,École de Police,5.3502292,node/6915487643
-3.9943092,,0,École de la Gendarmerie,5.3492233,node/6915487644
-4.0018322,,0,Carrefour de la Vie,5.3485522,node/6915487645
-4.0185375,,0,Mairie d'ABOBO,5.4217637,node/6915647682
-4.0212736,,0,Arrêt,5.4270593,node/6915647683
-4.0241622,,0,Arrêt,5.4303911,node/6915647684
-3.9635319,,0,9 Kilo,5.3587403,node/6915696792
-3.9620358,,0,Chic Shop,5.3596047,node/6915696795
-3.9657802,,0,Cap Nord,5.3574857,node/6915696796
-3.9881605,,0,École de Police,5.3504609,node/6915696797
-3.9916044,,0,Carrefour CHU,5.3494956,node/6915696798
-3.994457,,0,École de la Gendarmerie,5.3493834,node/6915696799
-4.0029649,,0,Carrefour de la Vie,5.3485982,node/6915696800
-4.0266778,,0,Arrêt,5.4333404,node/6915722685
-4.0446977,,0,Anokoi,5.4390733,node/6915722686
-4.0485036,,0,PK 18 Agripac,5.4434752,node/6915722687
-4.0512502,,0,Arrêt,5.4482915,node/6915722688
-4.0529903,,0,Arrêt,5.4503535,node/6915722689
-4.0545715,,0,Arrêt,5.4565524,node/6915722690
-4.054497,,0,Arrêt,5.4574448,node/6915722691
-4.0544278,,0,Arrêt,5.465098,node/6915722692
-4.0540279,,0,Arrêt,5.4662168,node/6915722693
-4.0530974,,0,Arrêt,5.4680953,node/6915722694
-4.0538658,,0,Arrêt,5.4794949,node/6915722695
-4.0513358,,0,Arrêt,5.4828953,node/6915722696
-4.0513476,,0,Arrêt,5.4837187,node/6915722697
-4.05146,,0,Arrêt,5.4866626,node/6915722698
-4.0515593,,0,Arrêt,5.4890597,node/6915722699
-4.0516047,,0,Arrêt,5.4904279,node/6915722700
-4.0516233,,0,Arrêt,5.490915,node/6915722701
-4.051639,,0,Arrêt,5.4914503,node/6915722702
-4.0516636,,0,Arrêt,5.4928779,node/6915722703
-4.0517658,,0,Arrêt,5.4940805,node/6915722704
-4.0517794,,0,Arrêt,5.495095,node/6915722705
-4.0516644,,0,Arrêt,5.4960474,node/6915722706
-4.0515036,,0,Arrêt,5.4970767,node/6915722707
-4.051438,,0,Arrêt,5.497669,node/6915722708
-4.0513918,,0,Arrêt,5.4979794,node/6915722709
-4.0516497,,0,Arrêt,5.4995751,node/6915722710
-4.0519247,,0,Arrêt,5.500507,node/6915722711
-4.0520934,,0,Arrêt,5.5011338,node/6915722712
-4.0522125,,0,Arrêt,5.5015989,node/6915722713
-4.0525268,,0,Arrêt,5.5026911,node/6915722714
-4.0530594,,0,Arrêt,5.5045432,node/6915722715
-4.0532829,,0,Arrêt,5.5053444,node/6915722716
-4.0531365,,0,Mairie d'Anyama,5.5064599,node/6915722717
-4.0530408,,0,Mairie d'Anyama,5.5064064,node/6915722719
-4.0513828,,0,Arrêt,5.4976427,node/6915722720
-4.0523687,,0,Arrêt,5.5027177,node/6915722721
-4.0514357,,0,Arrêt,5.4994894,node/6915722722
-4.0516383,,0,Arrêt,5.4949787,node/6915722723
-4.051407,,0,Arrêt,5.4888603,node/6915722724
-4.0513417,,0,Arrêt,5.4863031,node/6915722725
-4.0512201,,0,Arrêt,5.4825896,node/6915722726
-4.0531887,,0,Arrêt,5.479955,node/6915722727
-4.0552147,,0,Arrêt A l'Ecole,5.4757466,node/6915722728
-4.0531044,,0,Arrêt Contrôle,5.470731,node/6915722729
-4.0534141,,0,Arrêt,5.4669354,node/6915722730
-4.053759,,0,Arrêt Ancienne Gendarmerie,5.4611068,node/6915722731
-4.0544875,,0,Arrêt,5.4526174,node/6915722732
-4.0526523,,0,Arrêt Ancien Marché,5.4503748,node/6915722733
-4.0510764,,0,Arrêt Terminus,5.4483606,node/6915722734
-4.0491425,,0,Arrêt Agripac,5.4449974,node/6915722735
-4.0484067,,0,Arrêt,5.4436482,node/6915722736
-4.0057551,,0,Terminus dépôt SOTRA,5.28758,node/6916152424
-4.0084018,,0,Pharmacie du Port,5.2890666,node/6916152425
-4.0033572,,0,Arrêt du CHU,5.2961604,node/6916152426
-4.0024808,,0,Gare de Bassam,5.2991407,node/6916152427
-4.0026565,,0,Arrêt,5.3478959,node/6916181080
-3.9983308,,0,Grande Pharmacie /Terminus 300FCFA,5.3700062,node/6916181081
-3.9930971,,0,Arrêt,5.4157357,node/6916280433
-3.9940211,,0,Terminus Abobo Baoulé,5.4149934,node/6916280434
-3.9948875,,0,Pharmacie Actuelle,5.4129627,node/6916280435
-3.9939447,,0,Arrêt,5.4103431,node/6916280436
-3.9923863,,0,Arrêt,5.4085794,node/6916280437
-3.9910921,,0,Saint Ambroise,5.4071215,node/6916280438
-3.990494,,0,Arrêt,5.4055233,node/6916280439
-3.9910264,,0,Arrêt,5.4011787,node/6916280440
-3.9912618,,0,Carrefour 22ème,5.3991513,node/6916280441
-3.991524,,0,SODECI,5.3973362,node/6916280442
-3.9918311,,0,Paris Baguette,5.3945043,node/6916280443
-3.9927256,,0,Arrêt,5.3875127,node/6916280444
-3.9952144,,0,Arrêt,5.3797969,node/6916280445
-3.9983542,,0,NSIA,5.3737207,node/6916280446
-3.9981216,,0,SGBGI,5.3700155,node/6916280447
-4.002571,,0,Cité BAD,5.3465781,node/6916280448
-4.0035403,,0,CIE,5.3386878,node/6916280449
-3.9865047,,0,Commissariat du 9 ème,5.3065218,node/6917146061
-3.9857063,,0,Commissariat du 9 ème,5.3061086,node/6917146062
-3.9807831,,0,King Cash,5.3034179,node/6917146063
-3.9776047,,0,Cabinet Médical du 3ème pont,5.3015677,node/6917146064
-3.9757915,,0,Marché de Marcory,5.3005869,node/6917146065
-3.9722389,,0,Paroisse Sainte Bernadette,5.2986259,node/6917146066
-3.9714765,,0,Pharmacie Bagoué,5.2982013,node/6917146067
-3.9688084,,0,Bank of Africa,5.2968312,node/6917146068
-3.9650103,,0,Arrêt,5.2965895,node/6917146069
-3.9608221,,0,Arrêt,5.2975636,node/6917146070
-3.9572333,,0,Place Inchallah,5.2983628,node/6917146071
-3.9531506,,0,Koumassi Prodomo,5.299281,node/6917146072
-3.9494388,,0,Gare Mesano,5.3001329,node/6917146073
-3.9476752,,0,Koumassi Mesano,5.3008577,node/6917146074
-3.9483867,,0,Koumassi Mesano,5.3002935,node/6917146075
-3.9505841,,0,Station Petro Ivoire,5.2998074,node/6917146076
-3.9543702,,0,Palce Inchallah,5.2989496,node/6917146077
-3.9585451,,0,Arrêt,5.2980163,node/6917146078
-3.9619419,,0,Arrêt,5.2972737,node/6917146079
-3.9660523,,0,Arrêt,5.2962808,node/6917146080
-3.9687629,,0,Bank of Africa,5.296728,node/6917146081
-3.9712863,,0,Pharmacie Bagoué,5.2980069,node/6917146082
-3.9759814,,0,Marché de Marcory,5.3006211,node/6917146083
-3.9778785,,0,Cabinet Médical du 3ème pont,5.3016585,node/6917146084
-3.9828404,,0,Arrêt,5.3044464,node/6917151685
-3.9860886,,0,Commissariat du 9 ème,5.3062161,node/6917151686
-3.988849,,0,Arrêt,5.3077309,node/6917151687
-3.9904413,,0,Yan Auto Ecole,5.3084636,node/6917151688
-4.0352896,,0,Gare Abobodoumé,5.3106101,node/6919194336
-4.0923844,,0,Cité Bracodi Rte Cité verte,5.3270854,node/6919312942
-4.1119954,,0,Cité Verte,5.332209,node/6919312943
-4.109973,,0,Collège Sebaco,5.3316148,node/6919312945
-4.1058974,,0,Cité Bracodi Rte Cité verte,5.3306787,node/6919312946
-4.1035223,,0,Banque BNI,5.3296893,node/6919312947
-4.100539,,0,Le repère,5.3284241,node/6919312948
-4.0976201,,0,Carrefour de Niangon,5.3278005,node/6919312949
-4.0812954,,0,Akadjoba,5.3241547,node/6919312950
-4.0351267,,0,Gare Abobodoumé,5.3103655,node/6919312951
-4.053652,,0,Le petit soleil,5.322126,node/6919327587
-4.0573213,,0,Blé Doré,5.3235388,node/6919327588
-4.0669544,,0,Marché Kouté,5.3241224,node/6919327589
-4.0710314,,0,Carrefour Kouté,5.3251706,node/6919327590
-4.0761933,,0,Marejea,5.325455,node/6919327591
-4.0818366,,0,Akadjoba,5.3238646,node/6919327593
-4.0914322,,0,Arrêt,5.3264405,node/6919327594
-4.0976496,,0,Carrefour de Niangon,5.327729,node/6919327595
-4.1005786,,0,Le repère,5.3283566,node/6919327596
-4.1035169,,0,Top Qualitée,5.3295851,node/6919327597
-4.1063239,,0,Cité Bracodi Rte Cité verte,5.3307695,node/6919327598
-3.9831407,,0,Arrêt,5.2982594,node/6919758025
-3.9792079,,0,Arrêt,5.2961308,node/6919758026
-3.9763809,,0,Arrêt,5.2945624,node/6919758027
-3.9743974,,0,Arrêt,5.293456,node/6919758028
-3.9712223,,0,Arrêt,5.2927669,node/6919758029
-3.9690283,,0,Arrêt,5.2932236,node/6919758030
-3.965347,,0,Arrêt,5.2940469,node/6919758031
-3.9603108,,0,Arrêt,5.2951953,node/6919758032
-3.9565101,,0,Arrêt,5.2961324,node/6919758033
-3.9526269,,0,Sogefia,5.297599,node/6919758034
-3.9478318,,0,Arrêt,5.2987064,node/6919758035
-3.9469644,,0,Station Petro Ivoire,5.3015424,node/6919758036
-3.9453759,,0,Arrêt,5.3043266,node/6919758037
-3.946713,,0,Bon Samaritain,5.3080062,node/6919758038
-3.9473403,,0,Pharmacie Fanny,5.3099762,node/6919758039
-3.9466942,,0,Patisserie MC,5.3109106,node/6919758040
-3.9450346,,0,Terminus 05 Lycée Municipal de Koumassi,5.311165,node/6919758041
-4.0106387,,0,"Avenue 19, Rue 12, Treichville",5.3023303,node/6924851825
-4.0115547,,0,FIESTA,5.3047639,node/6924851826
-4.0006757,,0,Treichville Entente,5.3028704,node/6924851828
-4.0016802,,0,Nostalgie,5.3015791,node/6924851829
-4.003555,,0,Banque Bicici,5.300882,node/6924851830
-4.0062869,,0,[Arret sans nom],5.2999593,node/6924851831
-4.0277536,,0,Gare Nord,5.3586294,node/6924851833
-4.0106307,,0,"Avenue 19, Rue 12, Treichville",5.3025272,node/6924979791
-4.0062426,,0,Pharmacie de l'Avenue 27,5.3029946,node/6924979792
-4.0008245,,0,Treichville Entente,5.3032777,node/6924979794
-4.0208888,,0,[Arret sans nom],5.3296238,node/6926746685
-4.0236032,,0,Cité Administrative,5.3309876,node/6926746686
-4.018979,,0,Terminus Gare Sud,5.3149603,node/6926746688
-4.0096436,,0,Station Total,5.3018048,node/6926746689
-3.9737989,,0,Arrêt,5.4538834,node/6926746749
-3.9864522,,0,Arrêt,5.4385456,node/6926746750
-3.9903197,,0,Arrêt,5.4222388,node/6926746751
-3.9996626,,0,Arrêt,5.4154549,node/6926746752
-4.0016378,,0,Arrêt,5.4154484,node/6926746753
-4.0054049,,0,Arrêt,5.4155231,node/6926746754
-4.0071858,,0,Samaké,5.4152696,node/6926746755
-4.0280449,,0,Gare Nord,5.3590439,node/6926746757
-4.0019605,,0,Arrêt,5.4155963,node/6926746758
-3.9928882,,0,Arrêt,5.4156232,node/6926746759
-3.9908193,,0,Sotra,5.4196603,node/6926746760
-3.9904401,,0,Arrêt,5.422222,node/6926746761
-3.9898619,,0,Arrêt,5.4265157,node/6926746762
-3.9886816,,0,Arrêt,5.43368,node/6926746763
-3.9873449,,0,Arrêt,5.4374054,node/6926746764
-3.9850082,,0,Arrêt,5.4402786,node/6926746765
-3.9807703,,0,Arrêt,5.443381,node/6926746766
-3.9785569,,0,Arrêt,5.4451883,node/6926746767
-3.946597,,0,Bon Samaritain,5.3079127,node/6926943107
-3.9451392,,0,Pharmacie Campement,5.3050831,node/6926943108
-3.9835873,,0,Hôpital Général de Marcory,5.3011838,node/6926943109
-4.0046641,,0,Pharmacie Notre-Dame,5.3034579,node/6926943110
-4.0185633,,0,Gare Sud,5.3146776,node/6926943111
-4.0236086,,0,Cité Administrative,5.3311928,node/6926943112
-3.9840318,,0,[Arret sans nom],5.3051694,node/6927022357
-3.9930649,,0,Arrêt,5.4159386,node/6927037611
-4.0063405,,0,Arrêt,5.408251,node/6927037612
-4.0063848,,0,Arrêt,5.4057129,node/6927037613
-4.0064518,,0,Arrêt,5.4013897,node/6927037614
-4.0057893,,0,Arrêt,5.3930717,node/6927037615
-4.0056726,,0,Arrêt,5.3875774,node/6927037616
-4.0066168,,0,Arrêt,5.3801858,node/6927037617
-4.0168427,,0,Arrêt,5.3625903,node/6927037618
-4.0169801,,0,Pharmacie le Belier,5.3503578,node/6927037619
-4.0178358,,0,Fraternité Matin,5.3456673,node/6927037620
-4.0237561,,0,Arrêt,5.3411247,node/6927037621
-4.0237963,,0,Arrêt,5.3372751,node/6927037622
-4.0238252,,0,Arrêt,5.3339228,node/6927037623
-4.0238251,,0,Cité Administrative,5.3310139,node/6927037625
-4.0238861,,0,Arrêt,5.3339515,node/6927037626
-4.0238741,,0,Ministère de la défense,5.3377117,node/6927037627
-4.0161668,,0,Arrêt,5.3557539,node/6927037628
-4.0068716,,0,Arrêt,5.379605,node/6927037629
-4.0059958,,0,Arrêt,5.386285,node/6927037630
-4.0065437,,0,Arrêt,5.4018603,node/6927037631
-3.9933257,,0,Abobo Belleville,5.4158855,node/6927037633
-4.0125125,,0,Arrêt,5.3434193,node/6927327302
-4.0103402,,0,Arrêt,5.346265,node/6927327303
-4.0088409,,0,Arrêt,5.3494085,node/6927327304
-4.0044479,,0,Arrêt,5.3529759,node/6927327305
-3.989773,,0,Arrêt,5.4043844,node/6927327306
-3.9851483,,0,Arrêt,5.4048944,node/6927327307
-3.9867901,,0,Arrêt,5.4082838,node/6927327308
-3.9890592,,0,Arrêt,5.407261,node/6927327309
-4.0043218,,0,Arrêt,5.3528041,node/6927327310
-4.0085859,,0,Arrêt,5.3493597,node/6927327311
-4.0102683,,0,Arrêt,5.3461658,node/6927327312
-4.0124663,,0,Polyclinique,5.3433536,node/6927327313
-4.0186967,,0,Gare Sud,5.3147983,node/6927327314
-3.9464354,,0,Campement,5.3022414,node/6927330411
-3.9450815,,0,Terminus 05 Lycée Municipal de Koumassi,5.3120389,node/6927330412
-3.9472561,,0,Pharmacie Fanny,5.3099838,node/6927330413
-4.0047298,,0,Arrêt,5.3362229,node/6927330414
-3.9938503,,0,Gare Campus Cocody,5.3462362,node/6927330416
-3.9972169,,0,INSAAC,5.3463523,node/6927544633
-4.0030417,,0,Saint Jean,5.3359628,node/6927544634
-4.0029552,,0,Saint Jean,5.3358129,node/6927544636
-3.9970998,,0,Gendarmerie,5.3482687,node/6927544637
-4.0175371,,0,Arrêt,5.3536864,node/6927600976
-4.0250561,,0,Mirador,5.3567305,node/6927600977
-4.0241115,,0,Arrêt SICOGI,5.3566458,node/6927631763
-4.0275494,,0,Gare Nord,5.3592856,node/6927694921
-3.9971908,,0,Arrêt,5.3470894,node/6927701716
-3.9700449,,0,Terminus Riviera 2,5.3534453,node/6928179123
-3.9736351,,0,Cité étudiante Riviera 2,5.3533983,node/6928179124
-3.9780678,,0,Riviera 2,5.3525929,node/6928179125
-3.9805625,,0,Petite Mosquée Riviéra Jardin,5.3512739,node/6928179126
-3.9803499,,0,Petite Mosquée Riviéra Jardin,5.3516026,node/6928250859
-3.9781867,,0,Riviera 2,5.3526374,node/6928250860
-3.9761267,,0,Arrêt,5.3530707,node/6928250861
-3.9702004,,0,Terminus Riviera 2,5.3534857,node/6928250862
-3.9975737,,0,Terminus Vridi-Iran,5.2563753,node/6928681599
-4.0101948,,0,Arrêt Cuirasse Ciment,5.2947326,node/6928681601
-4.0279685,,0,Gare Nord,5.3588804,node/6928681602
-4.0228924,,0,Terminus 32,5.3050571,node/6928704112
-4.0170398,,0,[Arret sans nom],5.3002851,node/6928704113
-4.0140854,,0,"Etablissements Rey, Port",5.29778,node/6928704114
-3.9995223,,0,Arrêt Bolloré logistique,5.264595,node/6928704115
-3.9975522,,0,Terminus Vridi-Iran,5.2562337,node/6928704117
-4.0182207,,0,Gare Sud,5.3143818,node/6929796960
-4.0189046,,0,Terminus Gare Sud,5.314962,node/6929849943
-3.9888954,,0,Arrêt,5.3078566,node/6930487819
-3.8943455,,0,Station Corlay Bingerville,5.3612016,node/6930917942
-3.9581935,,0,Après barrage,5.3618466,node/6930917943
-3.9537437,,0,Dalia,5.364055,node/6930917944
-3.9497378,,0,Église Apostolique de Côte d'Ivoire,5.3653603,node/6930917945
-3.94563,,0,Camp Militaire d'Akouédo,5.3673945,node/6930917946
-3.9389929,,0,Carrefour Faya,5.370105,node/6930917947
-3.9347483,,0,Résidence Genie 2000,5.3712573,node/6930917948
-3.9301188,,0,Optic 2000,5.3725084,node/6930917949
-3.9237472,,0,Jules Verne,5.3741413,node/6930917950
-3.9108525,,0,Pharmacie Saint Sylvestre,5.3718715,node/6930917951
-3.9083956,,0,Cité Hévéas,5.3645064,node/6930917952
-3.9031767,,0,Université de Cocody Pole Scientifique,5.3606115,node/6930917953
-3.8979524,,0,CIE,5.360275,node/6930917954
-3.8963887,,0,[Arret sans nom],5.360916,node/6930917955
-3.8909747,,0,Lycée Garçon de Bingerville,5.3577634,node/6930917956
-3.8866322,,0,Carrefour Marché,5.3574363,node/6930917957
-3.8843503,,0,Espace Orange,5.3583363,node/6930917958
-3.8841063,,0,Hôpital Mère-Enfant de Bingerville,5.360674,node/6930917959
-3.886655,,0,Carrefour Marché,5.3573589,node/6930917961
-3.8908299,,0,Lycée Garçon de Bingerville,5.3576746,node/6930917962
-3.8980114,,0,CIE,5.3601255,node/6930917963
-3.9020951,,0,Université de Cocody Pole Scientifique,5.360215,node/6930917964
-3.9084667,,0,Cité Hévéas,5.3643261,node/6930917965
-3.9097783,,0,Cité Marina,5.368265,node/6930917966
-3.9108391,,0,Arrêt,5.3714883,node/6930917967
-3.9233838,,0,Jules Verne,5.3740098,node/6930917968
-3.9324215,,0,Coris Bank,5.3716378,node/6930917969
-3.9379911,,0,Arrêt,5.3701704,node/6930917970
-3.9456984,,0,Camp Militaire d'Akouédo,5.3671088,node/6930917971
-3.9527636,,0,[Arret sans nom],5.3637324,node/6930917972
-3.9579964,,0,Après barrage,5.3617224,node/6930917973
-3.94723,,0,Arrêt,5.2993777,node/6931151021
-3.9523798,,0,Sogefia,5.2975523,node/6931151022
-3.9571428,,0,Arrêt,5.2958991,node/6931151023
-3.9596352,,0,Pharmacie Saint François,5.2952895,node/6931151024
-3.9646348,,0,Grande Pharmacie Iroko,5.2941237,node/6931151025
-3.9695299,,0,Arrêt,5.2929966,node/6931151026
-3.971683,,0,Pharmacie Du Boulevard Du Gabon,5.2924858,node/6931151027
-3.9757097,,0,Polyclinique La Madone,5.2940696,node/6931151028
-3.9801776,,0,Arrêt,5.2965781,node/6931151029
-3.9828604,,0,Arrêt,5.298031,node/6931151030
-4.027668,,0,Gare Nord,5.3590066,node/6931151031
-3.9540428,,0,Koumassi Sicogi - Dépôt SOTRA,5.2873212,node/6931273195
-3.964256,,0,[Arret sans nom],5.2849829,node/6931273196
-3.9651793,,0,[Arret sans nom],5.2875055,node/6931273197
-3.9684516,,0,Arrêt,5.2873493,node/6931273198
-3.9694119,,0,[Arret sans nom],5.2883388,node/6931273199
-3.9762314,,0,Sicomex,5.293018,node/6931273200
-4.0184375,,0,Gare Sud,5.3148159,node/6931273203
-4.0117713,,0,Pharmacie du Rond-point,5.3074119,node/6931792543
-4.0071049,,0,[Arret sans nom],5.3090558,node/6931792544
-3.9672808,,0,Centre Commercial Koumassi,5.2889971,node/6931792545
-3.9622262,,0,Arrêt,5.2839293,node/6931792546
-3.9586401,,0,Pharmacie Bethanie,5.2847439,node/6931792547
-3.9543311,,0,Arrêt,5.2857761,node/6931792548
-3.9538698,,0,Koumassi Sicogi - Dépôt SOTRA,5.2884523,node/6931792550
-3.970533,,0,Grand Carrefour de Koumassi,5.2870688,node/6931985671
-4.001299,,0,Ivosep Treichville,5.2985627,node/6931985672
-4.060057,,0,Arrêt,5.3266769,node/6932152400
-4.0598402,,0,Ghandi,5.3250076,node/6932152402
-4.0599193,,0,Ghandi,5.3253408,node/6932152404
-4.0669167,,0,Arrêt,5.3600658,node/6932152405
-4.0182858,,0,Gare Sud,5.314853,node/6932152407
-3.9502595,,0,CIAD,5.3286224,node/6932239010
-3.951901,,0,Arrêt,5.3291271,node/6932239011
-3.9522216,,0,Arrêt,5.338314,node/6932239012
-3.9526011,,0,Carrefour Mel Theodore,5.3443655,node/6932239013
-3.9535043,,0,Pharmacie Riviera III,5.348653,node/6932239014
-3.9545015,,0,Collège l'Ardoise,5.3509724,node/6932239015
-3.9606719,,0,Arrêt,5.3550168,node/6932239016
-3.9637336,,0,Arrêt,5.3569209,node/6932239017
-4.0185761,,0,Gare Sud,5.3149333,node/6932239019
-3.9808642,,0,Angré Château,5.4127978,node/6932253478
-3.984559,,0,Arrêt,5.4102497,node/6932253479
-3.9930569,,0,Arrêt,5.3866094,node/6932253480
-3.9885655,,0,Arrêt,5.4076842,node/6932253481
-3.9809279,,0,Angré Château,5.4128518,node/6932253483
-3.9635029,,0,Arrêt,5.3569409,node/6932323632
-3.9543647,,0,Collège Ardoise,5.3517214,node/6932323633
-3.9531872,,0,Pharmacie Riviera III,5.3485048,node/6932323634
-3.9524998,,0,Carrefour Mel Theodore,5.3446873,node/6932323635
-3.9448656,,0,École libanaise Al Ghadir,5.3284521,node/6932323636
-4.0617429,,0,Terminus Yopougon Camp Militaire,5.3228845,node/6933043352
-4.0599163,,0,Ghandi,5.3245991,node/6933043354
-4.0607049,,0,Arrêt,5.3278586,node/6933043355
-4.0581514,,0,Arrêt,5.3300685,node/6933043356
-4.0559573,,0,[Arret sans nom],5.3314439,node/6933043357
-4.018425,,0,Gare Sud,5.3145591,node/6933043359
-3.9428298,,0,Arrêt,5.3283246,node/6933080250
-3.9447637,,0,École libanaise Al Ghadir,5.3282992,node/6933080251
-3.9460498,,0,Arrêt,5.3283286,node/6933080252
-3.9479502,,0,Pharmacie M'pouto,5.328364,node/6933080253
-3.9527768,,0,Beverly,5.3380122,node/6933080254
-3.9578046,,0,Carrefour Sol Béni,5.3311481,node/6933080255
-3.980421,,0,Arrêt,5.329493,node/6933080256
-3.9996752,,0,SIB,5.3353723,node/6933080257
-3.9401878,,0,Mosquée Cité Eden,5.3284154,node/6933080258
-3.9401855,,0,Mosquée Cité Eden,5.3283646,node/6933080260
-4.0026096,,0,Arrêt,5.3461454,node/6933080262
-3.9789297,,0,Mosquée Golf,5.3391939,node/6933080263
-3.9812806,,0,Arrêt,5.3325809,node/6933080264
-3.9790913,,0,Arrêt,5.3297881,node/6933080265
-3.9529652,,0,Beverly,5.3380134,node/6933080266
-4.0560298,,0,[Arret sans nom],5.3312516,node/6933128807
-4.0580978,,0,Arrêt,5.3299817,node/6933128808
-4.0623571,,0,Terminus Yopougon Camp Militaire,5.3222556,node/6933128810
-4.0094478,,0,Station Total,5.3017767,node/6933231056
-4.0061849,,0,Pharmacie de l'Avenue 27,5.3029158,node/6933231057
-4.0272913,,0,Gare Nord,5.3589712,node/6933291484
-4.0277539,,0,Gare Nord,5.3591995,node/6933302185
-4.0210558,,0,Arrêt,5.4266332,node/6934648710
-4.0538116,,0,Arrêt,5.4438112,node/6934648711
-4.0603428,,0,Arrêt,5.4435976,node/6934648712
-4.0647738,,0,Arrêt,5.4434975,node/6934648713
-4.0679455,,0,Arrêt,5.4433733,node/6934648714
-4.0693985,,0,Arrêt,5.442806,node/6934648715
-4.0686147,,0,Arrêt,5.4392747,node/6934648716
-4.068663,,0,Arrêt,5.4321434,node/6934648717
-4.0699659,,0,Arrêt,5.428223,node/6934648718
-4.0783779,,0,Arrêt,5.413004,node/6934648719
-4.0834808,,0,Arrêt,5.4036687,node/6934648720
-4.0842761,,0,Arrêt,5.4009224,node/6934648721
-4.0810159,,0,Arrêt,5.3935763,node/6934648722
-4.078453,,0,Arrêt,5.3892384,node/6934648723
-4.0757427,,0,Arrêt,5.3836466,node/6934648724
-4.0773951,,0,Arrêt,5.3747704,node/6934648725
-4.0820444,,0,Arrêt,5.3762544,node/6934648726
-4.0759718,,0,Arrêt,5.3838941,node/6934648728
-4.0784458,,0,Arrêt,5.389032,node/6934648729
-4.0806236,,0,Arrêt,5.3928929,node/6934648730
-4.0842976,,0,Arrêt,5.4014804,node/6934648731
-4.0784144,,0,Arrêt,5.4130749,node/6934648732
-4.070195,,0,Arrêt,5.4279813,node/6934648733
-4.0686617,,0,Arrêt,5.4326393,node/6934648734
-4.069498,,0,Arrêt,5.4427909,node/6934648735
-4.0650186,,0,Arrêt,5.4435987,node/6934648736
-4.0602688,,0,Arrêt,5.4437261,node/6934648737
-4.0536714,,0,Arrêt,5.4438909,node/6934648738
-4.0481434,,0,Arrêt,5.4432611,node/6934648739
-4.0438735,,0,Arrêt,5.4392603,node/6934648740
-4.0169741,,0,220 logements,5.3480962,node/6934657650
-3.9618933,,0,Carrefour Akwaba,5.2690497,node/6934657651
-3.9633662,,0,Hôpital de Port-Bouët,5.2629137,node/6934657652
-3.9637684,,0,Nouveau Marché Port-Bouët,5.2574343,node/6934657653
-3.961553,,0,Océan Espadon,5.2567198,node/6934657654
-3.9621216,,0,Église Méthodiste Unie Port-Bouët,5.2542438,node/6934657655
-3.9607128,,0,Wharf Port-Bouët,5.2530566,node/6934657656
-3.9560196,,0,Terminus Port-Bouët Phare,5.2510654,node/6934657657
-4.0201934,,0,Arrêt,5.400118,node/6934749721
-4.0027148,,0,Centre Commercial du Dokui,5.3970398,node/6934798183
-4.0014133,,0,Sainte Monique,5.3997114,node/6934798184
-3.9960703,,0,Superette Akwaba,5.3994163,node/6934815685
-3.9916306,,0,22ème,5.3979557,node/6934815686
-3.9959845,,0,Superette Akwaba,5.3992227,node/6934815687
-3.9972693,,0,Pharmacie Sainte Monique,5.3994417,node/6934815688
-4.0008152,,0,Station Petro Ivoire,5.3997942,node/6934815689
-4.0013301,,0,Sainte Monique,5.3994657,node/6934815690
-4.0026122,,0,Centre Commercial du Dokui,5.3970104,node/6934815692
-4.0506908,,0,Yopougon Kowëit,5.3221354,node/6934872150
-4.0802555,,0,Sideci Matignon,5.3218817,node/6934872151
-4.0109827,,0,Abobo Akeikoi Village,5.4604925,node/6934922723
-4.0111108,,0,Destin,5.4554315,node/6934922724
-4.0126598,,0,André Bar,5.4531085,node/6934922725
-4.0136415,,0,Arrêt,5.4493063,node/6934922726
-4.0143429,,0,Arrêt,5.4446991,node/6934922727
-4.0141618,,0,Arrêt,5.4400103,node/6934922728
-4.0137548,,0,Arrêt,5.4327535,node/6934922731
-4.0124023,,0,Arrêt,5.4336247,node/6934922732
-4.0143033,,0,Arrêt,5.4393221,node/6934922733
-4.0145279,,0,Arrêt,5.4445716,node/6934922734
-4.0137662,,0,Arrêt,5.4493357,node/6934922735
-4.0127617,,0,André Bar,5.4531566,node/6934922736
-4.0112489,,0,Destin,5.4554448,node/6934922737
-4.0110518,,0,Abobo Akeikoi Village,5.4604068,node/6934922738
-4.0352396,,0,Gare Abobodoumé,5.3102833,node/6934970640
-4.0240914,,0,Arrêt,5.4306528,node/6935113685
-4.0236072,,0,Cité Administrative,5.3314011,node/6935113687
-4.0273828,,0,Gare Nord,5.3591731,node/6935117220
-3.9897309,,0,Woodin,5.3610508,node/6935117222
-3.9897537,,0,[Arret sans nom],5.3653222,node/6935117223
-3.9898489,,0,NSIA Banque,5.3685842,node/6935117224
-3.9904759,,0,Leader Price,5.372732,node/6935117225
-3.9926612,,0,Carrefour Sainte Cécile - Terminus 35,5.3770534,node/6935117227
-3.9926425,,0,Carrefour Sainte Cécile - Terminus 35,5.3771843,node/6935251104
-3.9904471,,0,Sococé Vallon,5.3742722,node/6935251105
-3.9897873,,0,NSIA Banque,5.3686002,node/6935251106
-3.9897014,,0,[Arret sans nom],5.364963,node/6935251107
-3.9896753,,0,Woodin,5.3606736,node/6935251108
-3.9907542,,0,Versus Bank,5.3576192,node/6935251109
-3.9912866,,0,École de Police,5.3522302,node/6935251110
-3.99993,,0,Mermoz,5.3387479,node/6935251111
-4.0278565,,0,Gare Nord,5.3591581,node/6935251112
-3.9831166,,0,Groupe Scolaire Kouamé Konan,5.2627714,node/6935274791
-3.9774759,,0,Groupe Scolaire Petit Bassam,5.2569108,node/6935274792
-3.9696513,,0,Arrêt,5.2576259,node/6935274793
-3.965703,,0,Marché,5.2585828,node/6935274794
-3.9608596,,0,Pharmacie Océan,5.2568159,node/6935274796
-3.9581761,,0,Lycée Moderne de Port-Bouët,5.256199,node/6935274797
-3.9610527,,0,Carrefour Akwaba,5.2658583,node/6935274798
-3.9661886,,0,Digue de Koumassi,5.2758153,node/6935274799
-3.9692871,,0,CIE Bia Sud,5.2813533,node/6935274800
-3.962945,,0,Arrêt,5.2900094,node/6935274801
-3.9596587,,0,Arrêt,5.2907532,node/6935274802
-3.9555147,,0,Gare Koumassi,5.294113,node/6935274803
-3.9498116,,0,Pharmacie Regina,5.298266,node/6935274804
-3.9495504,,0,Pharmacie Regina,5.2982253,node/6935274805
-3.9582726,,0,Ajavon,5.2909815,node/6935274806
-3.9612938,,0,Foyer des Jeunes,5.2902818,node/6935274807
-3.9668678,,0,Centre Commercial Koumassi,5.2889304,node/6935274808
-3.9667035,,0,Carrefour Ancien Koumassi,5.2768282,node/6935274809
-3.9577992,,0,43ème Bima,5.2576733,node/6935274810
-3.9579253,,0,Lycée Moderne de Port-Bouët,5.2560567,node/6935274811
-3.9642432,,0,Nouveau Marché Port-Bouët,5.2574824,node/6935274812
-3.965754,,0,District de Port-Bouet,5.2584759,node/6935274813
-3.9693877,,0,Arrêt,5.2576319,node/6935274814
-3.9790309,,0,Arrêt,5.2572754,node/6935274815
-3.9893487,,0,Stade de la SIR,5.2569161,node/6935274816
-4.006142,,0,Arrêt,5.3852315,node/6935401276
-4.0060079,,0,Arrêt,5.3852595,node/6935401277
-4.0064532,,0,Arrêt,5.3984537,node/6935401278
-4.0064304,,0,Arrêt,5.4022949,node/6935401279
-4.0063405,,0,Arrêt,5.4087036,node/6935401280
-4.0062828,,0,Arrêt,5.4109493,node/6935401281
-4.0062493,,0,Arrêt,5.4143906,node/6935401282
-4.0170009,,0,Arrêt,5.420498,node/6935401283
-4.0141176,,0,Arrêt,5.4189547,node/6935401284
-4.0123071,,0,Arrêt,5.4179854,node/6935407385
-4.0094626,,0,Arrêt,5.4164927,node/6935407386
-4.0041834,,0,"Parc des Sports, Boulevard Valéry Giscard d'Estaing",5.2983706,node/6935488165
-3.9445075,,0,Carrefour Aéroport,5.2470403,node/6935488166
-3.9295542,,0,Arrêt,5.2446806,node/6935488167
-3.925598,,0,Arrêt,5.2440381,node/6935488168
-3.922044,,0,Arrêt,5.2434545,node/6935488169
-3.9170243,,0,Arrêt,5.2426599,node/6935488170
-3.9115848,,0,Arrêt,5.2417851,node/6935488171
-3.9051327,,0,Mosquée,5.2407648,node/6935488172
-3.9593026,,0,Arrêt,5.260825,node/6935494486
-3.984569,,0,Avenue de la Côte d'Ivoire / Boulevard V.G.E.,5.2976825,node/6935494487
-3.9005903,,0,Terminus Gonzagueville,5.2402774,node/6935494488
-3.9050053,,0,Mosquée,5.2405691,node/6935494499
-3.9104489,,0,Arrêt,5.2414058,node/6935494500
-3.9156765,,0,Arrêt,5.2422365,node/6935494501
-3.9216458,,0,Arrêt,5.243186,node/6935494502
-3.9251152,,0,Arrêt,5.2437256,node/6935494503
-3.9298091,,0,Arrêt,5.2444775,node/6935494504
-3.9372025,,0,Arrêt,5.2456701,node/6935494505
-3.94366,,0,Arrêt,5.2467051,node/6935494506
-3.9541537,,0,Arrêt,5.2492829,node/6935494507
-3.9579213,,0,43ème Bima,5.2573475,node/6935494508
-4.0065188,,0,Palais des Sports,5.299118,node/6935494509
-4.0149692,,0,Avenue Christiani,5.3101948,node/6935494511
-4.0082087,,0,Arrêt,5.3002327,node/6937770645
-3.9594314,,0,Arrêt,5.2618319,node/6937770646
-3.9424717,,0,Arrêt,5.2467278,node/6937770647
-3.9007735,,0,Terminus Gonzagueville,5.2400864,node/6937770648
-3.8973275,,0,Arrêt,5.2395482,node/6937770649
-3.893671,,0,Arrêt,5.2389973,node/6937770650
-3.8845293,,0,Pharmacie Bénediction,5.2375957,node/6937770652
-3.8802069,,0,Anani,5.2369286,node/6937770653
-3.8798529,,0,Anani,5.2368898,node/6937770654
-3.8749894,,0,Anani - Rond-point,5.2369172,node/6937770655
-3.8833565,,0,Arrêt,5.2372444,node/6937770656
-3.888965,,0,Collège privé les Cartésiens d'Abidjan,5.2380744,node/6937770657
-3.8928086,,0,Arrêt,5.2386868,node/6937770658
-3.8962466,,0,Corridor,5.2391862,node/6937770659
-3.9013763,,0,Terminus Gonzagueville,5.2399789,node/6937770660
-3.9649889,,0,Arrêt,5.256211,node/6937789671
-4.01522,,0,Gare Abobo Sogephia,5.4354794,node/6938095648
-4.0222809,,0,Arrêt,5.4251869,node/6938222040
-4.0239143,,0,Arrêt,5.4191963,node/6938222041
-4.0240283,,0,Arrêt,5.4148659,node/6938222042
-4.0292727,,0,Arrêt,5.4147991,node/6938222043
-4.0807772,,0,Ebimpé Village,5.5005578,node/6938324861
-4.0807946,,0,Arrêt,5.5031942,node/6938324862
-4.0801696,,0,Arrêt,5.5033771,node/6938324863
-4.0769751,,0,Arrêt,5.5031182,node/6938324864
-4.0770207,,0,Arrêt,5.5007033,node/6938324865
-4.0762322,,0,Arrêt,5.5002134,node/6938324866
-4.07344,,0,Arrêt,5.5002334,node/6938324867
-4.0699397,,0,Arrêt,5.5000185,node/6938324868
-4.066591,,0,Arrêt,5.4982283,node/6938324869
-4.0678543,,0,Arrêt,5.4912933,node/6938324870
-4.0690076,,0,Arrêt,5.4869787,node/6938324871
-4.0697157,,0,Arrêt,5.4842033,node/6938324872
-4.0709844,,0,Arrêt,5.4791892,node/6938324873
-4.0715718,,0,Arrêt,5.4769371,node/6938324874
-4.072693,,0,Arrêt,5.4724328,node/6938324875
-4.0737471,,0,Arrêt,5.4679499,node/6938324876
-4.0739322,,0,Arrêt,5.4644949,node/6938324877
-4.0733501,,0,Arrêt,5.4606874,node/6938324878
-4.0724757,,0,Arrêt,5.4565342,node/6938324879
-4.0713693,,0,Arrêt,5.4517454,node/6938324880
-4.0706693,,0,Arrêt,5.4485133,node/6938324881
-4.0696567,,0,Arrêt,5.4441757,node/6938324882
-4.0681963,,0,Arrêt,5.4435135,node/6938324883
-4.056062,,0,Arrêt,5.443862,node/6938324884
-4.0494295,,0,Arrêt,5.4440736,node/6938343085
-3.9639542,,0,Hotel Communal Port-Bouët,5.2608437,node/6938407500
-3.9635653,,0,Hôpital Géneral de Port-Bouët,5.2629757,node/6938407501
-3.9564407,,0,Arrêt,5.293872,node/6938407503
-3.8886204,,0,Collège privé les Cartésiens d'Abidjan,5.2382227,node/6938407504
-3.9975952,,0,Farandole,5.3640511,node/6938756997
-3.9845087,,0,Arrêt,5.4036801,node/6938792077
-3.993252,,0,Arrêt,5.3829263,node/6938792078
-4.0186301,,0,Gare Sud,5.3147389,node/6938792079
-3.9887345,,0,Arrêt,5.3010837,node/6939014886
-3.9663789,,0,Pharmacie Sainte Aghate,5.3023803,node/6939014887
-3.9640502,,0,Terminus Remblais 03,5.3029659,node/6939014888
-3.9638825,,0,Terminus Remblais 03,5.302855,node/6939014890
-3.9684999,,0,Arrêt,5.3018088,node/6939014891
-3.9714879,,0,Arrêt,5.2984764,node/6939014892
-3.9848064,,0,Arrêt,5.3022895,node/6939014894
-4.0274686,,0,Gare Nord,5.359076,node/6939014895
-4.0059154,,0,Terminus dépôt SOTRA,5.2875728,node/6939076692
-4.0768933,,0,Sideci Pharmacie Lem,5.3314425,node/6944816371
-4.0798317,,0,Sideci Lem,5.3305385,node/6944816372
-4.0813807,,0,[Arret sans nom],5.3270574,node/6944816373
-4.0806283,,0,Akadjoba,5.3246445,node/6944816374
-4.0237293,,0,Cité Administrative,5.3310827,node/6944887181
-4.0220542,,0,Arrêt,5.4253525,node/6944887182
-4.0240122,,0,Arrêt,5.4193151,node/6944887183
-4.0241008,,0,Arrêt,5.4150828,node/6944887184
-4.0292533,,0,Arrêt,5.4148679,node/6944920985
-4.0334697,,0,Terminus bus 51/52,5.4148038,node/6944920986
-4.0817052,,0,Arrêt,5.3274379,node/6944934858
-4.080812,,0,Sideci Lem - Carrefour Sgbci,5.330154,node/6944934859
-4.0773064,,0,Sideci Pharmacie Lem,5.3314305,node/6944934860
-3.99141,,0,École de Police,5.3521541,node/6945017053
-3.9914516,,0,Arrêt,5.3569943,node/6945017054
-4.0082677,,0,Siège SOTRA,5.2865574,node/6945458783
-3.9722067,,0,Station Oilibya,5.2569502,node/6945659474
-3.9647529,,0,Arrêt,5.2566851,node/6945659475
-3.9643009,,0,Pharmacie Atlantique,5.2546846,node/6945659476
-3.9565238,,0,Port-Bouët Phare,5.2511255,node/6945659477
-4.0047848,,0,Vridi canal - Terminus 23,5.2531341,node/6945864857
-4.0046923,,0,Vridi canal - Terminus 23,5.2531701,node/6945864858
-4.0087358,,0,[Arret sans nom],5.2657115,node/6945864859
-4.0033337,,0,Arrêt du CHU,5.2957541,node/6945864860
-4.0134249,,0,Ciprel,5.260642,node/6945966271
-4.0138507,,0,[Arret sans nom],5.2649101,node/6945966272
-4.011446,,0,[Arret sans nom],5.265254,node/6945966273
-4.0086137,,0,[Arret sans nom],5.2660346,node/6945966274
-4.0060763,,0,[Arret sans nom],5.2688363,node/6945966275
-3.9581171,,0,Arrêt,5.3539352,node/6948222228
-3.9522725,,0,Arrêt,5.3417576,node/6948222230
-3.9521505,,0,Arrêt,5.3392567,node/6948222231
-3.952243,,0,Arrêt,5.3384929,node/6948222232
-3.943904,,0,Carrefour Ambassade de Chine,5.334941,node/6948222233
-3.9452136,,0,Antenne,5.3392333,node/6948222234
-3.9428439,,0,Akwaba,5.3385917,node/6948222235
-3.9393644,,0,Pharmacie,5.3355172,node/6948222236
-3.9368539,,0,Arrêt,5.3328633,node/6948222237
-3.9348771,,0,Centre de santé Municipal de M'Badon,5.3307248,node/6948222238
-3.9323347,,0,Teminus M'Badon,5.3286344,node/6948222239
-3.9322612,,0,Teminus M'Badon,5.3285142,node/6948270620
-3.9347577,,0,Centre de santé Municipal de M'Badon,5.3305385,node/6948270621
-3.9397017,,0,Pharmacie,5.3357956,node/6948270622
-3.9451191,,0,Arrêt,5.339027,node/6948270623
-3.9418454,,0,Ambassade de Chine,5.3329114,node/6948270624
-3.9568537,,0,Arrêt,5.3538285,node/6948270625
-3.9368337,,0,Arrêt,5.3327177,node/6948290580
-3.9429814,,0,Bureau Bad,5.3385823,node/6948290581
-3.9438068,,0,[Arret sans nom],5.3350024,node/6948290582
-3.9767852,,0,Arrêt,5.353946,node/6948466331
-3.9695473,,0,Arrêt,5.3560356,node/6948466332
-3.9273548,,0,Arrêt,5.3732347,node/6948466333
-3.9221262,,0,Arrêt,5.3744488,node/6948466334
-3.9116914,,0,Kessé,5.3738883,node/6948466335
-3.9090387,,0,Syndicat,5.3664705,node/6948466336
-3.8946091,,0,Station TEXACO,5.3613312,node/6948466337
-3.8895766,,0,La Poste,5.357652,node/6948466338
-3.8879555,,0,Pharmacie du Marché,5.357433,node/6948466339
-3.8903531,,0,Sous-Prefecture de Bingerville,5.3576379,node/6948466341
-3.9285967,,0,Nouveau Goudron,5.372677,node/6948466343
-4.0026914,,0,Pharmacie les 7 Colonnes,5.3455151,node/6948466345
-3.9906777,,0,Arrêt,5.3346312,node/6948695731
-3.9758237,,0,Arrêt,5.3396564,node/6948695732
-3.9761442,,0,Arrêt,5.3414919,node/6948695733
-3.9751571,,0,Arrêt,5.3438403,node/6948695734
-3.975412,,0,Arrêt,5.3470921,node/6948695735
-3.9767209,,0,Arrêt,5.3520693,node/6948695736
-3.9760919,,0,Arrêt,5.3530066,node/6948695738
-3.9766203,,0,Arrêt,5.35209,node/6948695739
-3.9752188,,0,Arrêt,5.3468223,node/6948695740
-3.9750874,,0,Arrêt,5.343802,node/6948695741
-3.9760651,,0,Arrêt,5.3416148,node/6948695742
-3.9757586,,0,Arrêt,5.3397193,node/6948695743
-3.9754911,,0,Arrêt,5.3385022,node/6948695744
-3.9902714,,0,Arrêt,5.3344937,node/6948695745
-3.9957176,,0,Arrêt,5.3349056,node/6948695746
-4.0157926,,0,Warafa Assurance,5.321664,node/6948706680
-4.0152582,,0,Arrêt Résidence Nabil,5.3184017,node/6948706681
-4.0092923,,0,[Arret sans nom],5.3044274,node/6948706682
-4.0042001,,0,Terminus CHU Treichville,5.2949249,node/6948791226
-3.9679608,,0,Arrêt,5.3565604,node/6948855820
-3.9614752,,0,Arrêt,5.3599399,node/6948855821
-3.9289306,,0,Cité Millenium,5.3717967,node/6948855822
-3.9253854,,0,Arrêt,5.3584311,node/6948855823
-3.9247158,,0,Arrêt,5.3556661,node/6948855824
-3.924163,,0,Arrêt,5.3532496,node/6948855825
-3.9233825,,0,Collège Jeune Filles,5.3498507,node/6948855826
-3.9225573,,0,Oribat Cité Don Mello,5.3397928,node/6948855827
-3.9226348,,0,Arrêt,5.3329467,node/6948855828
-3.9191627,,0,Arrêt,5.3282217,node/6948855829
-3.9169304,,0,Paroisse,5.3283086,node/6948855830
-3.9164444,,0,EPP Abatta,5.3221383,node/6948855831
-3.923136,,0,Arrêt,5.3342136,node/6948920956
-3.9158679,,0,Arrêt,5.3262131,node/6948920957
-3.9161935,,0,EPP Abatta,5.3267028,node/6948920958
-3.9169358,,0,Paroisse,5.3282218,node/6948920959
-3.9227374,,0,Arrêt,5.3329487,node/6948920960
-3.9220896,,0,Arrêt,5.3417243,node/6948920961
-3.9222706,,0,Arrêt,5.3443775,node/6948920962
-3.9228521,,0,Arrêt,5.3471041,node/6948920963
-3.9242797,,0,Arrêt,5.3532917,node/6948920964
-3.9254397,,0,Arrêt,5.3583733,node/6948920965
-3.9258534,,0,Sodeci Abatta,5.359984,node/6948920966
-3.9301027,,0,Nouveau Goudron,5.3722754,node/6948920967
-3.968976,,0,Arrêt,5.2579604,node/6951127812
-3.9654422,,0,Mairie Port-Bouët,5.2597086,node/6951127813
-3.9687383,,0,[Arret sans nom],5.2595919,node/6951127815
-4.0181731,,0,Gare Sud,5.3145654,node/6951127816
-3.9533649,,0,Arrêt,5.3373639,node/6951182059
-3.9559445,,0,Arrêt,5.3344449,node/6951182060
-3.9570247,,0,Arrêt,5.3308416,node/6951182061
-3.9531144,,0,Arrêt,5.3295658,node/6951182062
-3.9535137,,0,Arrêt,5.3296352,node/6951182064
-3.9572031,,0,Arrêt,5.330835,node/6951182065
-3.952412,,0,Arrêt,5.3414479,node/6951182066
-3.9630926,,0,Arrêt,5.2921887,node/6951224049
-3.9693582,,0,Commissariat de Police du 6ᵉ,5.2898905,node/6951224050
-4.0276527,,0,Gare Nord,5.3586694,node/6951224051
-3.9554248,,0,Gare Koumassi,5.2941431,node/6951939383
-4.0273499,,0,Gare Nord,5.3587923,node/6951939384
-3.9635003,,0,Terminus 31 Remblais,5.3024324,node/6952071069
-3.9623322,,0,Trois Ampoules,5.2975569,node/6952071070
-4.0109539,,0,"BIAO, Treichville",5.2988296,node/6952132224
-3.9883861,,0,"Pizza, Marcory",5.2884669,node/6952132225
-3.9855024,,0,"Bernabé Parc à Fer, Boulevard de Marseille",5.2853422,node/6952132226
-3.9824903,,0,[Arret sans nom],5.2786718,node/6952132227
-3.9767262,,0,Église Notre-Dame d'Afrique,5.2734369,node/6952132228
-3.9714865,,0,Sept Villas,5.2734089,node/6952132229
-3.9672503,,0,Arrêt,5.276028,node/6952132230
-3.9434065,,0,Arrêt,5.2486135,node/6952132232
-3.9386439,,0,EPP Aéroport,5.2544081,node/6952132233
-3.934246,,0,Aéroport,5.2536201,node/6952132234
-3.9450909,,0,Carrefour Aéroport,5.2469401,node/6952132235
-3.9409603,,0,Cité ASECNA,5.2544028,node/6952132240
-3.9424355,,0,Arrêt,5.2508117,node/6952132241
-3.9435728,,0,Arrêt,5.2480679,node/6952132242
-3.947171,,0,Maquis 5 sur 5,5.247278,node/6952132243
-3.9610943,,0,Pharmacie Océan,5.2567618,node/6952132244
-3.9627318,,0,Abattoir Port-Bouët,5.266498,node/6952132245
-3.9751598,,0,Arrêt,5.2726637,node/6952132246
-3.9878453,,0,Arrêt,5.28785,node/6952132247
-3.9917104,,0,Arrêt,5.2895893,node/6952132248
-3.9954532,,0,Arrêt,5.2912033,node/6952132250
-4.0104501,,0,"BIAO, Treichville",5.2984459,node/6952132251
-4.0182926,,0,Gare Sud,5.3144382,node/6952132252
-3.9495367,,0,Arrêt,5.3091986,node/6952200468
-3.9481486,,0,Centre Médico-social,5.3097742,node/6952200469
-3.9837456,,0,Hôpital Général de Marcory,5.3012025,node/6952200470
-3.986865,,0,Arrêt,5.3034286,node/6952200471
-4.0094613,,0,Arrêt,5.3042605,node/6952200472
-4.007007,,0,Arrêt,5.3052353,node/6952200475
-3.9855715,,0,Arrêt,5.3027926,node/6952200476
-3.952005,,0,Akromiambla-Terminus 32 Koumassi,5.3118954,node/6952200477
-4.0471624,,0,Arrêt,5.441531,node/6952244517
-4.0559909,,0,Arrêt,5.4436978,node/6952566208
-4.0699545,,0,Arrêt,5.4448793,node/6952566209
-4.0708852,,0,Arrêt,5.4490874,node/6952566210
-4.0716147,,0,Arrêt,5.4522514,node/6952566211
-4.0718146,,0,Arrêt,5.4532246,node/6952566212
-4.0726206,,0,Arrêt,5.4567491,node/6952566213
-4.0734789,,0,Arrêt,5.4606701,node/6952566214
-4.0739724,,0,Arrêt,5.4636378,node/6952566215
-4.074022,,0,Arrêt,5.4644695,node/6952566216
-4.0738437,,0,Arrêt,5.4679793,node/6952566217
-4.0727828,,0,Arrêt,5.4724295,node/6952566218
-4.0716872,,0,Arrêt,5.4769985,node/6952566219
-4.0710461,,0,Arrêt,5.4793881,node/6952566220
-4.0703045,,0,Arrêt,5.4821955,node/6952566221
-4.0699115,,0,Arrêt,5.4839777,node/6952566222
-4.0692893,,0,Arrêt,5.486354,node/6952566223
-4.0680795,,0,Arrêt,5.4911611,node/6952566224
-4.0667948,,0,Arrêt,5.4982644,node/6952566225
-4.0740864,,0,Arrêt,5.5001119,node/6952566226
-4.0767123,,0,Arrêt,5.5000518,node/6952566227
-3.9734097,,0,Petit Café,5.2862329,node/6954138437
-3.9775054,,0,Arrêt,5.2807083,node/6954138438
-3.9804116,,0,Arrêt,5.2823321,node/6954138439
-4.0126625,,0,Arrêt,5.300639,node/6954138440
-3.9828832,,0,Agence Nationale de la Formation Professionnelle (AGEFOP),5.28394,node/6954138442
-3.9776556,,0,Arrêt,5.2809293,node/6954138443
-3.973057,,0,UTTb Université Loko,5.2870755,node/6954138444
-3.9693475,,0,Marché DjeKonan,5.2892455,node/6954138445
-3.9518099,,0,Arrêt,5.3133129,node/6954138446
-3.9679319,,0,CIE Koumassi,5.2834138,node/6954511639
-3.9686649,,0,Hôpital de Koumassi,5.286559,node/6954511640
-4.0989914,,0,[Arret sans nom],5.3583583,node/6954926526
-4.1000086,,0,[Arret sans nom],5.3615502,node/6954926527
-4.0967993,,0,[Arret sans nom],5.3641759,node/6954926528
-3.9531577,,0,Koumassi Soweto - Dépôt 5,5.2859504,node/6955038705
-3.9582532,,0,Pharmacie Bethanie,5.2847586,node/6955038706
-3.9611265,,0,Sation Lavage,5.2840528,node/6955038707
-3.9680882,,0,CIE Koumassi,5.2836422,node/6955038708
-3.9688808,,0,Hôpital de Koumassi,5.2870421,node/6955038709
-3.984628,,0,Pharmacie Massarana,5.2996014,node/6955038710
-4.0275521,,0,Gare Nord,5.3587075,node/6955038711
-4.0217512,,0,Cité Administrative,5.3331711,node/6955514933
-3.9598243,,0,Arrêt Pharmacie Palmeraie,5.3635731,node/6955514934
-3.9580205,,0,Arrêt,5.3710263,node/6955514935
-3.9587393,,0,Arrêt,5.3720811,node/6955514936
-3.964382,,0,Cocody SCI Les Rosiers,5.3808935,node/6955514937
-3.9598592,,0,Arrêt,5.3727874,node/6955514938
-3.9592516,,0,Arrêt,5.3685488,node/6955514939
-4.0184346,,0,Gare Sud,5.3149553,node/6955514940
-3.9341971,,0,Aéroport,5.253474,node/6958966895
-3.981805,,0,Arrêt,5.2774525,node/6961370878
-3.9788787,,0,Pharmacie de Bietry,5.2744205,node/6961370879
-3.9421921,,0,Arrêt Dr08,5.2516684,node/6961370880
-3.9410589,,0,Cité ASECNA,5.2543801,node/6961370881
-4.0725361,,0,[Arret sans nom],5.3618139,node/6961643500
-4.0923724,,0,[Arret sans nom],5.373881,node/6961643501
-4.0945986,,0,[Arret sans nom],5.3718154,node/6961643502
-4.0858988,,0,Amondji,5.3396466,node/6963093974
-4.0810166,,0,Arrêt,5.3395998,node/6963093975
-4.0792436,,0,Pont Vagabond,5.3382505,node/6963093976
-4.0747274,,0,Arrêt,5.3403236,node/6963093977
-4.0181436,,0,Gare Sud,5.3147296,node/6963093979
-4.0732643,,0,Saint André lavage,5.3415106,node/6963093981
-4.0859069,,0,Amondji,5.3395197,node/6963093982
-3.9928235,,0,Aghien 2 plateaux,5.3883091,node/6964184463
-4.0044791,,0,[Arret sans nom],5.3359625,node/6964184464
-3.9923066,,0,Aghien 2 plateaux,5.3885302,node/6964184466
-4.0021368,,0,Carrefour la Vie,5.3502206,node/6964184467
-3.9596674,,0,Arrêt Pharmacie Palmeraie,5.3635871,node/6964502135
-4.0846449,,0,BAE,5.3609547,node/6966758103
-4.0882243,,0,Arrêt,5.3551851,node/6966758104
-4.0957546,,0,Carrefour Antenne Ananeraie,5.3549701,node/6966758105
-4.0988526,,0,Oasis,5.354878,node/6966758106
-4.0993729,,0,Sorbonne,5.3502259,node/6966758107
-4.0997625,,0,Arrêt,5.3462622,node/6966758108
-4.1031267,,0,Arrêt,5.333344,node/6966758109
-4.1044571,,0,Arrêt,5.3292232,node/6966758111
-4.1004723,,0,Arrêt,5.3441658,node/6966758112
-4.0999784,,0,Arrêt,5.3460138,node/6966758113
-4.0994869,,0,Sorbonne,5.3500978,node/6966758114
-4.0994742,,0,Arrêt,5.3529605,node/6966758115
-4.0992308,,0,Oasis,5.3549421,node/6966758116
-4.0918869,,0,Arrêt,5.3551971,node/6966758117
-4.016671,,0,Arrêt,5.3233545,node/6966849451
-4.0138976,,0,Arrêt,5.4486134,node/6966849452
-3.9637296,,0,Hotel Communal Port-Bouët,5.2613392,node/6966927285
-3.9605525,,0,Wharf Port-Bouët,5.2528723,node/6966927286
-4.0132633,,0,Arrêt,5.3027916,node/6966927287
-4.0140968,,0,Arrêt,5.4469386,node/6966942817
-4.0166429,,0,Arrêt,5.4381706,node/6966942818
-4.0159589,,0,Arrêt,5.4141149,node/6966942819
-4.0164229,,0,Arrêt,5.4069719,node/6966942820
-4.0007964,,0,Arrêt,5.2655592,node/6967070473
-4.0085238,,0,Arrêt,5.2772629,node/6967070474
-4.0085185,,0,Arrêt,5.279469,node/6967070475
-4.0210712,,0,Arrêt,5.3959876,node/6967070476
-4.016604,,0,Arrêt,5.4118438,node/6967070477
-4.0178807,,0,Arrêt,5.4197437,node/6967070478
-4.0187565,,0,Arrêt,5.4227157,node/6967070479
-4.0289891,,0,Arrêt,5.4356834,node/6967070480
-4.0302558,,0,Arrêt,5.4364023,node/6967070481
-4.0319341,,0,Arrêt,5.4370672,node/6967070482
-4.0332256,,0,Arrêt,5.4373075,node/6967070483
-4.0362847,,0,Arrêt,5.4377581,node/6967070484
-4.0391982,,0,Arrêt,5.4381539,node/6967074785
-4.0485819,,0,PK 18 Agripac,5.4435976,node/6967074787
-4.0197301,,0,Arrêt,5.4255661,node/6967158577
-4.017465,,0,Arrêt,5.4195782,node/6967158578
-4.0226068,,0,Arrêt,5.3053862,node/6967158579
-4.0082905,,0,Pharmacie du Port,5.2891307,node/6967158580
-4.0212006,,0,Abobo Gendarmerie,5.4269192,node/6968911549
-4.0229219,,0,Arrêt,5.4289586,node/6968911550
-4.0812264,,0,Arrêt,5.4078444,node/6968911551
-4.0851445,,0,CHU de Yopougon,5.3570551,node/6968911556
-4.080236,,0,Arrêt,5.3698106,node/6968911557
-4.0777087,,0,Arrêt,5.3746728,node/6968911558
-4.0687166,,0,Arrêt,5.4392253,node/6968911559
-4.0793476,,0,Arrêt,5.3423532,node/6969221528
-4.0177429,,0,Gare Sud,5.3141434,node/6969221530
-3.9117702,,0,Feh Kessé,5.3743039,node/6969371620
-4.0097992,,0,Clinique Providence,5.3472803,node/6969583471
-4.0106696,,0,Supermarché Casino,5.3451973,node/6969583472
-4.0185824,,0,Gare Sud,5.3147951,node/6969583474
-4.01752,,0,Gare Sud,5.3154387,node/6969583476
-4.0166201,,0,Novotel,5.3161731,node/6969583477
-4.0151837,,0,[Arret sans nom],5.3172748,node/6969583478
-4.015578,,0,Arrêt,5.3202726,node/6969583479
-4.0192916,,0,Arrêt,5.3209056,node/6969583480
-4.0207359,,0,Arrêt,5.3217388,node/6969583481
-4.0207185,,0,Hôtel de Ville,5.3233639,node/6969583482
-4.0207171,,0,Arrêt,5.3257514,node/6969583483
-4.0207332,,0,Arrêt,5.3278011,node/6969583484
-4.0217525,,0,Cité Administrative,5.3335937,node/6969620785
-3.985249,,0,Termunis 81/82,5.4031227,node/6970095632
-3.9859892,,0,Arrêt,5.3971746,node/6970095633
-3.9875704,,0,Pharmacie Les 7 Lys,5.3841166,node/6970095634
-3.979157,,0,Arrêt,5.3643008,node/6970095635
-3.977256,,0,Riviera 2,5.3542958,node/6970095637
-3.978931,,0,Arrêt,5.3623286,node/6970095638
-3.9866585,,0,DGI,5.3924174,node/6970095639
-3.9853522,,0,Termunis 81/82,5.4031427,node/6970095641
-3.9506122,,0,Arrêt,5.3554107,node/6970366278
-3.950804,,0,Arrêt,5.3552038,node/6970366281
-3.9482653,,0,Arrêt,5.3652007,node/6970366282
-3.9522095,,0,Arrêt,5.3643008,node/6970366283
-4.0181825,,0,Arrêt,5.403546,node/6979256984
-3.9848581,,0,Arrêt,5.4038146,node/6979431044
-3.977142,,0,Arrêt,5.39671,node/6979431045
-3.9754421,,0,Arrêt,5.3902524,node/6979431046
-3.9747639,,0,Arrêt,5.387788,node/6979431047
-3.9737651,,0,Arrêt,5.3839137,node/6979431048
-3.9734902,,0,Arrêt,5.3828575,node/6979431049
-3.9627425,,0,Arrêt,5.3749859,node/6979431051
-3.984727,,0,Arrêt,5.4036825,node/6979431052
-3.9195342,,0,Arrêt,5.3281463,node/6979712503
-3.9224169,,0,Arrêt,5.3318471,node/6979712504
-3.9227159,,0,Arrêt,5.3394623,node/6979712505
-3.923066,,0,Arrêt,5.3479974,node/6979712506
-3.9234415,,0,Arrêt,5.3497346,node/6979712507
-3.924564,,0,Arrêt,5.3546363,node/6979712508
-3.9253713,,0,Arrêt,5.3579717,node/6979712509
-3.9221386,,0,Arrêt;Sodeci,5.3601,node/6979712510
-3.9265072,,0,Arrêt,5.3622665,node/6979712511
-3.9268023,,0,Arrêt,5.3635464,node/6979712512
-3.928193,,0,Arrêt,5.3687351,node/6979712513
-3.9379911,,0,Arrêt,5.3703787,node/6979712514
-3.9279167,,0,Arrêt,5.3679286,node/6979712515
-3.9227716,,0,Arrêt,5.3470093,node/6979712516
-3.9223344,,0,Arrêt,5.3449917,node/6979712517
-3.9218402,,0,Arrêt,5.3428352,node/6979712518
-3.9221104,,0,Arrêt,5.3413324,node/6979712519
-3.9344399,,0,Arrêt,5.2452454,node/6980029236
-3.9723435,,0,Arrêt,5.2569228,node/6980029237
-4.0062828,,0,Bank Of Africa,5.2684644,node/6980029238
-4.0139727,,0,Arrêt,5.2646043,node/6980029239
-4.0112543,,0,[Arret sans nom],5.2587043,node/6980029241
-4.0138916,,0,[Arret sans nom],5.2648347,node/6980029242
-4.006083,,0,[Arret sans nom],5.2686721,node/6980029243
-3.9560491,,0,Terminus Port-Bouët Phare,5.2509145,node/6980258130
-4.0032211,,0,Arrêt,5.3433974,node/6980521688
-3.9976139,,0,Arrêt,5.3628414,node/6980521689
-4.0057075,,0,Arrêt,5.399921,node/6980521690
-4.0065511,,0,Arrêt,5.4015232,node/6980521691
-4.0065081,,0,Arrêt,5.4034191,node/6980521692
-4.0192406,,0,Abobo Gendarmerie,5.4241696,node/6980521695
-4.0134712,,0,Arrêt,5.4185708,node/6980521696
-4.0074744,,0,Arrêt,5.4155561,node/6980521697
-4.0062694,,0,Arrêt,5.4135434,node/6980521698
-4.0064277,,0,Arrêt,5.4035807,node/6980521699
-3.9990999,,0,Arrêt,5.3998663,node/6980521700
-3.992904,,0,Arrêt,5.3987194,node/6980521701
-3.9927913,,0,Arrêt,5.387006,node/6980521702
-3.9934525,,0,Arrêt,5.3819122,node/6980521703
-3.9718473,,0,Arrêt,5.2578469,node/7025968250
-3.9994057,,0,Arrêt,5.2642798,node/7025975082
-4.003783,,0,Arrêt,5.2682835,node/7025975083
-4.10439,,0,Arrêt,5.3292373,node/7025992286
-4.0083388,,0,[Arret sans nom],5.2771214,node/7026069662
-4.0149826,,0,Arrêt,5.341978,node/7026279881
-3.9547831,,0,Arrêt,5.2855772,node/7026364429
-3.9641359,,0,[Arret sans nom],5.2850417,node/7026390486
-3.9616643,,0,Océan Espadon,5.2566557,node/7028872830
-4.0278525,,0,Gare Nord,5.3588917,node/7028872831
-3.9736383,,0,Cité étudiante Riviera 2,5.3534289,node/7043603291
-4.0957761,,0,Carrefour Antenne Ananeraie,5.3550743,node/7043642288
-4.0344058,,0,Gare Lagunaire Yopougon STL,5.3109066,node/7044975088
-4.0170439,,0,Gare Lagunaire Plateau STL,5.3143858,node/7044975089
-4.0100701,,0,Gare Lagunaire Treichville STL,5.3135839,node/7044975090
-3.952125,,0,Gare Lagunaire Koumassi STL,5.315627,node/7046900012
-3.9603245,,0,Gare Lagunaire M'pouto STL,5.3240676,node/7046900013
-4.015859,,0,Gare Lagunaire de Treichville Sotra,5.3108107,node/7046964142
-4.0347196,,0,Gare Lagunaire d’Abobo-Doumé Sotra,5.3107009,node/7046964143
-4.0176728,,0,Gare Lagunaire du Plateau Sotra,5.3140753,node/7047063325
-4.0021442,,0,Gare lagunaire de Blockauss Sotra,5.3212342,node/7047101136
-4.0016118,,0,Arrêt,5.3562773,node/7047930662
-3.9856634,,0,Arrêt,5.4096636,node/7047930663
-3.9091802,,0,Syndicat,5.3665112,node/7048020780
-3.9119428,,0,Kessé,5.3739184,node/7048020781
-3.9446417,,0,Camp Millitaire d'Akouédo,5.3676562,node/7048020782
-3.9495032,,0,Église Apostolique de Côte d'Ivoire,5.3652501,node/7048020783
-4.1020069,,0,Yopougon Gesco - Terminus du bus 34,5.3672056,node/7049258139
-4.0973914,,0,Arrêt,5.365903,node/7049258140
-4.0976979,,0,Arrêt,5.3634963,node/7049258141
-4.1003995,,0,Arrêt,5.3608051,node/7049258142
-4.0998034,,0,Arrêt,5.3587021,node/7049258143
-4.0940326,,0,Mamie Adjoua,5.3582214,node/7049258144
-4.088628,,0,Arrêt,5.3552799,node/7049258145
-4.0120965,,0,Arrêt,5.3009034,node/7049730219
-3.9392397,,0,EPP Aéroport,5.2545644,node/7049730220
-3.9712512,,0,Sept Villas,5.2734289,node/7049730221
-3.9852691,,0,Arrêt,5.2844982,node/7049730222
-4.0031956,,0,Carrefour la Vie,5.3485715,node/7051810979
-4.0128221,,0,Terminus Liberté,5.3528057,node/7051810981
-3.9885668,,0,École de Police,5.3503194,node/7051810982
-3.9797437,,0,Riviera 2,5.3530834,node/7051810984
-3.9788968,,0,Station Total Riviera 2,5.3529853,node/7051811086
-3.9909077,,0,Vallon,5.35446,node/7051811087
-4.0043946,,0,Escalier,5.3546991,node/7051811088
-4.0146225,,0,Adjamé Liberté,5.3533605,node/7051811090
-4.0228106,,0,Gare Anono,5.3498521,node/7051905145
-4.0223607,,0,Station,5.3495777,node/7051905146
-4.0227932,,0,Banfora,5.347757,node/7051905147
-4.0227107,,0,Saint Michel,5.3464705,node/7051905148
-4.0226899,,0,Eglise Saint Michel,5.3451372,node/7051905149
-4.0234597,,0,Eglise,5.343631,node/7051905150
-3.9993949,,0,SODEFOR,5.3490415,node/7051905151
-3.9919236,,0,Carrefour CHU,5.3494341,node/7051905152
-3.9869374,,0,Arrêt,5.3505471,node/7051905153
-3.9724706,,0,Terminus Anono,5.3445751,node/7051905154
-3.9744008,,0,Marché,5.3452895,node/7051905155
-3.9724521,,0,Terminus Anono,5.34455,node/7051905157
-3.9769623,,0,Arrêt,5.3504075,node/7051905159
-3.9778259,,0,Au Lavage,5.3500924,node/7051905160
-3.9809205,,0,A la Mosquée,5.3510311,node/7051905161
-3.9905101,,0,Carrefour CHU,5.349577,node/7051905162
-4.0228461,,0,Gare Anono,5.3497766,node/7051905163
-3.989405,,0,École de Police,5.3501191,node/7052162358
-4.0226577,,0,Carrefour Saint Michel,5.3454176,node/7052162359
-4.0216117,,0,A La Caisse,5.3418391,node/7052162360
-3.9457347,,0,Akouédo,5.3673438,node/7052162361
-3.9324155,,0,Playce Palmeraie,5.3719142,node/7052162362
-3.9287925,,0,Nouveau Goudron,5.3728529,node/7052162363
-3.9122875,,0,Kessé,5.3743603,node/7052162364
-3.8981583,,0,CIE,5.3602229,node/7052162365
-3.8947412,,0,Station Texaco,5.3613609,node/7052162366
-3.8882764,,0,Collège Moderne,5.3575885,node/7052162367
-3.8845441,,0,Carrefour Bangui,5.3573081,node/7052162369
-3.8843443,,0,Terminus Carrefour Bangui,5.357718,node/7052162370
-3.8844985,,0,Carrefour Bangui,5.3571933,node/7052162371
-3.887693,,0,Collège Moderne,5.3574283,node/7052162372
-3.9374359,,0,Faya,5.3703106,node/7052162373
-4.0224532,,0,Gare en haut,5.350286,node/7052162375
-4.0218316,,0,Clinique Fraternité,5.3493033,node/7052340401
-4.0042631,,0,Escalier,5.3548993,node/7052340402
-3.9904813,,0,Vallon-1er Pont,5.3546376,node/7052340403
-4.0227482,,0,Gare en haut,5.3504162,node/7052340404
-3.9542839,,0,Terminus M'Pouto,5.3271876,node/7052340405
-3.9543486,,0,Terminus M'Pouto,5.3271989,node/7052340406
-3.9579682,,0,A l'Arrêt,5.3310206,node/7052340407
-3.9557567,,0,Banny,5.3347781,node/7052340408
-3.9537035,,0,Maison Blanche,5.337175,node/7052340409
-3.952691,,0,Mel Théodore,5.3452694,node/7052340410
-3.9545229,,0,Carrefour Lycée Français,5.3508856,node/7052340411
-3.9676865,,0,Cap Nord,5.3564619,node/7052340412
-4.0226343,,0,Gare en haut,5.3503214,node/7052340415
