stop_id,stop_name,stop_lat,location_type,stop_lon,parent_station
node/768587345,Yopougon Niangon-Terminus 27,5.3164439,0,-4.0893341,
node/768587373,Yopougon Sideci - Terminus 42,5.3198783,0,-4.0804016,
node/1227889258,Gare lagunaire Aqualines du Plateau,5.3158647,0,-4.0148847,
node/2381298633,Agban,5.3608351,0,-4.0171229,
node/2444131222,Fraternité Matin,5.3438972,0,-4.018311,
node/2460519991,Saint André lavage,5.3423485,0,-4.0732432,
node/2493226931,Arrêt,5.3413464,0,-4.0238611,
node/2493730483,Gare Koumassi,5.2942027,0,-3.9551669,
node/2760843854,Terminus 05 Lycée Municipal de Koumassi,5.3121324,0,-3.945225,
node/2948146673,Terminus bus 47,5.3396167,0,-4.0832298,
node/3067761599,Arrêt du Maroc,5.3396157,0,-4.0912463,
node/3067766555,Mosquée du Maroc,5.3400629,0,-4.0973067,
node/3075945505,Saint André,5.3423254,0,-4.0738295,
node/3137208051,[Arret sans nom],5.3427541,0,-4.0668084,
node/3137217828,2 poteaux,5.3436761,0,-4.0709484,
node/3137243386,Newton,5.3446768,0,-4.0679411,
node/3145728412,Riviera 2,5.3531115,0,-3.979568,
node/3218806159,Eglise Evangélique Internationnal Foursquare,5.3117096,0,-3.9487208,
node/3326195828,Saint Jean,5.3368705,0,-4.0037743,
node/3666057101,Pharmacie Port-Bouët II,5.3470567,0,-4.0884501,
node/3950172145,Ficgayo,5.3493507,0,-4.0734547,
node/4029208102,ENA,5.3616481,0,-3.9973698,
node/4107240891,Pharmacie de Bietry,5.2742845,0,-3.9787018,
node/4411562346,Terminus 85,5.3296306,0,-4.061373,
node/4999458824,Terminus CHU Treichville,5.2948647,0,-4.004071,
node/5057165424,Ex-pharmacie Mockey,5.30185,0,-4.011123,
node/5057297311,Carrefour St Jean,5.3369029,0,-4.0039817,
node/5068855021,Terminus 704 abobo Belleville,5.4158258,0,-3.9933116,
node/5143730222,Terminus M'pouto - CIAD,5.328322,0,-3.940785,
node/5143751833,Terminus M'pouto - CIAD,5.3284442,0,-3.9410686,
node/5281604034,[Arret sans nom],5.3437686,0,-4.0711802,
node/5390465849,Gare lagunaire Aqualines Yopougon,5.3078259,0,-4.0374018,
node/5414376221,Stif,5.3555889,0,-4.0205264,
node/5739489700,Complexe sportif de Yopougon,5.3415133,0,-4.0623618,
node/5927302128,Fcigayo,5.3493427,0,-4.073208,
node/5934409413,Arrêt,5.3419897,0,-4.1003513,
node/5936892363,Yopougon Gesco - Terminus du bus 34,5.3671401,0,-4.1020437,
node/5953580661,Pharmacie Val de Grace,5.3802448,0,-3.967352,
node/5953580667,Carrefour Palmeraie,5.3618751,0,-3.9593077,
node/5953580668,Station Shell Riviera 3,5.3582581,0,-3.9643623,
node/5954541435,CIAD,5.3286164,0,-3.9498433,
node/5954541439,Boulevard de France,5.3347766,0,-3.9902179,
node/5954541440,Carrefour de la Vie,5.3492831,0,-4.0024723,
node/5957239662,Carrefour 22ème,5.3989296,0,-3.991548,
node/5957239663,Carrefour Opéra,5.3855754,0,-3.9931428,
node/5957239665,ENA,5.3615936,0,-3.9975968,
node/5957239666,Hôtel Ivoire,5.328578,0,-4.0050058,
node/5958266385,Pharmacie Les Laureades,5.3975314,0,-3.9860303,
node/5958266386,Petro Ivoire 7è Tranche,5.3806539,0,-3.9881294,
node/5958266387,Commisariat 30è Art.,5.373758,0,-3.9845519,
node/5958266388,Terminus 202 Attoban,5.3701109,0,-3.9813021,
node/5958266389,Parmacie St Bernard,5.3673274,0,-3.9797109,
node/5958266390,Pharmacie St Ange,5.3573659,0,-3.9782153,
node/5958266391,Collège André Malraux,5.3558222,0,-3.9779596,
node/5958266392,Riviera 2,5.3541895,0,-3.9773239,
node/6098848385,Saint Paul Plateau,5.3247785,0,-4.0207447,
node/6136850508,Hôtel de Ville,5.3238162,0,-4.0205509,
node/6136850509,Hôtel de Ville,5.3234932,0,-4.0205339,
node/6136858285,Terminus Hotel de Ville,5.3226907,0,-4.0205256,
node/6195348341,Cathédrale Saint paul,5.3317403,0,-4.021322,
node/6281030720,Terminus bus 51/52,5.4148488,0,-4.0333199,
node/6474137921,Gare Abobo Sogephia,5.4351428,0,-4.0144508,
node/6474137923,BICICI,5.4364247,0,-4.0125419,
node/6474137925,Cours Sociaux,5.4382745,0,-4.0147435,
node/6474137927,Avenue Kaza,5.4381179,0,-4.019424,
node/6474137929,Camp Commando,5.4355472,0,-4.0202491,
node/6474137931,Station Shell,5.4306474,0,-4.0200922,
node/6474137932,Abobo Gendarmerie,5.4263959,0,-4.0198488,
node/6474137934,Abobo Gendarmerie,5.4234101,0,-4.0187446,
node/6474137936,2ème Arrêt,5.4171616,0,-4.0166455,
node/6474137938,Banco,5.4131456,0,-4.015971,
node/6474137940,Anador,5.4089746,0,-4.0160152,
node/6474137942,Université Nangui Abrogoua,5.392647,0,-4.0207427,
node/6474137944,Macaci,5.3774907,0,-4.0255918,
node/6474137946,Gare Nord,5.3592442,0,-4.027655,
node/6474137948,Gare Nord,5.3591608,0,-4.0274455,
node/6474137950,Grande Mosquée Adjamé,5.3533564,0,-4.0257671,
node/6474137952,Foire de Chine,5.347769,0,-4.0256668,
node/6474137954,Mairie d'Adjamé,5.3431984,0,-4.0259753,
node/6474137956,Cité Administrative,5.3312372,0,-4.0238205,
node/6474137958,Immeuble Sogefiha,5.3278045,0,-4.0238801,
node/6474137967,Gare Sud,5.3145043,0,-4.0181049,
node/6474137979,Présidence,5.3179651,0,-4.019718,
node/6474137980,Galerie du Parc,5.3225013,0,-4.0197472,
node/6474137981,Camp Galliéni,5.3339569,0,-4.0247204,
node/6474137982,Institut National de la Santé Publique,5.3386571,0,-4.026107,
node/6474137983,Mairie d'Adjamé,5.343713,0,-4.0260496,
node/6474137984,Marché Forum,5.3459921,0,-4.0258452,
node/6474138985,Pharmacie du Banco,5.3503682,0,-4.0255664,
node/6474138986,Grande Mosquée Adjamé,5.3534527,0,-4.0259071,
node/6474138987,Gare Nord,5.3586829,0,-4.028099,
node/6474138988,Macaci,5.3765774,0,-4.0263861,
node/6474138989,Filtisac,5.3906844,0,-4.021035,
node/6474138990,Anador,5.4085961,0,-4.0162969,
node/6474138991,Banco,5.4135848,0,-4.0162419,
node/6474138992,Collège Saint-Joseph,5.4183764,0,-4.0173344,
node/6474138993,Abobo Gendarmerie,5.4237125,0,-4.0190818,
node/6474138994,Bar Ivoire Abobo,5.4315506,0,-4.020231,
node/6474138995,DGI Abobo,5.4363436,0,-4.0203886,
node/6474138996,Avenue Kaza,5.4382274,0,-4.0189201,
node/6474138997,Carrefour Akeïkoi,5.4383936,0,-4.0138587,
node/6474138999,Terminus Gare Sud,5.3149589,0,-4.0190673,
node/6474139031,Cité Universitaire Abobo,5.4350792,0,-4.0127537,
node/6474139033,Quai 15,5.4354761,0,-4.0154322,
node/6815808830,Station Shell Riviera 3,5.3580852,0,-3.9641507,
node/6815808831,Carrefour Palmeraie,5.3620442,0,-3.9591336,
node/6815808833,CNPS 9ème Tranche,5.3865761,0,-3.9744202,
node/6815808834,Marché COCOVICO,5.4010646,0,-3.9780418,
node/6815808839,Quick Market,5.3738506,0,-3.9618125,
node/6815808840,Quick Market,5.3737728,0,-3.9618581,
node/6815808842,Commissariat 35è Art.,5.3776142,0,-3.9635563,
node/6815808843,CNPS 9ème Tranche,5.3866021,0,-3.9745308,
node/6815808844,Marché COCOVICO,5.4010482,0,-3.9781939,
node/6815808845,Pharmacie du bonheur,5.3698807,0,-3.9587098,
node/6815808846,Groupe Scolaire St Marc,5.383206,0,-3.9725319,
node/6819328985,Camp Commando de Koumassi,5.282599,0,-3.9692172,
node/6819329085,Grand Carrefour de Koumassi,5.2892136,0,-3.9707407,
node/6819329086,Hôtel Ibis Marcory,5.2921087,0,-3.9741109,
node/6819329185,Hôtel Ibis Marcory,5.2916293,0,-3.973691,
node/6819329285,Chimtec Grand carrefour Marcory,5.3008419,0,-3.9897184,
node/6820855646,Ambassade des USA,5.335819,0,-3.9767155,
node/6820855647,Hotel du Golf,5.3309825,0,-3.9728877,
node/6820855648,Hotel du Golf,5.3310297,0,-3.9730064,
node/6820855649,Ex Terminus Sotra;Carrefour Sol Beni,5.3312498,0,-3.9579229,
node/6831076677,Cathédrale Saint paul,5.332764,0,-4.021605,
node/6831076678,Église Méthodiste Unie de Côte d'Ivoire,5.3299678,0,-4.0205671,
node/6831076682,Gare Sud,5.3148704,0,-4.0185085,
node/6832290086,Cap Sud,5.2988832,0,-3.9867521,
node/6899034705,Gare de Bassam,5.2996481,0,-4.0022393,
node/6899034706,Gendarmerie,5.3004143,0,-3.9997862,
node/6899034707,Notre-dame,5.303315,0,-4.0037983,
node/6899034708,Pharmacie Nanan Yamousso,5.3072484,0,-4.005186,
node/6899034709,Après le Pont,5.3099574,0,-4.0061407,
node/6899034710,Adjamé Liberté,5.3534116,0,-4.0160603,
node/6899053345,Adjamé Liberté,5.3534437,0,-4.014858,
node/6899053346,Gare de Bingerville,5.3535364,0,-4.0120307,
node/6899053347,Feux du plateau,5.325075,0,-4.0152949,
node/6899053348,Nanan Yamousso,5.3101491,0,-4.0061218,
node/6899053349,Gare de Bassam,5.2996797,0,-4.0024275,
node/6899241573,Abobo Gare Mairie,5.4200067,0,-4.0174383,
node/6899241574,Mobil,5.4143755,0,-4.0159818,
node/6899241575,Lavage,5.3846198,0,-4.0215227,
node/6899241576,Macaci,5.37725,0,-4.0257575,
node/6899241577,Adjamé Liberté,5.3543459,0,-4.0164004,
node/6899264970,Marché Gouro,5.349107,0,-4.0212174,
node/6899264971,Adjamé Liberté,5.3547097,0,-4.0163905,
node/6899264972,Station Total,5.358734,0,-4.016791,
node/6899264973,Abobo Gare Mairie,5.4215493,0,-4.0171184,
node/6902638988,Carrefour Marché,5.4195759,0,-4.0153363,
node/6902638989,Petro Ivoire,5.4186048,0,-4.0135168,
node/6902638990,Au Bar,5.4168519,0,-4.0101975,
node/6902638991,Petit Carrefour,5.4157998,0,-4.0080786,
node/6902638992,Samaké,5.4152338,0,-4.0067032,
node/6902638993,Azur,5.3994804,0,-4.0064894,
node/6902638994,Panneau ZOO,5.3780522,0,-4.0070352,
node/6902638995,Abobo Gare Mairie,5.4197843,0,-4.0157753,
node/6902638996,Ciné Cool,5.4176548,0,-4.0117095,
node/6902638997,Boulangerie Samake,5.4144283,0,-4.0062697,
node/6902638998,Menuiserie,5.410863,0,-4.0062877,
node/6902638999,Tchapatcha,5.4101067,0,-4.0063067,
node/6902639000,Chaîne Avion,5.4092677,0,-4.0063409,
node/6902639001,Pharmacie Dokui,5.4051188,0,-4.0063993,
node/6902639002,SODECI,5.4036347,0,-4.0064176,
node/6902639003,Étage Noir,5.4020967,0,-4.0064567,
node/6902639004,Mobil,5.4001879,0,-4.0064867,
node/6902639005,Arrêt Dokui,5.3968179,0,-4.006353,
node/6902639006,Ancien Feu,5.3929293,0,-4.005793,
node/6902639007,Bangui,5.3872276,0,-4.005732,
node/6902639008,Vidange,5.3851864,0,-4.0060126,
node/6902639009,HMA,5.382931,0,-4.0063262,
node/6902639010,Carrefour paillet,5.3721147,0,-4.0118134,
node/6902639011,Carrefour 2 Plateaux,5.3653117,0,-4.0157876,
node/6902639012,Gare des gbakas d’Abobo par le zoo,5.3553627,0,-4.0160705,
node/6902868224,Petro Ivoire,5.4184847,0,-4.0136214,
node/6902868225,Ciné Cool,5.4176463,0,-4.0120067,
node/6902868226,Au Bar,5.4167077,0,-4.0102981,
node/6902868227,Pharmacie Dokui,5.4051935,0,-4.0065403,
node/6902868228,SODECI,5.4036701,0,-4.0065873,
node/6902868229,Étage Noir,5.40212,0,-4.0066315,
node/6902868230,Mobil,5.4002027,0,-4.0066597,
node/6902868231,Azur,5.3994577,0,-4.0066034,
node/6902868232,Arrêt Dokui,5.3965911,0,-4.0064518,
node/6902868233,Ancien Feu,5.3928327,0,-4.0059301,
node/6902868234,Bangui,5.387253,0,-4.005859,
node/6902868235,Vidange,5.3853034,0,-4.0060952,
node/6902868236,HMA,5.382907,0,-4.0064118,
node/6902868237,Carrefour paillet,5.3716859,0,-4.0122239,
node/6902868238,Carrefour 2 Plateaux,5.365405,0,-4.0159576,
node/6902868239,Willy Agban,5.3633371,0,-4.0168128,
node/6902868240,Cimetière,5.3668297,0,-4.0152077,
node/6902868241,CIE,5.3765337,0,-4.0094557,
node/6902868242,ZOO,5.3789939,0,-4.0070149,
node/6902868243,Eglise,5.3900553,0,-4.0056173,
node/6902868244,Pharmacie Racines,5.41329,0,-4.0099567,
node/6902868245,Abobo Gare Mairie,5.4197639,0,-4.0160257,
node/6902975747,Christine Bar,5.4500232,0,-4.0135154,
node/6902975748,Terminus Akéikoi Village,5.4607326,0,-4.0109926,
node/6902975749,À l'École,5.45899,0,-4.0107733,
node/6902975750,Destin,5.455207,0,-4.0112928,
node/6902975751,Monnaie,5.4542173,0,-4.0119566,
node/6902975752,André Bar,5.4528753,0,-4.0128592,
node/6902975753,Carrefour Marché,5.4510493,0,-4.0133357,
node/6902975754,A l'étage,5.446249,0,-4.0143571,
node/6902975755,Boulangerie,5.4394513,0,-4.0141843,
node/6902975756,Carrefour Akéikoi,5.4384053,0,-4.0140378,
node/6902975757,Gare Gbaka Akeïkoi,5.4225885,0,-4.0161726,
node/6903084141,Carrefour Marché,5.4510779,0,-4.0134484,
node/6903084142,André Bar,5.4530404,0,-4.0129173,
node/6903084143,Monnaie,5.4542793,0,-4.0120751,
node/6903097494,Au goudron,5.438503,0,-4.0142825,
node/6903097495,Abobo Gare,5.4227551,0,-4.0160694,
node/6903097496,Au tournant,5.4230451,0,-4.013945,
node/6903097497,Lycée Moderne Abobo 1 & 2,5.4278809,0,-4.0146415,
node/6903097498,Célibataire,5.433455,0,-4.0124107,
node/6903097499,JAUG,5.4352003,0,-4.0124925,
node/6903097500,Cité,5.4383233,0,-4.0135883,
node/6903097501,Boulangerie,5.449017,0,-4.0138345,
node/6903097502,Christine Bar,5.4500084,0,-4.0136722,
node/6903097503,Destin,5.4552984,0,-4.01134,
node/6903097504,À l'École,5.4594779,0,-4.0109968,
node/6903097505,Terminus Akéikoi Village,5.460775,0,-4.0111868,
node/6903193216,Mosquée,5.4429021,0,-4.0144891,
node/6903193217,A l'étage,5.4463091,0,-4.0144891,
node/6903268819,Abobo Gare Mairie,5.42194,0,-4.0165181,
node/6903268820,Gare Abobo Kennedy-Marché/ Mosquée Ado,5.4223082,0,-4.0163197,
node/6903268821,Station,5.4211585,0,-4.0100057,
node/6903268822,Kennedy Marché,5.4236887,0,-4.0015221,
node/6903296476,Mosquée,5.4220774,0,-4.011662,
node/6903296477,Carrefour Kennedy,5.4186997,0,-4.0059623,
node/6903296478,Carrefour Kennedy,5.418665,0,-4.0058919,
node/6903296479,Makan Traoré,5.4211643,0,-4.0039433,
node/6903296480,Au marché,5.4236156,0,-4.0015453,
node/6903296481,A Gauche,5.423623,0,-4.0021714,
node/6903296482,Makan Traoré,5.4214359,0,-4.0037249,
node/6903347574,Cocody Riviera M'badon,5.3286546,0,-3.9324706,
node/6903347575,Nouveau marché,5.3293417,0,-3.9332267,
node/6903347576,Ancien marché,5.329969,0,-3.9339946,
node/6903347577,Centre de santé Municipal de M'Badon,5.3307517,0,-3.9350317,
node/6903347578,La ferme,5.331008,0,-3.9352626,
node/6903347579,Pharmacie,5.3353839,0,-3.9393933,
node/6903347580,2 poteaux,5.3384154,0,-3.9427407,
node/6903347581,Antenne,5.339948,0,-3.945032,
node/6903347582,Carrefour Akouédo,5.345935,0,-3.9457017,
node/6903347583,École,5.3461517,0,-3.9471733,
node/6903347584,2ème rond-point,5.3458217,0,-3.9505483,
node/6903370485,Gare en haut,5.3503568,0,-4.0227501,
node/6903374200,Station,5.4210882,0,-4.0100339,
node/6903374201,Immeuble Cercueil,5.4196516,0,-4.00729,
node/6903374202,Immeuble Cercueil,5.4195942,0,-4.0074087,
node/6903397403,Terminus mosquée Ado Kenedy,5.4234508,0,-3.9978515,
node/6903397404,À l'École,5.4215774,0,-3.9978489,
node/6903397405,[Arret sans nom],5.4198617,0,-3.9979409,
node/6903397406,Dahico,5.4185867,0,-3.9980283,
node/6903397407,Étage Noir,5.4157689,0,-3.9992242,
node/6903406997,Samaké,5.415578,0,-4.0059533,
node/6903406998,Eglise,5.4156012,0,-4.0037563,
node/6903504058,Eglise,5.4155167,0,-4.0037625,
node/6903504059,Monastère,5.4155583,0,-4.0007112,
node/6903504060,Monastère,5.4154526,0,-4.0008035,
node/6903504061,Étage Noir,5.4157731,0,-3.999403,
node/6903504062,Dahico,5.4185995,0,-3.9981732,
node/6903525051,Hôtel du centre,5.4339087,0,-4.0272132,
node/6903525052,A la Pompe,5.437375,0,-4.0337387,
node/6903525053,Dépôt,5.4377181,0,-4.0360617,
node/6903525054,Anokoi,5.4390697,0,-4.0444772,
node/6903525055,Anokoi,5.439303,0,-4.0444823,
node/6903525056,Marahoué,5.4422211,0,-4.0479148,
node/6903525057,Agripac,5.4439581,0,-4.0487972,
node/6903525058,Terminus,5.447775,0,-4.0509604,
node/6903525059,Terminus,5.4479797,0,-4.0508555,
node/6903525060,Agripac,5.4446545,0,-4.0489498,
node/6903525061,Marahoué,5.4425017,0,-4.0477433,
node/6903525062,Dépôt,5.4379717,0,-4.0360937,
node/6903525063,A la Pompe,5.4376377,0,-4.033852,
node/6903525064,Marché de Nuit,5.4367133,0,-4.030245,
node/6903525065,Hôtel du centre,5.4340417,0,-4.026894,
node/6903525066,Abobo Gare,5.4217034,0,-4.018191,
node/6903535584,Complexe,5.3489387,0,-4.0206447,
node/6903544086,Gare en haut,5.350348,0,-4.0224464,
node/6903544087,Maternité,5.3481387,0,-4.0180948,
node/6903544088,Adjamé Liberté,5.3521055,0,-4.014163,
node/6903544089,2ème pont,5.3547793,0,-4.0029137,
node/6903544090,Marché,5.3301187,0,-3.9339759,
node/6903602207,Abobo Gendarmerie,5.4263231,0,-4.0203577,
node/6903602208,Mosquée Blanche,5.4298704,0,-4.0233336,
node/6903602209,Solibra,5.4332219,0,-4.0262471,
node/6903602210,Château,5.4359152,0,-4.0288774,
node/6903602211,A l'escalier,5.4383388,0,-4.0383071,
node/6903602212,PK 18 ancien marché,5.4497913,0,-4.0521369,
node/6903602213,Abobo Gare,5.4220421,0,-4.0184916,
node/6903602214,Abobo Gendarmerie,5.4260466,0,-4.0204342,
node/6903602215,Gendarmerie Avant le Feu,5.426524,0,-4.0208376,
node/6903602216,Mosquée Blanche,5.4297276,0,-4.0236152,
node/6903602217,Solibra,5.4330817,0,-4.0264367,
node/6903602218,Château,5.4357519,0,-4.0290698,
node/6903602219,Marché de Nuit,5.4365893,0,-4.0306363,
node/6903602220,A l'escalier,5.4380495,0,-4.0384581,
node/6903602221,Nouvelle Gare,5.4382834,0,-4.0411411,
node/6903602222,Agripac Avant le Feu,5.4448006,0,-4.0493193,
node/6903602223,Station Total,5.4493883,0,-4.0520966,
node/6903602224,PK 18 ancien marché,5.4499639,0,-4.052542,
node/6903639366,Attoban camp,5.370557,0,-3.9761316,
node/6903639367,Escalier,5.3694267,0,-3.9776678,
node/6903639368,Pharmacie Saint Bernard,5.3673899,0,-3.9794185,
node/6903639369,Carrefour Garage,5.3658448,0,-3.9793174,
node/6903639370,Polyclinique Sacré-Coeur,5.365069,0,-3.9792552,
node/6903639371,Jules ferry,5.3642087,0,-3.9790994,
node/6903639372,Hôtel Manhatan,5.362115,0,-3.9788028,
node/6903639373,Doraville,5.3589924,0,-3.978316,
node/6903639374,Pharmacie Saint ange,5.3571667,0,-3.9780678,
node/6903639375,André Malraux,5.356275,0,-3.9777617,
node/6903639376,Gare en haut,5.3505392,0,-4.0228251,
node/6903968407,Pharmacie Saint Bernard,5.3672689,0,-3.9796695,
node/6903968408,Carrefour Garage,5.3655779,0,-3.9794498,
node/6904171063,Attécoubé Terminus 04,5.343795,0,-4.0345833,
node/6904171064,[Arret sans nom],5.346448,0,-4.0345467,
node/6904171065,Marché,5.3490624,0,-4.033957,
node/6904171066,Station Afriquia,5.3501257,0,-4.032333,
node/6904171067,Carrefour Attecoubé,5.3524283,0,-4.0328135,
node/6904171068,[Arret sans nom],5.3574167,0,-4.0309717,
node/6904171070,Pharmacie du Banco,5.3513557,0,-4.0254169,
node/6904171071,Adjamé Santé,5.3412757,0,-4.0261722,
node/6904171072,Institut National de la Santé Publique,5.3381159,0,-4.025807,
node/6904171073,Cité Administrative,5.3318344,0,-4.0230192,
node/6904171074,Cité financière Plateau,5.3266073,0,-4.0206008,
node/6904171075,SIB Alpha 2000,5.3237991,0,-4.0196512,
node/6904171076,Primature,5.3206169,0,-4.0196681,
node/6904171077,Résidence Cheick Yacouba Sylla,5.3089287,0,-4.0157481,
node/6904171078,Marché Treichville,5.3094876,0,-4.0142576,
node/6904171079,[Arret sans nom],5.3109791,0,-4.0099697,
node/6904171080,Biafra,5.3126563,0,-4.006092,
node/6904171081,Banque Atlantique,5.3076251,0,-3.9933399,
node/6904171082,Hôtel Hamanieh,5.3052787,0,-3.9888629,
node/6904171083,Sainte Thérèse,5.3043423,0,-3.9869873,
node/6904171084,Commissariat du 9 ème,5.3064581,0,-3.9858381,
node/6904188585,Gare Marcory,5.3088083,0,-3.9839517,
node/6905326498,Gare Nord,5.3589119,0,-4.0281877,
node/6905326503,Château,5.4366266,0,-4.0307925,
node/6905344262,Préfecture de Police,5.3843543,0,-4.0219308,
node/6905344263,Arrêt Centre Bus,5.4375564,0,-4.0351608,
node/6905344264,Terminus 45 À l'escalier,5.4384645,0,-4.0390169,
node/6905344265,Arrêt Centre Bus,5.4378844,0,-4.0351391,
node/6905344266,Château,5.4365245,0,-4.0299554,
node/6905344267,Arrêt,5.4328931,0,-4.0259685,
node/6905344268,Abobo Gendarmerie,5.4284112,0,-4.0222108,
node/6905344273,Préfecture de Police,5.3836534,0,-4.0219627,
node/6905553518,Abobo Gendarmerie,5.4284566,0,-4.0225102,
node/6905553519,[Arret sans nom],5.4327155,0,-4.0261674,
node/6905719605,Foire de Chine,5.3485701,0,-4.0256884,
node/6905719606,Église Méthodiste Unie de Côte d'Ivoire,5.3299376,0,-4.0206943,
node/6905719607,60 logements Plateau,5.3251345,0,-4.0201163,
node/6905719608,Hôpital du port,5.3087867,0,-4.0177138,
node/6905719609,Maison du Congres,5.3097288,0,-4.0148424,
node/6905719610,Pharmacie du Rond-point,5.3073425,0,-4.0116929,
node/6905719611,[Arret sans nom],5.3090218,0,-4.0069793,
node/6905719612,Nanan Yamousso,5.3080275,0,-4.005442,
node/6905719613,Paroisse Notre-Dame de Treichville,5.3048828,0,-4.0043543,
node/6905719614,Pharmacie de l'Entente,5.3045623,0,-4.0015648,
node/6905719615,Marché de Belleville,5.3055251,0,-3.998829,
node/6905719616,Banque Atlantique,5.3075214,0,-3.9931172,
node/6905719617,Hôtel Hamanieh,5.3049722,0,-3.9887868,
node/6905719618,Commissariat du 9éme,5.3055778,0,-3.986118,
node/6905719619,Station Shell,5.308097,0,-3.9847286,
node/6905719620,[Arret sans nom],5.3584965,0,-4.0284151,
node/6905719621,[Arret sans nom],5.357702,0,-4.0304951,
node/6905719622,Carrefour Attecoubé,5.3515438,0,-4.0321715,
node/6905719623,Banque Atlantique,5.3489601,0,-4.03386,
node/6905719624,Commissariat du 10ᵉ arrondissement,5.3471108,0,-4.0344246,
node/6905719625,Attécoubé Terminus 04,5.3437946,0,-4.0344802,
node/6905772459,Saint Paul,5.3251603,0,-4.0219475,
node/6905772460,Immeuble Sogephia Hévéa,5.3282245,0,-4.0239746,
node/6905772461,Musée du Plateau,5.3337809,0,-4.0245113,
node/6905772466,Cours Sociaux,5.4383593,0,-4.0160546,
node/6905842305,Gare Nord,5.3590397,0,-4.0275686,
node/6905842307,Long Champs,5.3252327,0,-4.0224693,
node/6906463287,Gare Koumassi,5.293902,0,-3.9560075,
node/6906463288,Pharmacie Ehilie,5.2928524,0,-3.9602508,
node/6906463289,Mosquée,5.2913568,0,-3.966735,
node/6906463290,Échangeur de Marcory,5.2956714,0,-3.980944,
node/6906463291,Grand carrefour Marcory,5.2998527,0,-3.98845,
node/6906463292,Collège Moderne Autoroute,5.2998184,0,-3.9976917,
node/6906463293,Gare de Bassam,5.2999823,0,-4.0026734,
node/6906463294,Ecobank,5.3018099,0,-4.003273,
node/6906463296,Adjamé Liberté,5.3534012,0,-4.0155251,
node/6906507833,BICICI,5.4365892,0,-4.0124238,
node/6906575629,Adjamé Liberté,5.3546594,0,-4.0164467,
node/6906575630,Williams-Ville,5.3631417,0,-4.0169033,
node/6906575631,Carrefour 2 Plateaux,5.3658197,0,-4.0157829,
node/6906575632,[Arret sans nom],5.3662557,0,-4.0156117,
node/6906575633,Paillet,5.3716139,0,-4.0122293,
node/6906575634,[Arret sans nom],5.374069,0,-4.0112578,
node/6906575635,[Arret sans nom],5.3898833,0,-4.005605,
node/6906575636,[Arret sans nom],5.4045622,0,-4.0065311,
node/6906575637,[Arret sans nom],5.4113412,0,-4.0064187,
node/6906575638,ANADER,5.4126483,0,-4.0064133,
node/6906590689,Samaké,5.4148754,0,-4.0064263,
node/6906590691,Samaké,5.41527,0,-4.0068417,
node/6906590692,Chaîne Avion,5.4101483,0,-4.0063152,
node/6906590693,1ere Boutique,5.4073533,0,-4.0063867,
node/6906590694,Carrefour 2 Plateaux,5.3659384,0,-4.0155634,
node/6906590695,Adajmé Liberté,5.3546002,0,-4.0162927,
node/6906596960,Adjamé Liberté,5.35345,0,-4.015528,
node/6906596961,Nanan Yamousso,5.3100359,0,-4.0060884,
node/6906596962,Karwil,5.3054677,0,-4.0044435,
node/6906596963,Notre-dame,5.3031308,0,-4.0036369,
node/6906596964,Gare de Bassam,5.3003893,0,-4.0026404,
node/6906596965,Collège Moderne Autoroute,5.2998444,0,-3.9983918,
node/6906596966,Cap Sud,5.2987234,0,-3.9859637,
node/6906596967,Échangeur Marcory,5.2959351,0,-3.981013,
node/6906596968,Auto-école,5.2912433,0,-3.9675638,
node/6906596969,Arrêt,5.2919737,0,-3.964494,
node/6906596970,Boulangerie,5.292783,0,-3.9610541,
node/6906699462,ZOO,5.3790616,0,-4.0069936,
node/6906699463,1ere Boutique,5.4074152,0,-4.0065336,
node/6906699464,Paillet,5.3723989,0,-4.0116794,
node/6906699465,[Arret sans nom],5.3898979,0,-4.0054621,
node/6906699466,Arrêt Dokui,5.3967647,0,-4.0065122,
node/6906699467,Arrêt Dokui,5.3968689,0,-4.0063445,
node/6906699468,ANADER,5.4121402,0,-4.0062842,
node/6906699469,[Arret sans nom],5.4169293,0,-4.0106347,
node/6906699470,[Arret sans nom],5.4170815,0,-4.0106159,
node/6906699471,Abobo Mairie,5.4197017,0,-4.0159368,
node/6906699472,Abobo Mairie,5.4197512,0,-4.0156192,
node/6907121506,Gare Williamsville,5.3675641,0,-4.0235294,
node/6907121507,Mosquée,5.3658243,0,-4.0207037,
node/6907121508,Croix Bleue,5.3643529,0,-4.0189161,
node/6907121509,Agban avant le pont,5.3576606,0,-4.0160715,
node/6907121510,Pharmacie le Belier,5.3501391,0,-4.0169929,
node/6907121511,Indenié,5.3417336,0,-4.0230855,
node/6907121512,Mairie du Plateau,5.3220152,0,-4.018503,
node/6907121513,Institut Français,5.3219502,0,-4.0170059,
node/6907121514,CNPS,5.3195012,0,-4.0144649,
node/6907121515,Gare Marcory,5.3088742,0,-3.984068,
node/6907141795,RTI,5.342209,0,-4.0033579,
node/6907141796,Archibat,5.3459837,0,-4.0029046,
node/6907141797,Marché de Cocody,5.3356901,0,-4.0007897,
node/6907141798,Gare Blockauss,5.3232894,0,-4.0021679,
node/6907141799,Banque Mondiale,5.3278237,0,-4.0013589,
node/6907141800,Marché de Cocody,5.3355267,0,-4.0007635,
node/6907141801,CIE,5.3384172,0,-4.0038072,
node/6907141802,Palm Club,5.351632,0,-4.0021657,
node/6907141803,Gare Nord,5.3587491,0,-4.0274511,
node/6907147644,Texaco,5.3543654,0,-4.0180323,
node/6907147645,Pont lycée technique,5.3478735,0,-4.0101289,
node/6907147646,SODEMI,5.3442806,0,-4.0038018,
node/6907147647,SGBCI,5.3404792,0,-4.0033259,
node/6907147648,Marché de Cocody,5.336444,0,-3.9999757,
node/6907147649,PMI,5.3334363,0,-4.0003179,
node/6907147650,Banque Mondiale,5.3280617,0,-4.00118,
node/6907147651,Gare Blockauss,5.323287,0,-4.0020444,
node/6907154300,Boulangerie Top baquette,5.3528511,0,-4.0168481,
node/6907154301,220 logements,5.3472669,0,-4.017115,
node/6907157792,Gare Nord,5.3589598,0,-4.0273707,
node/6907157793,Renault,5.3559786,0,-4.0213836,
node/6907157794,Adjamé Liberté,5.3534802,0,-4.0158064,
node/6907157795,CERAP - INADES,5.339615,0,-4.000587,
node/6908599212,Gare Campus Cocody,5.3464621,0,-3.9946557,
node/6908599213,ISTC,5.343718,0,-4.0013186,
node/6908599215,Quai 49,5.4354972,0,-4.0153091,
node/6908618074,INSAAC,5.3456864,0,-3.9968976,
node/6908618077,EPV Konaté,5.427395,0,-4.016795,
node/6908618078,Lycée Moderne d'Abobo,5.4286537,0,-4.0146633,
node/6908728765,[Arret sans nom],5.4339703,0,-4.012329,
node/6908728766,[Arret sans nom],5.432656,0,-4.013431,
node/6908728767,[Arret sans nom],5.4273213,0,-4.0162121,
node/6908728771,ISTC,5.343821,0,-4.0008199,
node/6908728772,Gare Campus Cocody,5.3462119,0,-3.9937238,
node/6908782549,[Arret sans nom],5.43182,0,-4.0147361,
node/6908782550,[Arret sans nom],5.429723,0,-4.014638,
node/6908782552,Cité des Arts,5.3450487,0,-3.9978676,
node/6908782553,université méthodiste de Côte D'Ivoire,5.3466283,0,-3.993895,
node/6908914485,[Arret sans nom],5.357415,0,-4.0160582,
node/6908914486,Cours socio éducatif,5.3491257,0,-4.0171632,
node/6908914487,Piscine d’État de Treichville,5.3082112,0,-3.9996571,
node/6908914488,Gare Marcory,5.3090397,0,-3.9839441,
node/6908914489,Boulangerie Top Qualité,5.3555536,0,-4.0161239,
node/6908914490,Liberté,5.3513262,0,-4.0170747,
node/6908914491,Pharmacie le Belier,5.3503722,0,-4.0170975,
node/6908914492,Indenié,5.3418097,0,-4.0230188,
node/6908914493,Banque SIB,5.3421743,0,-4.025647,
node/6908914494,Bicici plateau,5.321186,0,-4.0183783,
node/6908914495,Pyramide,5.321624,0,-4.0167837,
node/6908914496,Siège Moov,5.3184312,0,-4.0145266,
node/6908914498,Croix Bleue,5.3641726,0,-4.0188664,
node/6908914499,Infirmerie Sinikeya,5.3653249,0,-4.0202826,
node/6908914500,Gare Williamsville,5.3670874,0,-4.0235066,
node/6909039462,Petro Ivoire,5.3589877,0,-4.0318263,
node/6909039464,Pharmacie Sainte Marie,5.3468603,0,-4.0257324,
node/6909039468,Cité Policière,5.3080247,0,-4.0159526,
node/6909039469,CHU,5.2958623,0,-4.0046789,
node/6909039470,PTT Km4,5.2927793,0,-3.9984496,
node/6909039471,Pharmacie Santé Publique,5.2914467,0,-3.9957435,
node/6909108442,Terminus Cité Fairmont,5.3585383,0,-4.0375583,
node/6909108450,arrêt,5.305135,0,-4.0149536,
node/6909108451,Services Techniques du District,5.29123,0,-3.9902017,
node/6909121487,Gare Marcory,5.3088407,0,-3.9840127,
node/6909208699,Parc des Sports,5.2971256,0,-4.0074831,
node/6909208700,"SIYOA, Boulevard de Marseille",5.2895393,0,-3.990781,
node/6909225529,Arrêt,5.36188,0,-4.0724972,
node/6909225530,Arrêt,5.3647534,0,-4.0745652,
node/6909225533,[Arret sans nom],5.3727101,0,-4.0961792,
node/6909225534,[Arret sans nom],5.3742257,0,-4.0895635,
node/6909225535,Nestlé,5.372722,0,-4.0867558,
node/6909225536,Arrêt,5.3745633,0,-4.0781781,
node/6909225537,[Arret sans nom],5.3703887,0,-4.0796923,
node/6909225538,Arrêt,5.3683786,0,-4.0786743,
node/6909225539,Direction de la Sotra,5.3670367,0,-4.0761986,
node/6909225540,Arrêt,5.3628133,0,-4.0736157,
node/6909225541,[Arret sans nom],5.3612471,0,-4.0702482,
node/6909225542,Lycée Moderne Yopougon Andokoi,5.3623019,0,-4.0678704,
node/6909225543,Centre Ivoire Couture,5.3615148,0,-4.0667894,
node/6909225544,Gare Nord,5.3585831,0,-4.0278578,
node/6909225545,Gare Sud,5.3146893,0,-4.0183049,
node/6909237619,CHU Treichville,5.2948194,0,-4.0033954,
node/6909237622,Délices de France,5.301827,0,-3.9881326,
node/6909237623,Services Techniques du District,5.2913004,0,-3.9900511,
node/6909237624,PTT Km4,5.2931333,0,-3.9994307,
node/6909237625,Quincaillerie Générale,5.3023437,0,-4.0141223,
node/6909237626,Arrêt,5.3049356,0,-4.0150089,
node/6909237627,Cité Policière,5.308109,0,-4.0161832,
node/6909237631,Gare Nord,5.3591167,0,-4.0279602,
node/6909237632,Station Petro Ivoire,5.358876,0,-4.0319963,
node/6909237633,Terminus 02 Cité Fairmont,5.3582206,0,-4.0364602,
node/6909430718,[Arret sans nom],5.3765208,0,-4.094158,
node/6909430720,Gare CTE,5.3618706,0,-4.0668847,
node/6909430721,Lycée Moderne Yopougon Andokoi,5.3621938,0,-4.0678369,
node/6909430722,Station Total,5.3607938,0,-4.0710622,
node/6909430723,Arrêt,5.362382,0,-4.0736572,
node/6909430724,Arrêt,5.365409,0,-4.0742996,
node/6909430725,Direction de la Sotra,5.36707,0,-4.0764347,
node/6909430726,Arrêt,5.3683719,0,-4.0788862,
node/6909430727,Station,5.3690582,0,-4.080222,
node/6909430728,[Arret sans nom],5.3699698,0,-4.0819788,
node/6909430729,JOMACO,5.3741086,0,-4.0896792,
node/6909430730,Dépôt Yopougon zone Industrielle,5.3741528,0,-4.0958456,
node/6909521603,Hôpital Municipal,5.2645534,0,-3.9848298,
node/6909521604,Groupe Scolaire N'Sikan,5.2632614,0,-3.9834323,
node/6909521605,CIE,5.257665,0,-3.9849267,
node/6909521606,arrêt,5.2558751,0,-3.9956283,
node/6909521607,Gestoci,5.26373,0,-3.9989162,
node/6909521608,Pont de Vridi,5.2704314,0,-4.0062621,
node/6909521609,"Etablissements Rey, Port",5.2978357,0,-4.0143099,
node/6909521610,Sicodis,5.3005436,0,-4.0175241,
node/6909521611,Terminus 32,5.305037,0,-4.0231458,
node/6909521612,Grand Moulin Abidjan,5.3069377,0,-4.0211629,
node/6909521613,Hôpital du Pont,5.3088247,0,-4.0179278,
node/6909521614,"Avenue 11, Rue 12, Treichville",5.305655,0,-4.0117363,
node/6909521615,"Avenue 15, Rue 12, Treichville",5.3039938,0,-4.0111588,
node/6909521616,Paroisse Notre Dame,5.3040254,0,-4.0034158,
node/6909521617,Marché Belleville,5.3056574,0,-3.9987874,
node/6909521620,Gare Marcory,5.3087649,0,-3.9838718,
node/6909546905,Vridi Cité - Terminus 53,5.266603,0,-3.9871428,
node/6909546906,Pharmacie Vridi Port,5.259526,0,-3.9818252,
node/6909546907,Stade de la SIR,5.2571616,0,-3.9892306,
node/6909546908,Vridi-Iran,5.2588247,0,-3.9978983,
node/6909546909,"CPMA, Vridi",5.2676512,0,-4.0031425,
node/6909546910,PALM-CI,5.277976,0,-4.0085496,
node/6909546911,Bolloré,5.2821643,0,-4.0084685,
node/6909546912,Siège SOTRA,5.2864977,0,-4.008455,
node/6909546913,Arrêt,5.292271,0,-4.008424,
node/6909546914,Ciment Bélier,5.296841,0,-4.0131528,
node/6909546915,Port Autonome Abidjan,5.3029759,0,-4.0212547,
node/6909546916,Maison du Congres,5.309804,0,-4.0149741,
node/6909546917,Collège Bosco,5.3059215,0,-4.0050815,
node/6909707221,Niangon Sud à droite,5.3226268,0,-4.1045,
node/6909707223,Carrefour Académie,5.3233679,0,-4.1057378,
node/6909707224,Caféier,5.325714,0,-4.1059349,
node/6909707225,Lubafrique,5.3310513,0,-4.1037691,
node/6909707226,2ème arrêt ANADOR,5.3338915,0,-4.1029765,
node/6909707227,Carrefour Anador,5.3358784,0,-4.1014047,
node/6909707228,Pharmacie Cité Maroc,5.3404237,0,-4.1004632,
node/6909707229,CIE,5.3407014,0,-4.0892462,
node/6909707230,[Arret sans nom],5.3450164,0,-4.0892456,
node/6909707231,Grand Centre,5.3481316,0,-4.0875008,
node/6909707232,Port-Bouët II,5.3540742,0,-4.0874934,
node/6909707233,[Arret sans nom],5.3561104,0,-4.0851103,
node/6909707234,BAE,5.3604209,0,-4.0850901,
node/6909707236,Gare Nord,5.358951,0,-4.0277736,
node/6909707238,Gare Sud,5.3147518,0,-4.0183735,
node/6909737821,Feu du Collège Bosco,5.3058324,0,-4.0049374,
node/6909737822,"Avenue 10, Rue 12, Treichville",5.3062141,0,-4.0120606,
node/6909737824,Grand Moulin Abidjan,5.3067759,0,-4.0211598,
node/6909737825,Siège Port Autonome Abidjan,5.3033621,0,-4.0217286,
node/6909737826,Port Autonome Abidjan,5.2945614,0,-4.0095509,
node/6909737827,Siège SOTRA,5.2878677,0,-4.0082981,
node/6909737828,Bolloré,5.2820277,0,-4.0083516,
node/6909737829,Movis,5.2787,0,-4.00841,
node/6909737830,Pont de Vridi,5.2705271,0,-4.0061063,
node/6909812227,Cité Administrative,5.3309411,0,-4.0239378,
node/6909812228,CHU de Yopougon,5.3572641,0,-4.0849641,
node/6909812229,[Arret sans nom],5.3552565,0,-4.0867444,
node/6909812230,Pharmacie Port-Bouët II,5.3469666,0,-4.0880983,
node/6909812231,[Arret sans nom],5.3453455,0,-4.0891591,
node/6909812232,Mosquée du Maroc,5.3400138,0,-4.0974297,
node/6909812233,Pharmacie Cité Maroc,5.3401827,0,-4.1003972,
node/6909812234,Carrefour Anador,5.335861,0,-4.1013081,
node/6909812235,Lubafrique,5.3305692,0,-4.1037999,
node/6909812236,[Arret sans nom],5.3273952,0,-4.1051263,
node/6909812237,Caféier,5.32569,0,-4.1058531,
node/6909812238,Niangon Sud à droite,5.3226401,0,-4.1045248,
node/6909923471,Siporex-Sicomex,5.3568101,0,-4.0739979,
node/6909923472,Siporex avant le feu,5.3538004,0,-4.0740046,
node/6909923473,William-Ponty,5.3448074,0,-4.0732898,
node/6909923474,Yopougon 16ème Advans,5.3388868,0,-4.0732871,
node/6909923475,Saguidiba,5.3326109,0,-4.0733247,
node/6909923477,Gare Yopougon Kouté,5.3297734,0,-4.0735526,
node/6910224899,Gare Campus Cocody,5.3463096,0,-3.9936456,
node/6910224902,Gare Yopougon Kouté,5.3297134,0,-4.0738578,
node/6910224905,Saguidiba,5.3315587,0,-4.0735191,
node/6910224906,Côte d'Ivoire-Telecom,5.3344863,0,-4.0734252,
node/6910224907,Yopougon 16ème Advans,5.338834,0,-4.0734096,
node/6910224908,Saint André lavage,5.3418778,0,-4.0734078,
node/6910224909,William-Ponty,5.345666,0,-4.0734038,
node/6910224910,Siporex après le feu,5.3540928,0,-4.0741883,
node/6910224911,Siporex-Sicomex,5.3566819,0,-4.0741772,
node/6910272309,CPMA-Vridi,5.2678334,0,-4.0031259,
node/6910272310,Vridi-Iran,5.2588726,0,-3.9977641,
node/6910272311,"SIR, Vridi",5.2565075,0,-3.9932473,
node/6910272312,CIE,5.2577882,0,-3.9854582,
node/6910272313,"Cité CIE, Vridi",5.2582659,0,-3.9824273,
node/6910272314,Temple des Vainqueurs,5.2600531,0,-3.9820028,
node/6910272315,Hôpital Municipal,5.2644761,0,-3.9850263,
node/6910272316,Terminus Cité Vridi,5.2666602,0,-3.9874196,
node/6910518025,Cité Administrative,5.3313223,0,-4.0228166,
node/6910584802,Abobo Gendarmerie,5.4267852,0,-4.0201529,
node/6910703473,Institut des aveugles,5.350955,0,-4.0632851,
node/6910703474,Bel Air,5.3476916,0,-4.0632758,
node/6910703475,Complexe sportif de Yopougon,5.3418057,0,-4.0622364,
node/6910703476,Nouveau quartier,5.3380456,0,-4.0622136,
node/6910703477,Clinique les Oliviers,5.3333961,0,-4.0621975,
node/6910743309,Terminus 85,5.3294751,0,-4.061462,
node/6910743310,Clinique les Oliviers,5.333826,0,-4.0623826,
node/6910743311,Nouveau quartier,5.3375141,0,-4.0623477,
node/6910743312,Bel Air,5.3460439,0,-4.0634635,
node/6910743313,Sable,5.3556644,0,-4.0660062,
node/6910743314,Institut des aveugles,5.3513983,0,-4.0634474,
node/6910755171,Ben,5.3237979,0,-4.0804794,
node/6910755172,Marejea,5.3255979,0,-4.0764964,
node/6910755173,Iris3,5.3255738,0,-4.0718266,
node/6910755174,Yopougon Sideci - Terminus 42,5.3198733,0,-4.0802502,
node/6910755176,Marché Kouté,5.3242746,0,-4.0667291,
node/6910755177,L'usine du camp,5.3236042,0,-4.0615042,
node/6910755178,Stenb,5.3236336,0,-4.0577316,
node/6910755179,Le petit soleil,5.3222355,0,-4.0535085,
node/6910755180,Yopougon Kowëit,5.3222275,0,-4.0507693,
node/6910755181,La faveur,5.3222395,0,-4.0464583,
node/6910755182,Pharmacie Chenain,5.3198693,0,-4.0439746,
node/6910755183,Iris 3,5.3171339,0,-4.0439826,
node/6910755184,Bon choix,5.3137348,0,-4.0440027,
node/6910794085,Santé Village,5.3095505,0,-4.0439558,
node/6910794088,Gare Abobo-Doumé,5.3101983,0,-4.0353389,
node/6910797790,Arrêt,5.4258812,0,-4.01971,
node/6910797791,Arrêt,5.4182684,0,-4.0128435,
node/6910797792,Arrêt,5.4156089,0,-4.0054353,
node/6910797793,Arrêt,5.4155902,0,-3.999584,
node/6910797794,Terminus 81/82,5.4038607,0,-3.9856156,
node/6910797795,BICICI,5.4031254,0,-3.9792073,
node/6910797796,Arrêt,5.4011881,0,-3.9780821,
node/6910797797,Arrêt,5.3988302,0,-3.9776878,
node/6910797798,Arrêt,5.3963428,0,-3.977036,
node/6910797799,Arrêt,5.3932466,0,-3.9761992,
node/6910797800,Arrêt,5.3946558,0,-3.971504,
node/6910797801,Cité Diaspora,5.4000986,0,-3.9649835,
node/6910797802,SOCIAM,5.4025338,0,-3.9621642,
node/6910797803,SOCIAM,5.4022965,0,-3.9620463,
node/6910797804,CHU Angré,5.399963,0,-3.9570893,
node/6910797805,Arrêt,5.4154527,0,-4.0022783,
node/6910797806,CHU Angré,5.3997812,0,-3.9570173,
node/6910797807,Arrêt,5.4003923,0,-3.9592423,
node/6910797808,Arrêt,5.4011774,0,-3.960527,
node/6910797809,Arrêt,5.3991713,0,-3.9657399,
node/6910797810,Arrêt,5.3964463,0,-3.9689626,
node/6910797811,Arrêt,5.3933681,0,-3.9736088,
node/6910797812,Arrêt,5.3929368,0,-3.9754415,
node/6910797813,Arrêt,5.3954823,0,-3.9769683,
node/6910797814,Arrêt,5.3963101,0,-3.9772754,
node/6910797815,Arrêt,5.4003569,0,-3.9781552,
node/6910797816,Arrêt,5.4022415,0,-3.978471,
node/6910797817,BICICI,5.4029505,0,-3.9794534,
node/6910797818,Arrêt,5.4042516,0,-3.9898295,
node/6910797819,Saint Ambroise,5.4070126,0,-3.9911934,
node/6910797820,Arrêt,5.4103992,0,-3.9941237,
node/6910797821,Arrêt,5.4136035,0,-3.9953287,
node/6912410269,Lycée Classique d'Abidjan,5.3317315,0,-4.0043772,
node/6912410270,Hôtel Ivoire,5.3286968,0,-4.0047695,
node/6912410271,Hôtel Ivoire,5.3278806,0,-4.0029871,
node/6912410272,Hôtel Ivoire,5.3277329,0,-4.0032565,
node/6912410273,Lycée Classique d'Abidjan,5.3327049,0,-4.0045047,
node/6912410274,SODEMI,5.3439798,0,-4.0037108,
node/6912410275,Pont lycée technique,5.3477876,0,-4.0095505,
node/6912654329,Carrefour Express,5.3290976,0,-4.0751626,
node/6912729876,BMW,5.3581253,0,-4.0012691,
node/6912729877,SOCITECH,5.3601195,0,-3.998725,
node/6912729878,Macaci,5.3648148,0,-3.9976354,
node/6912729879,Mobil 2 Plateaux,5.367356,0,-3.9983993,
node/6912729880,Sococé 2 Plateaux,5.3718047,0,-3.9984268,
node/6912729881,BOA,5.3745478,0,-3.9985198,
node/6912729882,Snedai,5.3755833,0,-3.9985338,
node/6912729883,Carrefour Duncan,5.3776569,0,-3.9976312,
node/6912729884,Las Palmas,5.3809527,0,-3.9943103,
node/6912805206,Pharmacie du Marché,5.3388207,0,-4.0792393,
node/6912805207,[Arret sans nom],5.3373258,0,-4.0765581,
node/6912805208,Patisserie,5.3384061,0,-4.0752894,
node/6912805209,Ex Chaine Avion Rue Princesse,5.3467623,0,-4.0652525,
node/6912805210,Camp FRCI,5.3408189,0,-4.0599974,
node/6912805211,Carrefour Marché,5.3398655,0,-4.0572368,
node/6912805212,Carrefour Lama Fofana,5.3373205,0,-4.0549944,
node/6912805213,Banque Atlantique,5.3337105,0,-4.0550186,
node/6912805214,Offoumou Yapo,5.3316575,0,-4.0520655,
node/6912805215,Tizra,5.3293394,0,-4.0497521,
node/6912805216,[Arret sans nom],5.3264792,0,-4.0494691,
node/6912805217,Arrêt,5.3247299,0,-4.0494999,
node/6912805219,Gare Abobo-Doumé,5.3104606,0,-4.0354465,
node/6912820385,Carrefour Opéra,5.3847656,0,-3.9932407,
node/6912820386,Mahikari,5.3888111,0,-3.9927523,
node/6912820387,Ambassade de Chine,5.3926338,0,-3.992269,
node/6912820388,Les Oscars,5.3942154,0,-3.9921141,
node/6912820389,BHCI,5.3963811,0,-3.9918337,
node/6912820390,Shawarma House,5.4005109,0,-3.9913221,
node/6912820391,Petro Ivoire Angré,5.4038172,0,-3.9909124,
node/6912820392,Notre Dame,5.4042033,0,-3.9882535,
node/6912820393,FIRDA,5.4034748,0,-3.9819806,
node/6912820394,"Ancien Terminus 90, Les Arcades",5.4033098,0,-3.9765606,
node/6912820395,Soleil 2,5.4006902,0,-3.9728354,
node/6912820396,Clinique Médicale Sainte Justine,5.3971939,0,-3.9694727,
node/6912820397,Cité Diaspora,5.3998522,0,-3.9648829,
node/6912820398,Clinique Médicale Sainte Justine,5.3972237,0,-3.9697282,
node/6912820399,"Ancien Terminus 90, Les Arcades",5.4031598,0,-3.9764213,
node/6912820400,FIRDA,5.4033208,0,-3.9820585,
node/6912820401,Termunis 81/82,5.4037772,0,-3.9856793,
node/6912820402,Notre Dame,5.4041375,0,-3.9887434,
node/6912820403,Petro Ivoire Angré,5.4037567,0,-3.9906882,
node/6912820404,Carrefour 22è,5.4002961,0,-3.9911377,
node/6912820405,BHCI,5.3965825,0,-3.9915941,
node/6912820406,Ambassade de Chine,5.3926201,0,-3.9920829,
node/6912820407,Mahikari,5.3895654,0,-3.9924668,
node/6912820408,Opéra,5.3845481,0,-3.9930996,
node/6912820409,Las Palmas,5.3809502,0,-3.9940546,
node/6912820410,Carrefour Duncan,5.3779505,0,-3.9970644,
node/6912820411,Le Roi du Pain,5.3753472,0,-3.9983567,
node/6912820412,Sococé 2 Plateaux,5.3725038,0,-3.9983278,
node/6912820413,Mobil 2 Plateaux,5.3677225,0,-3.9981432,
node/6912820414,Macaci,5.3654376,0,-3.9973648,
node/6912820415,Saint Jacques,5.3574699,0,-4.0012391,
node/6912820416,Palm Club,5.3525544,0,-4.0018639,
node/6912820417,Carrefour la Vie,5.3493692,0,-4.0022742,
node/6912820418,Arrêt,5.344562,0,-4.0028093,
node/6913011676,Sitarail,5.3266074,0,-4.0255438,
node/6913011677,Gare Yopougon Kouté,5.3293875,0,-4.073499,
node/6913190443,Bon choix,5.3134744,0,-4.0441328,
node/6913190444,Santé Village,5.3087112,0,-4.043768,
node/6913190445,Iris 3,5.3166799,0,-4.0440879,
node/6913190446,Arrêt,5.3208014,0,-4.0441167,
node/6913190447,La faveur,5.3221154,0,-4.0468311,
node/6913190448,Arrêt,5.323918,0,-4.0496448,
node/6913190449,Commissariat de Police du 19ᵉ Arrondissement,5.3270841,0,-4.0503167,
node/6913190450,Tizra,5.3295798,0,-4.0501732,
node/6913190451,Offoumou Yapo,5.3313998,0,-4.0519957,
node/6913190452,La Poste,5.3337753,0,-4.0550937,
node/6913190453,Pharmacie Sacré-cœur,5.3369773,0,-4.055093,
node/6913190454,Pharmacie Béatitude,5.3401473,0,-4.058547,
node/6913190455,Nouveau quartier,5.3407362,0,-4.0608235,
node/6913190456,Ex Chaine Avion Rue Princesse,5.3466167,0,-4.0650474,
node/6913190457,Newton,5.3447353,0,-4.0678006,
node/6913190458,Marche Sicogi,5.3395304,0,-4.0745628,
node/6913190459,Patisserie,5.3379928,0,-4.0751928,
node/6913190460,Pharmacie du Marché,5.3372574,0,-4.0770331,
node/6913190461,Terrain Sogefiha,5.3372711,0,-4.0806585,
node/6913201897,Antenne,5.3335416,0,-4.0733126,
node/6913201898,Cabine Bleue,5.3290163,0,-4.0757574,
node/6913201899,Akadjoba,5.3243327,0,-4.0799806,
node/6913201900,Saint Pierre,5.3239194,0,-4.0871836,
node/6913201901,EPP Niangon,5.3233739,0,-4.0925668,
node/6913201902,Arrêt,5.3197171,0,-4.0944323,
node/6913201903,Arrêt,5.3163701,0,-4.0947904,
node/6913201904,Arrêt Yop 38,5.3152357,0,-4.0928994,
node/6913201907,Terminus 27,5.315995,0,-4.0900334,
node/6913201908,Arrêt,5.3150643,0,-4.0934497,
node/6913201909,EPP SICOGI Niangon Sud,5.3172602,0,-4.0948509,
node/6913201910,Carrefour Marché,5.3202551,0,-4.0943199,
node/6913201911,EPP Niangon,5.3233885,0,-4.0926667,
node/6913201912,Saint Pierre,5.3240967,0,-4.0869619,
node/6913201913,Akadjoba,5.3246783,0,-4.0797426,
node/6913201914,Arrêt de bus,5.3287702,0,-4.0762905,
node/6913201915,Gare Sud,5.3146172,0,-4.0184952,
node/6913291219,Gare Sud,5.3144986,0,-4.0183564,
node/6913703797,CNTG-BNETD,5.329485,0,-3.9977011,
node/6913703798,UCAO,5.3310059,0,-3.9970399,
node/6913703799,Maison du PDCI-RDA,5.3350719,0,-3.9973538,
node/6913703800,Piscine d’État de Treichville,5.3084936,0,-3.9997195,
node/6913703801,NSIA,5.3074734,0,-3.990551,
node/6913703802,Gare Marcory,5.3086966,0,-3.9837714,
node/6913703803,Maison du Parti,5.3353656,0,-3.9975172,
node/6913703804,UCAO,5.3310313,0,-3.9969162,
node/6913703805,CNTG-BNETD,5.3293836,0,-3.9976804,
node/6913857608,Sable,5.3557108,0,-4.0658826,
node/6913857611,Complexe Sportif de Yopougon,5.3407344,0,-4.0646331,
node/6913857612,Mairie de Yopougon,5.3424009,0,-4.0665987,
node/6913929664,La Marine,5.3443401,0,-4.0375561,
node/6913929665,Sitarail,5.3278599,0,-4.0262003,
node/6913929666,Gare Sud,5.3146272,0,-4.0182404,
node/6913929668,La Marine,5.3441859,0,-4.0376761,
node/6913929669,Gare Yopougon Kouté,5.3295615,0,-4.0737128,
node/6913931703,Gendarmerie,5.3367091,0,-4.0216157,
node/6913974340,Gendarmerie,5.3369705,0,-4.0217222,
node/6915341517,Soleil 2,5.400545,0,-3.9728972,
node/6915341518,Arrêt,5.4035247,0,-3.9837323,
node/6915341519,Arrêt,5.4062326,0,-3.9906836,
node/6915341520,Arrêt,5.4297269,0,-3.9894234,
node/6915341521,Arrêt,5.4313416,0,-3.9891222,
node/6915341523,Abobo Biabou,5.4564179,0,-3.9725804,
node/6915341525,Abobo Biabou,5.4564283,0,-3.9726482,
node/6915341526,Arrêt,5.4454571,0,-3.978184,
node/6915341527,Arrêt,5.4430187,0,-3.9810371,
node/6915341528,Arrêt,5.441543,0,-3.9831075,
node/6915341529,Arrêt,5.4403681,0,-3.9847859,
node/6915341530,Arrêt,5.4391313,0,-3.9859783,
node/6915341531,Arrêt,5.4368688,0,-3.9875153,
node/6915341532,Arrêt,5.4356843,0,-3.987991,
node/6915341533,Arrêt,5.434457,0,-3.9883619,
node/6915341534,Arrêt,5.4327625,0,-3.9887503,
node/6915341535,Arrêt,5.4312302,0,-3.9889419,
node/6915341536,Arrêt,5.4293215,0,-3.9892581,
node/6915341537,Arrêt,5.4264243,0,-3.9896961,
node/6915341538,Arrêt,5.4229496,0,-3.9902515,
node/6915341539,Arrêt,5.4208149,0,-3.9905681,
node/6915341540,Arrêt,5.4195345,0,-3.9907254,
node/6915341541,Arrêt,5.4182159,0,-3.9909298,
node/6915341542,Arrêt,5.4158878,0,-3.9922122,
node/6915341543,Arrêt,5.4154923,0,-3.9928597,
node/6915341544,Arrêt,5.4148205,0,-3.9947036,
node/6915341545,Arrêt,5.4141247,0,-3.9952879,
node/6915341546,Arrêt,5.409531,0,-3.9932262,
node/6915341547,Petro Ivoire Angré,5.4050885,0,-3.990564,
node/6915341548,Arrêt,5.403643,0,-3.9829561,
node/6915341549,Arrêt,5.4033522,0,-3.9807645,
node/6915487638,9 Kilo,5.3585446,0,-3.96346,
node/6915487639,Rond-Point de la Palmeraie,5.360974,0,-3.9586683,
node/6915487640,Carrefour de la Gendarmerie,5.3606149,0,-3.9598948,
node/6915487641,Cap Nord,5.3568703,0,-3.9665508,
node/6915487642,Riviera 2,5.3532599,0,-3.9779824,
node/6915487643,École de Police,5.3502292,0,-3.9881887,
node/6915487644,École de la Gendarmerie,5.3492233,0,-3.9943092,
node/6915487645,Carrefour de la Vie,5.3485522,0,-4.0018322,
node/6915647682,Mairie d'ABOBO,5.4217637,0,-4.0185375,
node/6915647683,Arrêt,5.4270593,0,-4.0212736,
node/6915647684,Arrêt,5.4303911,0,-4.0241622,
node/6915696792,9 Kilo,5.3587403,0,-3.9635319,
node/6915696795,Chic Shop,5.3596047,0,-3.9620358,
node/6915696796,Cap Nord,5.3574857,0,-3.9657802,
node/6915696797,École de Police,5.3504609,0,-3.9881605,
node/6915696798,Carrefour CHU,5.3494956,0,-3.9916044,
node/6915696799,École de la Gendarmerie,5.3493834,0,-3.994457,
node/6915696800,Carrefour de la Vie,5.3485982,0,-4.0029649,
node/6915722685,Arrêt,5.4333404,0,-4.0266778,
node/6915722686,Anokoi,5.4390733,0,-4.0446977,
node/6915722687,PK 18 Agripac,5.4434752,0,-4.0485036,
node/6915722688,Arrêt,5.4482915,0,-4.0512502,
node/6915722689,Arrêt,5.4503535,0,-4.0529903,
node/6915722690,Arrêt,5.4565524,0,-4.0545715,
node/6915722691,Arrêt,5.4574448,0,-4.054497,
node/6915722692,Arrêt,5.465098,0,-4.0544278,
node/6915722693,Arrêt,5.4662168,0,-4.0540279,
node/6915722694,Arrêt,5.4680953,0,-4.0530974,
node/6915722695,Arrêt,5.4794949,0,-4.0538658,
node/6915722696,Arrêt,5.4828953,0,-4.0513358,
node/6915722697,Arrêt,5.4837187,0,-4.0513476,
node/6915722698,Arrêt,5.4866626,0,-4.05146,
node/6915722699,Arrêt,5.4890597,0,-4.0515593,
node/6915722700,Arrêt,5.4904279,0,-4.0516047,
node/6915722701,Arrêt,5.490915,0,-4.0516233,
node/6915722702,Arrêt,5.4914503,0,-4.051639,
node/6915722703,Arrêt,5.4928779,0,-4.0516636,
node/6915722704,Arrêt,5.4940805,0,-4.0517658,
node/6915722705,Arrêt,5.495095,0,-4.0517794,
node/6915722706,Arrêt,5.4960474,0,-4.0516644,
node/6915722707,Arrêt,5.4970767,0,-4.0515036,
node/6915722708,Arrêt,5.497669,0,-4.051438,
node/6915722709,Arrêt,5.4979794,0,-4.0513918,
node/6915722710,Arrêt,5.4995751,0,-4.0516497,
node/6915722711,Arrêt,5.500507,0,-4.0519247,
node/6915722712,Arrêt,5.5011338,0,-4.0520934,
node/6915722713,Arrêt,5.5015989,0,-4.0522125,
node/6915722714,Arrêt,5.5026911,0,-4.0525268,
node/6915722715,Arrêt,5.5045432,0,-4.0530594,
node/6915722716,Arrêt,5.5053444,0,-4.0532829,
node/6915722717,Mairie d'Anyama,5.5064599,0,-4.0531365,
node/6915722719,Mairie d'Anyama,5.5064064,0,-4.0530408,
node/6915722720,Arrêt,5.4976427,0,-4.0513828,
node/6915722721,Arrêt,5.5027177,0,-4.0523687,
node/6915722722,Arrêt,5.4994894,0,-4.0514357,
node/6915722723,Arrêt,5.4949787,0,-4.0516383,
node/6915722724,Arrêt,5.4888603,0,-4.051407,
node/6915722725,Arrêt,5.4863031,0,-4.0513417,
node/6915722726,Arrêt,5.4825896,0,-4.0512201,
node/6915722727,Arrêt,5.479955,0,-4.0531887,
node/6915722728,Arrêt A l'Ecole,5.4757466,0,-4.0552147,
node/6915722729,Arrêt Contrôle,5.470731,0,-4.0531044,
node/6915722730,Arrêt,5.4669354,0,-4.0534141,
node/6915722731,Arrêt Ancienne Gendarmerie,5.4611068,0,-4.053759,
node/6915722732,Arrêt,5.4526174,0,-4.0544875,
node/6915722733,Arrêt Ancien Marché,5.4503748,0,-4.0526523,
node/6915722734,Arrêt Terminus,5.4483606,0,-4.0510764,
node/6915722735,Arrêt Agripac,5.4449974,0,-4.0491425,
node/6915722736,Arrêt,5.4436482,0,-4.0484067,
node/6916152424,Terminus dépôt SOTRA,5.28758,0,-4.0057551,
node/6916152425,Pharmacie du Port,5.2890666,0,-4.0084018,
node/6916152426,Arrêt du CHU,5.2961604,0,-4.0033572,
node/6916152427,Gare de Bassam,5.2991407,0,-4.0024808,
node/6916181080,Arrêt,5.3478959,0,-4.0026565,
node/6916181081,Grande Pharmacie /Terminus 300FCFA,5.3700062,0,-3.9983308,
node/6916280433,Arrêt,5.4157357,0,-3.9930971,
node/6916280434,Terminus Abobo Baoulé,5.4149921,0,-3.9940399,
node/6916280435,Pharmacie Actuelle,5.4129627,0,-3.9948875,
node/6916280436,Arrêt,5.4103431,0,-3.9939447,
node/6916280437,Arrêt,5.4085794,0,-3.9923863,
node/6916280438,Saint Ambroise,5.4071215,0,-3.9910921,
node/6916280439,Arrêt,5.4055233,0,-3.990494,
node/6916280440,Arrêt,5.4011787,0,-3.9910264,
node/6916280441,Carrefour 22ème,5.3991513,0,-3.9912618,
node/6916280442,SODECI,5.3973362,0,-3.991524,
node/6916280443,Paris Baguette,5.3945043,0,-3.9918311,
node/6916280444,Arrêt,5.3875127,0,-3.9927256,
node/6916280445,Arrêt,5.3797969,0,-3.9952144,
node/6916280446,NSIA,5.3737207,0,-3.9983542,
node/6916280447,SGBGI,5.3700155,0,-3.9981216,
node/6916280448,Cité BAD,5.3465781,0,-4.002571,
node/6916280449,CIE,5.3386878,0,-4.0035403,
node/6917146061,Commissariat du 9 ème,5.3065218,0,-3.9865047,
node/6917146062,Commissariat du 9 ème,5.3061086,0,-3.9857063,
node/6917146063,King Cash,5.3034179,0,-3.9807831,
node/6917146064,Cabinet Médical du 3ème pont,5.3015677,0,-3.9776047,
node/6917146065,Marché de Marcory,5.3005869,0,-3.9757915,
node/6917146066,Paroisse Sainte Bernadette,5.2986259,0,-3.9722389,
node/6917146067,Pharmacie Bagoué,5.2982013,0,-3.9714765,
node/6917146068,Bank of Africa,5.2968312,0,-3.9688084,
node/6917146069,Arrêt,5.2965895,0,-3.9650103,
node/6917146070,Arrêt,5.2975636,0,-3.9608221,
node/6917146071,Place Inchallah,5.2983628,0,-3.9572333,
node/6917146072,Koumassi Prodomo,5.299281,0,-3.9531506,
node/6917146073,Gare Mesano,5.3001329,0,-3.9494388,
node/6917146074,Koumassi Mesano,5.3008577,0,-3.9476752,
node/6917146075,Koumassi Mesano,5.3002935,0,-3.9483867,
node/6917146076,Station Petro Ivoire,5.2998074,0,-3.9505841,
node/6917146077,Place Inchallah,5.2989496,0,-3.9543702,
node/6917146078,Arrêt,5.2980163,0,-3.9585451,
node/6917146079,Arrêt,5.2972737,0,-3.9619419,
node/6917146080,Arrêt,5.2962808,0,-3.9660523,
node/6917146081,Bank of Africa,5.296728,0,-3.9687629,
node/6917146082,Pharmacie Bagoué,5.2980069,0,-3.9712863,
node/6917146083,Marché de Marcory,5.3006211,0,-3.9759814,
node/6917146084,Cabinet Médical du 3ème pont,5.3016585,0,-3.9778785,
node/6917151685,Arrêt,5.3044464,0,-3.9828404,
node/6917151686,Commissariat du 9 ème,5.3062161,0,-3.9860886,
node/6917151687,Arrêt,5.3077309,0,-3.988849,
node/6917151688,Yan Auto Ecole,5.3084636,0,-3.9904413,
node/6919194336,Gare Abobo-Doumé,5.3106101,0,-4.0352896,
node/6919312942,Cité Bracodi Rte Cité verte,5.3270854,0,-4.0923844,
node/6919312943,Cité Verte,5.332209,0,-4.1119954,
node/6919312945,Collège Sebaco,5.3316148,0,-4.109973,
node/6919312946,Cité Bracodi Rte Cité verte,5.3306787,0,-4.1058974,
node/6919312947,Banque BNI,5.3296893,0,-4.1035223,
node/6919312948,Le repère,5.3284241,0,-4.100539,
node/6919312949,Carrefour de Niangon,5.3278005,0,-4.0976201,
node/6919312950,Akadjoba,5.3241547,0,-4.0812954,
node/6919312951,Gare Abobo-Doumé,5.3103655,0,-4.0351267,
node/6919327587,Le petit soleil,5.322126,0,-4.053652,
node/6919327588,Blé Doré,5.3235388,0,-4.0573213,
node/6919327589,Marché Kouté,5.3241224,0,-4.0669544,
node/6919327590,Carrefour Kouté,5.3251706,0,-4.0710314,
node/6919327591,Marejea,5.325455,0,-4.0761933,
node/6919327593,Akadjoba,5.3238646,0,-4.0818366,
node/6919327594,Arrêt,5.3264405,0,-4.0914322,
node/6919327595,Carrefour de Niangon,5.327729,0,-4.0976496,
node/6919327596,Le repère,5.3283566,0,-4.1005786,
node/6919327597,Top Qualitée,5.3295851,0,-4.1035169,
node/6919327598,Cité Bracodi Rte Cité verte,5.3307695,0,-4.1063239,
node/6919758025,Arrêt,5.2982594,0,-3.9831407,
node/6919758026,Arrêt,5.2961308,0,-3.9792079,
node/6919758027,Arrêt,5.2945624,0,-3.9763809,
node/6919758028,Arrêt,5.293456,0,-3.9743974,
node/6919758029,Arrêt,5.2927669,0,-3.9712223,
node/6919758030,Arrêt,5.2932236,0,-3.9690283,
node/6919758031,Arrêt,5.2940469,0,-3.965347,
node/6919758032,Arrêt,5.2951953,0,-3.9603108,
node/6919758033,Arrêt,5.2961324,0,-3.9565101,
node/6919758034,Sogefia,5.297599,0,-3.9526269,
node/6919758035,Arrêt,5.2987064,0,-3.9478318,
node/6919758036,Station Petro Ivoire,5.3015424,0,-3.9469644,
node/6919758037,Arrêt,5.3043266,0,-3.9453759,
node/6919758038,Bon Samaritain,5.3080062,0,-3.946713,
node/6919758039,Pharmacie Fanny,5.3099762,0,-3.9473403,
node/6919758040,Patisserie MC,5.3109106,0,-3.9466942,
node/6919758041,Terminus 05 Lycée Municipal de Koumassi,5.311165,0,-3.9450346,
node/6924851825,"Avenue 19, Rue 12, Treichville",5.3023303,0,-4.0106387,
node/6924851826,FIESTA,5.3047639,0,-4.0115547,
node/6924851828,Treichville Entente,5.3028704,0,-4.0006757,
node/6924851829,Nostalgie,5.3015791,0,-4.0016802,
node/6924851830,Banque Bicici,5.300882,0,-4.003555,
node/6924851831,[Arret sans nom],5.2999593,0,-4.0062869,
node/6924851833,Gare Nord,5.3586294,0,-4.0277536,
node/6924979791,"Avenue 19, Rue 12, Treichville",5.3025272,0,-4.0106307,
node/6924979792,Pharmacie de l'Avenue 27,5.3029946,0,-4.0062426,
node/6924979794,Treichville Entente,5.3032777,0,-4.0008245,
node/6926746685,[Arret sans nom],5.3296238,0,-4.0208888,
node/6926746686,Cité Administrative,5.3309876,0,-4.0236032,
node/6926746688,Terminus Gare Sud,5.3149603,0,-4.018979,
node/6926746689,Station Total,5.3018048,0,-4.0096436,
node/6926746749,Arrêt,5.4538834,0,-3.9737989,
node/6926746750,Arrêt,5.4385456,0,-3.9864522,
node/6926746751,Arrêt,5.4222388,0,-3.9903197,
node/6926746752,Arrêt,5.4154549,0,-3.9996626,
node/6926746753,Arrêt,5.4154484,0,-4.0016378,
node/6926746754,Arrêt,5.4155231,0,-4.0054049,
node/6926746755,Samaké,5.4152696,0,-4.0071858,
node/6926746757,Gare Nord,5.3590439,0,-4.0280449,
node/6926746758,Arrêt,5.4155963,0,-4.0019605,
node/6926746759,Arrêt,5.4156232,0,-3.9928882,
node/6926746760,Sotra,5.4196603,0,-3.9908193,
node/6926746761,Arrêt,5.422222,0,-3.9904401,
node/6926746762,Arrêt,5.426491,0,-3.9898022,
node/6926746763,Arrêt,5.43368,0,-3.9886816,
node/6926746764,Arrêt,5.4374054,0,-3.9873449,
node/6926746765,Arrêt,5.4402786,0,-3.9850082,
node/6926746766,Arrêt,5.443381,0,-3.9807703,
node/6926746767,Arrêt,5.4451883,0,-3.9785569,
node/6926943107,Bon Samaritain,5.3079127,0,-3.946597,
node/6926943108,Pharmacie Campement,5.3050831,0,-3.9451392,
node/6926943109,Hôpital Général de Marcory,5.3011838,0,-3.9835873,
node/6926943110,Pharmacie Notre-Dame,5.3034579,0,-4.0046641,
node/6926943111,Gare Sud,5.3146776,0,-4.0185633,
node/6926943112,Cité Administrative,5.3311928,0,-4.0236086,
node/6927022357,[Arret sans nom],5.3051694,0,-3.9840318,
node/6927037611,Arrêt,5.4159386,0,-3.9930649,
node/6927037612,Arrêt,5.408251,0,-4.0063405,
node/6927037613,Arrêt,5.4057129,0,-4.0063848,
node/6927037614,Arrêt,5.4013897,0,-4.0064518,
node/6927037615,Arrêt,5.3930717,0,-4.0057893,
node/6927037616,Arrêt,5.3875774,0,-4.0056726,
node/6927037617,Arrêt,5.3801858,0,-4.0066168,
node/6927037618,Arrêt,5.3625903,0,-4.0168427,
node/6927037619,Pharmacie le Belier,5.3503578,0,-4.0169801,
node/6927037620,Fraternité Matin,5.3456673,0,-4.0178358,
node/6927037621,Arrêt,5.3411247,0,-4.0237561,
node/6927037622,Arrêt,5.3372751,0,-4.0237963,
node/6927037623,Arrêt,5.3339228,0,-4.0238252,
node/6927037625,Cité Administrative,5.3310139,0,-4.0238251,
node/6927037626,Arrêt,5.3339515,0,-4.0238861,
node/6927037627,Ministère de la défense,5.3377117,0,-4.0238741,
node/6927037628,Arrêt,5.3557539,0,-4.0161668,
node/6927037629,Arrêt,5.379605,0,-4.0068716,
node/6927037630,Arrêt,5.386285,0,-4.0059958,
node/6927037631,Arrêt,5.4018603,0,-4.0065437,
node/6927037633,Abobo Belleville,5.4158855,0,-3.9933257,
node/6927327302,Arrêt,5.3434193,0,-4.0125125,
node/6927327303,Arrêt,5.346265,0,-4.0103402,
node/6927327304,Arrêt,5.3494085,0,-4.0088409,
node/6927327305,Arrêt,5.3529759,0,-4.0044479,
node/6927327306,Arrêt,5.4043844,0,-3.989773,
node/6927327307,Arrêt,5.4048944,0,-3.9851483,
node/6927327308,Arrêt,5.4082838,0,-3.9867901,
node/6927327309,Arrêt,5.407261,0,-3.9890592,
node/6927327310,Arrêt,5.3528041,0,-4.0043218,
node/6927327311,Arrêt,5.3493597,0,-4.0085859,
node/6927327312,Arrêt,5.3461658,0,-4.0102683,
node/6927327313,Polyclinique,5.3433536,0,-4.0124663,
node/6927327314,Gare Sud,5.3147983,0,-4.0186967,
node/6927330411,Campement,5.3022414,0,-3.9464354,
node/6927330412,Terminus 05 Lycée Municipal de Koumassi,5.3120389,0,-3.9450815,
node/6927330413,Pharmacie Fanny,5.3099838,0,-3.9472561,
node/6927330414,Arrêt,5.3362229,0,-4.0047298,
node/6927330416,Gare Campus Cocody,5.3462362,0,-3.9938503,
node/6927544633,INSAAC,5.3463523,0,-3.9972169,
node/6927544634,Saint Jean,5.3359628,0,-4.0030417,
node/6927544636,Saint Jean,5.3358129,0,-4.0029552,
node/6927544637,Gendarmerie,5.3482687,0,-3.9970998,
node/6927600976,Arrêt,5.3536864,0,-4.0175371,
node/6927600977,Mirador,5.3567305,0,-4.0250561,
node/6927631763,Arrêt SICOGI,5.3566458,0,-4.0241115,
node/6927694921,Gare Nord,5.3592856,0,-4.0275494,
node/6927701716,Arrêt,5.3470894,0,-3.9971908,
node/6928179123,Terminus Riviera 2,5.3534453,0,-3.9700449,
node/6928179124,Cité étudiante Riviera 2,5.3533983,0,-3.9736351,
node/6928179125,Riviera 2,5.3525929,0,-3.9780678,
node/6928179126,Petite Mosquée Riviéra Jardin,5.3512739,0,-3.9805625,
node/6928250859,Petite Mosquée Riviéra Jardin,5.3516026,0,-3.9803499,
node/6928250860,Riviera 2,5.3526374,0,-3.9781867,
node/6928250861,Arrêt,5.3530707,0,-3.9761267,
node/6928250862,Terminus Riviera 2,5.3534857,0,-3.9702004,
node/6928681599,Terminus Vridi-Iran,5.2563753,0,-3.9975737,
node/6928681601,Arrêt Cuirasse Ciment,5.2947326,0,-4.0101948,
node/6928681602,Gare Nord,5.3588804,0,-4.0279685,
node/6928704112,Terminus 32,5.3050571,0,-4.0228924,
node/6928704113,[Arret sans nom],5.3002851,0,-4.0170398,
node/6928704114,"Etablissements Rey, Port",5.29778,0,-4.0140854,
node/6928704115,Arrêt Bolloré logistique,5.264595,0,-3.9995223,
node/6928704117,Terminus Vridi-Iran,5.2562337,0,-3.9975522,
node/6929796960,Gare Sud,5.3143818,0,-4.0182207,
node/6929849943,Terminus Gare Sud,5.314962,0,-4.0189046,
node/6930487819,Arrêt,5.3078566,0,-3.9888954,
node/6930917942,Station Corlay Bingerville,5.3612016,0,-3.8943455,
node/6930917943,Après barrage,5.3618466,0,-3.9581935,
node/6930917944,Dalia,5.364055,0,-3.9537437,
node/6930917945,Église Apostolique de Côte d'Ivoire,5.3653603,0,-3.9497378,
node/6930917946,Camp Militaire d'Akouédo,5.3673945,0,-3.94563,
node/6930917947,Carrefour Faya,5.370105,0,-3.9389929,
node/6930917948,Résidence Genie 2000,5.3712573,0,-3.9347483,
node/6930917949,Optic 2000,5.3725084,0,-3.9301188,
node/6930917950,Jules Verne,5.3741413,0,-3.9237472,
node/6930917951,Pharmacie Saint Sylvestre,5.3718715,0,-3.9108525,
node/6930917952,Cité Hévéas,5.3645064,0,-3.9083956,
node/6930917953,Université de Cocody Pole Scientifique,5.3606115,0,-3.9031767,
node/6930917954,CIE,5.360275,0,-3.8979524,
node/6930917955,[Arret sans nom],5.360916,0,-3.8963887,
node/6930917956,Lycée Garçon de Bingerville,5.3577634,0,-3.8909747,
node/6930917957,Carrefour Marché,5.3574363,0,-3.8866322,
node/6930917958,Espace Orange,5.3583363,0,-3.8843503,
node/6930917959,Hôpital Mère-Enfant de Bingerville,5.360674,0,-3.8841063,
node/6930917961,Carrefour Marché,5.3573589,0,-3.886655,
node/6930917962,Lycée Garçon de Bingerville,5.3576746,0,-3.8908299,
node/6930917963,CIE,5.3601255,0,-3.8980114,
node/6930917964,Université de Cocody Pole Scientifique,5.360215,0,-3.9020951,
node/6930917965,Cité Hévéas,5.3643261,0,-3.9084667,
node/6930917966,Cité Marina,5.368265,0,-3.9097783,
node/6930917967,Arrêt,5.3714883,0,-3.9108391,
node/6930917968,Jules Verne,5.3740098,0,-3.9233838,
node/6930917969,Coris Bank,5.3716378,0,-3.9324215,
node/6930917970,Arrêt,5.3701704,0,-3.9379911,
node/6930917971,Camp Militaire d'Akouédo,5.3671088,0,-3.9456984,
node/6930917972,Arrêt,5.3640882,0,-3.9528454,
node/6930917973,Après barrage,5.3617224,0,-3.9579964,
node/6931151021,Arrêt,5.2993777,0,-3.94723,
node/6931151022,Sogefia,5.2975523,0,-3.9523798,
node/6931151023,Arrêt,5.2958991,0,-3.9571428,
node/6931151024,Pharmacie Saint François,5.2952895,0,-3.9596352,
node/6931151025,Grande Pharmacie Iroko,5.2941237,0,-3.9646348,
node/6931151026,Arrêt,5.2929966,0,-3.9695299,
node/6931151027,Pharmacie Du Boulevard Du Gabon,5.2924858,0,-3.971683,
node/6931151028,Polyclinique La Madone,5.2940696,0,-3.9757097,
node/6931151029,Arrêt,5.2965781,0,-3.9801776,
node/6931151030,Arrêt,5.298031,0,-3.9828604,
node/6931151031,Gare Nord,5.3590066,0,-4.027668,
node/6931273195,Koumassi Sicogi - Dépôt SOTRA,5.2873212,0,-3.9540428,
node/6931273196,[Arret sans nom],5.2849829,0,-3.964256,
node/6931273197,[Arret sans nom],5.2875055,0,-3.9651793,
node/6931273198,Arrêt,5.2873493,0,-3.9684516,
node/6931273199,[Arret sans nom],5.2883388,0,-3.9694119,
node/6931273200,Sicomex,5.293018,0,-3.9762314,
node/6931273203,Gare Sud,5.3148159,0,-4.0184375,
node/6931792543,Pharmacie du Rond-point,5.3074119,0,-4.0117713,
node/6931792544,[Arret sans nom],5.3090558,0,-4.0071049,
node/6931792545,Centre Commercial Koumassi,5.2889971,0,-3.9672808,
node/6931792546,Arrêt,5.2839293,0,-3.9622262,
node/6931792547,Pharmacie Bethanie,5.2847439,0,-3.9586401,
node/6931792548,Arrêt,5.2857761,0,-3.9543311,
node/6931792550,Koumassi Sicogi - Dépôt SOTRA,5.2884523,0,-3.9538698,
node/6931985671,Grand Carrefour de Koumassi,5.2870688,0,-3.970533,
node/6931985672,Ivosep Treichville,5.2985627,0,-4.001299,
node/6932152400,Arrêt,5.3266769,0,-4.060057,
node/6932152402,Ghandi,5.3250076,0,-4.0598402,
node/6932152404,Ghandi,5.3253408,0,-4.0599193,
node/6932152405,Arrêt,5.3600658,0,-4.0669167,
node/6932152407,Gare Sud,5.314853,0,-4.0182858,
node/6932239010,CIAD,5.3286224,0,-3.9502595,
node/6932239011,Arrêt,5.3291271,0,-3.951901,
node/6932239012,Arrêt,5.338314,0,-3.9522216,
node/6932239013,Carrefour Mel Theodore,5.3443655,0,-3.9526011,
node/6932239014,Pharmacie Riviera III,5.348653,0,-3.9535043,
node/6932239015,Collège l'Ardoise,5.3509724,0,-3.9545015,
node/6932239016,Arrêt,5.3550168,0,-3.9606719,
node/6932239017,Arrêt,5.3569209,0,-3.9637336,
node/6932239019,Gare Sud,5.3149333,0,-4.0185761,
node/6932253478,Angré Château,5.4127978,0,-3.9808642,
node/6932253479,Arrêt,5.4102497,0,-3.984559,
node/6932253480,Arrêt,5.3866094,0,-3.9930569,
node/6932253481,Arrêt,5.4076842,0,-3.9885655,
node/6932253483,Angré Château,5.4128518,0,-3.9809279,
node/6932323632,Arrêt,5.3569409,0,-3.9635029,
node/6932323633,Collège Ardoise,5.3517214,0,-3.9543647,
node/6932323634,Pharmacie Riviera III,5.3485048,0,-3.9531872,
node/6932323635,Carrefour Mel Theodore,5.3446873,0,-3.9524998,
node/6932323636,École libanaise Al Ghadir,5.3284521,0,-3.9448656,
node/6933043352,Terminus Yopougon Camp Militaire,5.3228845,0,-4.0617429,
node/6933043354,Ghandi,5.3245991,0,-4.0599163,
node/6933043355,Arrêt,5.3278586,0,-4.0607049,
node/6933043356,Arrêt,5.3300685,0,-4.0581514,
node/6933043357,[Arret sans nom],5.3314439,0,-4.0559573,
node/6933043359,Gare Sud,5.3145591,0,-4.018425,
node/6933080250,Arrêt,5.3283246,0,-3.9428298,
node/6933080251,École libanaise Al Ghadir,5.3282992,0,-3.9447637,
node/6933080252,Arrêt,5.3283286,0,-3.9460498,
node/6933080253,Pharmacie M'pouto,5.328364,0,-3.9479502,
node/6933080254,Beverly,5.3380122,0,-3.9527768,
node/6933080255,Carrefour Sol Béni,5.3311481,0,-3.9578046,
node/6933080256,Arrêt,5.329493,0,-3.980421,
node/6933080257,SIB,5.3353723,0,-3.9996752,
node/6933080258,Mosquée Cité Eden,5.3284154,0,-3.9401878,
node/6933080260,Mosquée Cité Eden,5.3283646,0,-3.9401855,
node/6933080262,Arrêt,5.3461454,0,-4.0026096,
node/6933080263,Mosquée Golf,5.3391939,0,-3.9789297,
node/6933080264,Arrêt,5.3325809,0,-3.9812806,
node/6933080265,Arrêt,5.3297881,0,-3.9790913,
node/6933080266,Beverly,5.3380134,0,-3.9529652,
node/6933128807,[Arret sans nom],5.3312516,0,-4.0560298,
node/6933128808,Arrêt,5.3299817,0,-4.0580978,
node/6933128810,Terminus Yopougon Camp Militaire,5.3222556,0,-4.0623571,
node/6933231056,Station Total,5.3017767,0,-4.0094478,
node/6933231057,Pharmacie de l'Avenue 27,5.3029158,0,-4.0061849,
node/6933291484,Gare Nord,5.3589712,0,-4.0272913,
node/6933302185,Gare Nord,5.3591995,0,-4.0277539,
node/6934648710,Arrêt,5.4266332,0,-4.0210558,
node/6934648711,Arrêt,5.4438112,0,-4.0538116,
node/6934648712,Arrêt,5.4435976,0,-4.0603428,
node/6934648713,Arrêt,5.4434975,0,-4.0647738,
node/6934648714,Arrêt,5.4433733,0,-4.0679455,
node/6934648715,Arrêt,5.442806,0,-4.0693985,
node/6934648716,Arrêt,5.4392747,0,-4.0686147,
node/6934648717,Arrêt,5.4321434,0,-4.068663,
node/6934648718,Arrêt,5.428223,0,-4.0699659,
node/6934648719,Arrêt,5.413004,0,-4.0783779,
node/6934648720,Arrêt,5.4036687,0,-4.0834808,
node/6934648721,Arrêt,5.4009224,0,-4.0842761,
node/6934648722,Arrêt,5.3935763,0,-4.0810159,
node/6934648723,Arrêt,5.3892384,0,-4.078453,
node/6934648724,Arrêt,5.3836466,0,-4.0757427,
node/6934648725,Arrêt,5.3747704,0,-4.0773951,
node/6934648726,Arrêt,5.3762544,0,-4.0820444,
node/6934648728,Arrêt,5.3838941,0,-4.0759718,
node/6934648729,Arrêt,5.389032,0,-4.0784458,
node/6934648730,Arrêt,5.3928929,0,-4.0806236,
node/6934648731,Arrêt,5.4014804,0,-4.0842976,
node/6934648732,Arrêt,5.4130749,0,-4.0784144,
node/6934648733,Arrêt,5.4279813,0,-4.070195,
node/6934648734,Arrêt,5.4326393,0,-4.0686617,
node/6934648735,Arrêt,5.4427909,0,-4.069498,
node/6934648736,Arrêt,5.4435987,0,-4.0650186,
node/6934648737,Arrêt,5.4437261,0,-4.0602688,
node/6934648738,Arrêt,5.4438909,0,-4.0536714,
node/6934648739,Arrêt,5.4432611,0,-4.0481434,
node/6934648740,Arrêt,5.4392603,0,-4.0438735,
node/6934657650,220 logements,5.3480962,0,-4.0169741,
node/6934657651,Carrefour Akwaba,5.2690497,0,-3.9618933,
node/6934657652,Hôpital de Port-Bouët,5.2629137,0,-3.9633662,
node/6934657653,Nouveau Marché Port-Bouët,5.2574343,0,-3.9637684,
node/6934657654,Océan Espadon,5.2567198,0,-3.961553,
node/6934657655,Église Méthodiste Unie Port-Bouët,5.2542438,0,-3.9621216,
node/6934657656,Wharf Port-Bouët,5.2530566,0,-3.9607128,
node/6934657657,Terminus Port-Bouët Phare,5.2510654,0,-3.9560196,
node/6934749721,Arrêt,5.400118,0,-4.0201934,
node/6934798183,Centre Commercial du Dokui,5.3970398,0,-4.0027148,
node/6934798184,Sainte Monique,5.3997114,0,-4.0014133,
node/6934815685,Superette Akwaba,5.3994163,0,-3.9960703,
node/6934815686,22ème,5.3979557,0,-3.9916306,
node/6934815687,Superette Akwaba,5.3992227,0,-3.9959845,
node/6934815688,Pharmacie Sainte Monique,5.3994417,0,-3.9972693,
node/6934815689,Station Petro Ivoire,5.3997942,0,-4.0008152,
node/6934815690,Sainte Monique,5.3994657,0,-4.0013301,
node/6934815692,Centre Commercial du Dokui,5.3970104,0,-4.0026122,
node/6934872150,Yopougon Kowëit,5.3221354,0,-4.0506908,
node/6934872151,Sideci Matignon,5.3218817,0,-4.0802555,
node/6934922723,Abobo Akeikoi Village,5.4604925,0,-4.0109827,
node/6934922724,Destin,5.4554315,0,-4.0111108,
node/6934922725,André Bar,5.4531085,0,-4.0126598,
node/6934922726,Arrêt,5.4493063,0,-4.0136415,
node/6934922727,Arrêt,5.4446991,0,-4.0143429,
node/6934922728,Arrêt,5.4400103,0,-4.0141618,
node/6934922731,Arrêt,5.4327535,0,-4.0137548,
node/6934922732,Arrêt,5.4336247,0,-4.0124023,
node/6934922733,Arrêt,5.4393221,0,-4.0143033,
node/6934922734,Arrêt,5.4445716,0,-4.0145279,
node/6934922735,Arrêt,5.4493357,0,-4.0137662,
node/6934922736,André Bar,5.4531566,0,-4.0127617,
node/6934922737,Destin,5.4554448,0,-4.0112489,
node/6934922738,Abobo Akeikoi Village,5.4604068,0,-4.0110518,
node/6934970640,Gare Abobo-Doumé,5.3102833,0,-4.0352396,
node/6935113685,Arrêt,5.4306528,0,-4.0240914,
node/6935113687,Cité Administrative,5.3314011,0,-4.0236072,
node/6935117220,Gare Nord,5.3591731,0,-4.0273828,
node/6935117222,Woodin,5.3610508,0,-3.9897309,
node/6935117223,[Arret sans nom],5.3653222,0,-3.9897537,
node/6935117224,NSIA Banque,5.3685842,0,-3.9898489,
node/6935117225,Leader Price,5.372732,0,-3.9904759,
node/6935117227,Carrefour Sainte Cécile - Terminus 35,5.3770534,0,-3.9926612,
node/6935251104,Carrefour Sainte Cécile - Terminus 35,5.3771843,0,-3.9926425,
node/6935251105,Sococé Vallon,5.3742722,0,-3.9904471,
node/6935251106,NSIA Banque,5.3686002,0,-3.9897873,
node/6935251107,[Arret sans nom],5.364963,0,-3.9897014,
node/6935251108,Woodin,5.3606736,0,-3.9896753,
node/6935251109,Versus Bank,5.3576192,0,-3.9907542,
node/6935251110,École de Police,5.3522302,0,-3.9912866,
node/6935251111,Mermoz,5.3387479,0,-3.99993,
node/6935251112,Gare Nord,5.3591581,0,-4.0278565,
node/6935274791,Groupe Scolaire Kouamé Konan,5.2627714,0,-3.9831166,
node/6935274792,Groupe Scolaire Petit Bassam,5.2569108,0,-3.9774759,
node/6935274793,Arrêt,5.2576259,0,-3.9696513,
node/6935274794,Marché,5.2585828,0,-3.965703,
node/6935274796,Pharmacie Océan,5.2568159,0,-3.9608596,
node/6935274797,Lycée Moderne de Port-Bouët,5.256199,0,-3.9581761,
node/6935274798,Carrefour Akwaba,5.2658583,0,-3.9610527,
node/6935274799,Digue de Koumassi,5.2758153,0,-3.9661886,
node/6935274800,CIE Bia Sud,5.2813533,0,-3.9692871,
node/6935274801,Arrêt,5.2900094,0,-3.962945,
node/6935274802,Arrêt,5.2907532,0,-3.9596587,
node/6935274803,Gare Koumassi,5.294113,0,-3.9555147,
node/6935274804,Pharmacie Regina,5.298266,0,-3.9498116,
node/6935274805,Pharmacie Regina,5.2982253,0,-3.9495504,
node/6935274806,Ajavon,5.2909815,0,-3.9582726,
node/6935274807,Foyer des Jeunes,5.2902818,0,-3.9612938,
node/6935274808,Centre Commercial Koumassi,5.2889304,0,-3.9668678,
node/6935274809,Carrefour Ancien Koumassi,5.2768282,0,-3.9667035,
node/6935274810,43ème Bima,5.2576733,0,-3.9577992,
node/6935274811,Lycée Moderne de Port-Bouët,5.2560567,0,-3.9579253,
node/6935274812,Nouveau Marché Port-Bouët,5.2574824,0,-3.9642432,
node/6935274813,District de Port-Bouet,5.2584759,0,-3.965754,
node/6935274814,Arrêt,5.2576319,0,-3.9693877,
node/6935274815,Arrêt,5.2572754,0,-3.9790309,
node/6935274816,Stade de la SIR,5.2569161,0,-3.9893487,
node/6935401276,Arrêt,5.3852315,0,-4.006142,
node/6935401277,Arrêt,5.3852595,0,-4.0060079,
node/6935401278,Arrêt,5.3984537,0,-4.0064532,
node/6935401279,Arrêt,5.4022949,0,-4.0064304,
node/6935401280,Arrêt,5.4087036,0,-4.0063405,
node/6935401281,Arrêt,5.4109493,0,-4.0062828,
node/6935401282,Arrêt,5.4143906,0,-4.0062493,
node/6935401283,Arrêt,5.420498,0,-4.0170009,
node/6935401284,Arrêt,5.4189547,0,-4.0141176,
node/6935407385,Arrêt,5.4179854,0,-4.0123071,
node/6935407386,Arrêt,5.4164927,0,-4.0094626,
node/6935488165,"Parc des Sports, Boulevard Valéry Giscard d'Estaing",5.2983706,0,-4.0041834,
node/6935488166,Carrefour Aéroport,5.2470403,0,-3.9445075,
node/6935488167,Arrêt,5.2446806,0,-3.9295542,
node/6935488168,Arrêt,5.2440381,0,-3.925598,
node/6935488169,Arrêt,5.2434545,0,-3.922044,
node/6935488170,Casier,5.2426599,0,-3.9170243,
node/6935488171,Arrêt,5.2417851,0,-3.9115848,
node/6935488172,Mosquée,5.2407648,0,-3.9051327,
node/6935494486,Arrêt,5.260825,0,-3.9593026,
node/6935494487,Avenue de la Côte d'Ivoire / Boulevard V.G.E.,5.2976825,0,-3.984569,
node/6935494488,Terminus Gonzagueville,5.2402774,0,-3.9005903,
node/6935494499,Mosquée,5.2405691,0,-3.9050053,
node/6935494500,Arrêt,5.2414058,0,-3.9104489,
node/6935494501,Arrêt,5.2422365,0,-3.9156765,
node/6935494502,Arrêt,5.243186,0,-3.9216458,
node/6935494503,Arrêt,5.2437256,0,-3.9251152,
node/6935494504,Arrêt,5.2444775,0,-3.9298091,
node/6935494505,Arrêt,5.2456701,0,-3.9372025,
node/6935494506,Arrêt,5.2467051,0,-3.94366,
node/6935494507,Arrêt,5.2492829,0,-3.9541537,
node/6935494508,43ème Bima,5.2573475,0,-3.9579213,
node/6935494509,Palais des Sports,5.299118,0,-4.0065188,
node/6935494511,Avenue Christiani,5.3101948,0,-4.0149692,
node/6937770645,Arrêt,5.3002327,0,-4.0082087,
node/6937770646,Arrêt,5.2618319,0,-3.9594314,
node/6937770647,33é Arrondissement,5.2467278,0,-3.9424717,
node/6937770648,Terminus Gonzagueville,5.2400864,0,-3.9007735,
node/6937770649,Corridor,5.2395482,0,-3.8973275,
node/6937770650,Carrefour Chien,5.2389973,0,-3.893671,
node/6937770652,Pharmacie Bénediction,5.2375957,0,-3.8845293,
node/6937770653,Terminus Anani,5.2369286,0,-3.8802069,
node/6937770654,Terminus Anani,5.2368898,0,-3.8798529,
node/6937770655,Anani - Rond-point,5.2369172,0,-3.8749894,
node/6937770656,Arrêt,5.2372444,0,-3.8833565,
node/6937770657,Collège privé les Cartésiens d'Abidjan,5.2380744,0,-3.888965,
node/6937770658,Carrefour Chien,5.2386868,0,-3.8928086,
node/6937770659,Corridor,5.2391862,0,-3.8962466,
node/6937770660,Terminus Gonzagueville,5.2399789,0,-3.9013763,
node/6937789671,Arrêt,5.256211,0,-3.9649889,
node/6938095648,Gare Abobo Sogephia,5.4354794,0,-4.01522,
node/6938222040,Arrêt,5.4251869,0,-4.0222809,
node/6938222041,Arrêt,5.4191963,0,-4.0239143,
node/6938222042,Arrêt,5.4148659,0,-4.0240283,
node/6938222043,Arrêt,5.4147991,0,-4.0292727,
node/6938324861,Ebimpé Village,5.5005578,0,-4.0807772,
node/6938324862,Arrêt,5.5031942,0,-4.0807946,
node/6938324863,Arrêt,5.5033771,0,-4.0801696,
node/6938324864,Arrêt,5.5031182,0,-4.0769751,
node/6938324865,Arrêt,5.5007033,0,-4.0770207,
node/6938324866,Arrêt,5.5002134,0,-4.0762322,
node/6938324867,Arrêt,5.5002334,0,-4.07344,
node/6938324868,Arrêt,5.5000185,0,-4.0699397,
node/6938324869,Arrêt,5.4982283,0,-4.066591,
node/6938324870,Arrêt,5.4912933,0,-4.0678543,
node/6938324871,Arrêt,5.4869787,0,-4.0690076,
node/6938324872,Arrêt,5.4842033,0,-4.0697157,
node/6938324873,Arrêt,5.4791892,0,-4.0709844,
node/6938324874,Arrêt,5.4769371,0,-4.0715718,
node/6938324875,Arrêt,5.4724328,0,-4.072693,
node/6938324876,Arrêt,5.4679499,0,-4.0737471,
node/6938324877,Arrêt,5.4644949,0,-4.0739322,
node/6938324878,Arrêt,5.4606874,0,-4.0733501,
node/6938324879,Arrêt,5.4565342,0,-4.0724757,
node/6938324880,Arrêt,5.4517454,0,-4.0713693,
node/6938324881,Arrêt,5.4485133,0,-4.0706693,
node/6938324882,Arrêt,5.4441757,0,-4.0696567,
node/6938324883,Arrêt,5.4435135,0,-4.0681963,
node/6938324884,Arrêt,5.443862,0,-4.056062,
node/6938343085,Agripac,5.4440736,0,-4.0494295,
node/6938407500,Hotel Communal Port-Bouët;Pharmacie Baltique,5.2608437,0,-3.9639542,
node/6938407501,Hôpital Géneral de Port-Bouët,5.2629757,0,-3.9635653,
node/6938407503,Arrêt,5.293872,0,-3.9564407,
node/6938407504,Collège privé les Cartésiens d'Abidjan,5.2382227,0,-3.8886204,
node/6938756997,Farandole,5.3640511,0,-3.9975952,
node/6938792077,Arrêt,5.4036801,0,-3.9845087,
node/6938792078,Arrêt,5.3829263,0,-3.993252,
node/6938792079,Gare Sud,5.3147389,0,-4.0186301,
node/6939014886,Arrêt,5.3010837,0,-3.9887345,
node/6939014887,Pharmacie Sainte Aghate,5.3023803,0,-3.9663789,
node/6939014888,Terminus Remblais 03,5.3029659,0,-3.9640502,
node/6939014890,Terminus Remblais 03,5.302855,0,-3.9638825,
node/6939014891,Arrêt,5.3018088,0,-3.9684999,
node/6939014892,Arrêt,5.2984764,0,-3.9714879,
node/6939014894,Arrêt,5.3022895,0,-3.9848064,
node/6939014895,Gare Nord,5.359076,0,-4.0274686,
node/6939076692,Terminus dépôt SOTRA,5.2875728,0,-4.0059154,
node/6944816371,Sideci Pharmacie Lem,5.3314425,0,-4.0768933,
node/6944816372,Sideci Lem,5.3305385,0,-4.0798317,
node/6944816373,[Arret sans nom],5.3270574,0,-4.0813807,
node/6944816374,Akadjoba,5.3246445,0,-4.0806283,
node/6944887181,Cité Administrative,5.3310827,0,-4.0237293,
node/6944887182,Arrêt,5.4253525,0,-4.0220542,
node/6944887183,Arrêt,5.4193151,0,-4.0240122,
node/6944887184,Arrêt,5.4150828,0,-4.0241008,
node/6944920985,Arrêt,5.4148679,0,-4.0292533,
node/6944920986,Terminus bus 51/52,5.4148038,0,-4.0334697,
node/6944934858,Arrêt,5.3274379,0,-4.0817052,
node/6944934859,Sideci Lem - Carrefour Sgbci,5.330154,0,-4.080812,
node/6944934860,Sideci Pharmacie Lem,5.3314305,0,-4.0773064,
node/6945017053,École de Police,5.3521541,0,-3.99141,
node/6945017054,Arrêt,5.3569943,0,-3.9914516,
node/6945458783,Siège SOTRA,5.2865574,0,-4.0082677,
node/6945659474,Station Oilibya,5.2569502,0,-3.9722067,
node/6945659475,Arrêt,5.2566851,0,-3.9647529,
node/6945659476,Pharmacie Atlantique,5.2546846,0,-3.9643009,
node/6945659477,Port-Bouët Phare,5.2511255,0,-3.9565238,
node/6945864857,Vridi canal - Terminus 23,5.2531341,0,-4.0047848,
node/6945864858,Vridi canal - Terminus 23,5.2531701,0,-4.0046923,
node/6945864859,[Arret sans nom],5.2657115,0,-4.0087358,
node/6945864860,Arrêt du CHU,5.2957541,0,-4.0033337,
node/6945966271,Ciprel,5.260642,0,-4.0134249,
node/6945966272,[Arret sans nom],5.2649101,0,-4.0138507,
node/6945966273,[Arret sans nom],5.265254,0,-4.011446,
node/6945966274,[Arret sans nom],5.2660346,0,-4.0086137,
node/6945966275,[Arret sans nom],5.2688363,0,-4.0060763,
node/6948222228,Arrêt,5.3539352,0,-3.9581171,
node/6948222230,Arrêt,5.3417576,0,-3.9522725,
node/6948222231,Arrêt,5.3392567,0,-3.9521505,
node/6948222232,Arrêt,5.3384929,0,-3.952243,
node/6948222233,Carrefour Ambassade de Chine,5.334941,0,-3.943904,
node/6948222234,Antenne,5.3392333,0,-3.9452136,
node/6948222235,Akwaba,5.3385917,0,-3.9428439,
node/6948222236,Pharmacie,5.3355172,0,-3.9393644,
node/6948222237,Arrêt,5.3328633,0,-3.9368539,
node/6948222238,Centre de santé Municipal de M'Badon,5.3307248,0,-3.9348771,
node/6948222239,Teminus M'Badon,5.3286344,0,-3.9323347,
node/6948270620,Teminus M'Badon,5.3285142,0,-3.9322612,
node/6948270621,Centre de santé Municipal de M'Badon,5.3305385,0,-3.9347577,
node/6948270622,Pharmacie,5.3357956,0,-3.9397017,
node/6948270623,Arrêt,5.339027,0,-3.9451191,
node/6948270624,Ambassade de Chine,5.3329114,0,-3.9418454,
node/6948270625,Arrêt,5.3538285,0,-3.9568537,
node/6948290580,Arrêt,5.3327177,0,-3.9368337,
node/6948290581,Bureau Bad,5.3385823,0,-3.9429814,
node/6948290582,[Arret sans nom],5.3350024,0,-3.9438068,
node/6948466331,Arrêt,5.353946,0,-3.9767852,
node/6948466332,Arrêt,5.3560356,0,-3.9695473,
node/6948466333,Arrêt,5.3732347,0,-3.9273548,
node/6948466334,Arrêt,5.3744488,0,-3.9221262,
node/6948466335,Kessé,5.3738883,0,-3.9116914,
node/6948466336,Syndicat,5.3664705,0,-3.9090387,
node/6948466337,Station TEXACO,5.3613312,0,-3.8946091,
node/6948466338,La Poste,5.357652,0,-3.8895766,
node/6948466339,Pharmacie du Marché,5.357433,0,-3.8879555,
node/6948466341,Sous-Prefecture de Bingerville,5.3576379,0,-3.8903531,
node/6948466343,Nouveau Goudron,5.372677,0,-3.9285967,
node/6948466345,Pharmacie les 7 Colonnes,5.3455151,0,-4.0026914,
node/6948695731,Arrêt,5.3346312,0,-3.9906777,
node/6948695732,Arrêt,5.3396564,0,-3.9758237,
node/6948695733,Arrêt,5.3414919,0,-3.9761442,
node/6948695734,Arrêt,5.3438403,0,-3.9751571,
node/6948695735,Arrêt,5.3470921,0,-3.975412,
node/6948695736,Arrêt,5.3520693,0,-3.9767209,
node/6948695738,Arrêt,5.3530066,0,-3.9760919,
node/6948695739,Arrêt,5.35209,0,-3.9766203,
node/6948695740,Arrêt,5.3468223,0,-3.9752188,
node/6948695741,Arrêt,5.343802,0,-3.9750874,
node/6948695742,Arrêt,5.3416148,0,-3.9760651,
node/6948695743,Arrêt,5.3397193,0,-3.9757586,
node/6948695744,Arrêt,5.3385022,0,-3.9754911,
node/6948695745,Arrêt,5.3344937,0,-3.9902714,
node/6948695746,Arrêt,5.3349056,0,-3.9957176,
node/6948706680,Warafa Assurance,5.321664,0,-4.0157926,
node/6948706681,Arrêt Résidence Nabil,5.3184017,0,-4.0152582,
node/6948706682,[Arret sans nom],5.3044274,0,-4.0092923,
node/6948791226,Terminus CHU Treichville,5.2949249,0,-4.0042001,
node/6948855820,Arrêt,5.3565604,0,-3.9679608,
node/6948855821,Arrêt,5.3599399,0,-3.9614752,
node/6948855822,Cité Millenium,5.3717967,0,-3.9289306,
node/6948855823,Arrêt,5.3584311,0,-3.9253854,
node/6948855824,Arrêt,5.3556661,0,-3.9247158,
node/6948855825,Arrêt,5.3532496,0,-3.924163,
node/6948855826,Collège Jeune Filles,5.3498507,0,-3.9233825,
node/6948855827,Oribat Cité Don Mello,5.3397928,0,-3.9225573,
node/6948855828,Arrêt,5.3329467,0,-3.9226348,
node/6948855829,Arrêt,5.3282217,0,-3.9191627,
node/6948855830,Paroisse,5.3283086,0,-3.9169304,
node/6948855831,EPP Abatta,5.3267112,0,-3.9161199,
node/6948920956,Arrêt,5.3342136,0,-3.923136,
node/6948920957,Arrêt,5.3262131,0,-3.9158679,
node/6948920958,EPP Abatta,5.3267028,0,-3.9161935,
node/6948920959,Paroisse,5.3282218,0,-3.9169358,
node/6948920960,Arrêt,5.3329487,0,-3.9227374,
node/6948920961,Arrêt,5.3417243,0,-3.9220896,
node/6948920962,Arrêt,5.3443775,0,-3.9222706,
node/6948920963,Arrêt,5.3471041,0,-3.9228521,
node/6948920964,Arrêt,5.3532917,0,-3.9242797,
node/6948920965,Arrêt,5.3583733,0,-3.9254397,
node/6948920966,Sodeci Abatta,5.359984,0,-3.9258534,
node/6948920967,Nouveau Goudron,5.3722754,0,-3.9301027,
node/6951127812,Arrêt,5.2579604,0,-3.968976,
node/6951127813,Mairie Port-Bouët,5.2597086,0,-3.9654422,
node/6951127815,[Arret sans nom],5.2595919,0,-3.9687383,
node/6951127816,Gare Sud,5.3145654,0,-4.0181731,
node/6951182059,Arrêt,5.3373639,0,-3.9533649,
node/6951182060,Arrêt,5.3344449,0,-3.9559445,
node/6951182061,Arrêt,5.3308416,0,-3.9570247,
node/6951182062,Arrêt,5.3295658,0,-3.9531144,
node/6951182064,Arrêt,5.3296352,0,-3.9535137,
node/6951182065,Arrêt,5.330835,0,-3.9572031,
node/6951182066,Arrêt,5.3414479,0,-3.952412,
node/6951224049,Arrêt,5.2921887,0,-3.9630926,
node/6951224050,Commissariat de Police du 6ᵉ,5.2898815,0,-3.9694045,
node/6951224051,Gare Nord,5.3586694,0,-4.0276527,
node/6951939383,Gare Koumassi,5.2941431,0,-3.9554248,
node/6951939384,Gare Nord,5.3587923,0,-4.0273499,
node/6952071069,Terminus 31 Remblais,5.3024324,0,-3.9635003,
node/6952071070,Trois Ampoules,5.2975569,0,-3.9623322,
node/6952132224,"BIAO, Treichville",5.2988296,0,-4.0109539,
node/6952132225,"Pizza, Marcory",5.2884669,0,-3.9883861,
node/6952132226,"Bernabé Parc à Fer, Boulevard de Marseille",5.2853422,0,-3.9855024,
node/6952132227,[Arret sans nom],5.2786718,0,-3.9824903,
node/6952132228,Église Notre-Dame d'Afrique,5.2734369,0,-3.9767262,
node/6952132229,Sept Villas,5.2734089,0,-3.9714865,
node/6952132230,Arrêt,5.276028,0,-3.9672503,
node/6952132232,Arrêt,5.2486135,0,-3.9434065,
node/6952132233,EPP Aéroport,5.2544081,0,-3.9386439,
node/6952132234,Aéroport,5.2536201,0,-3.934246,
node/6952132235,Carrefour Aéroport,5.2469401,0,-3.9450909,
node/6952132240,Cité ASECNA,5.2544028,0,-3.9409603,
node/6952132241,Arrêt,5.2508117,0,-3.9424355,
node/6952132242,Arrêt,5.2480679,0,-3.9435728,
node/6952132243,Maquis 5 sur 5,5.247278,0,-3.947171,
node/6952132244,Pharmacie Océan,5.2567618,0,-3.9610943,
node/6952132245,Abattoir Port-Bouët,5.266498,0,-3.9627318,
node/6952132246,Arrêt,5.2726637,0,-3.9751598,
node/6952132247,Arrêt,5.28785,0,-3.9878453,
node/6952132248,Arrêt,5.2895893,0,-3.9917104,
node/6952132250,Arrêt,5.2912033,0,-3.9954532,
node/6952132251,"BIAO, Treichville",5.2984459,0,-4.0104501,
node/6952132252,Gare Sud,5.3144382,0,-4.0182926,
node/6952200468,Arrêt,5.3091986,0,-3.9495367,
node/6952200469,Centre Médico-social,5.3097742,0,-3.9481486,
node/6952200470,Hôpital Général de Marcory,5.3012025,0,-3.9837456,
node/6952200471,Arrêt,5.3034286,0,-3.986865,
node/6952200472,Arrêt,5.3042605,0,-4.0094613,
node/6952200475,Arrêt,5.3052353,0,-4.007007,
node/6952200476,Arrêt,5.3028209,0,-3.9855795,
node/6952200477,Akromiambla-Terminus 32 Koumassi,5.3118954,0,-3.952005,
node/6952244517,Arrêt,5.441531,0,-4.0471624,
node/6952566208,Arrêt,5.4436978,0,-4.0559909,
node/6952566209,Arrêt,5.4448793,0,-4.0699545,
node/6952566210,Arrêt,5.4490874,0,-4.0708852,
node/6952566211,Arrêt,5.4522514,0,-4.0716147,
node/6952566212,Arrêt,5.4532246,0,-4.0718146,
node/6952566213,Arrêt,5.4567491,0,-4.0726206,
node/6952566214,Arrêt,5.4606701,0,-4.0734789,
node/6952566215,Arrêt,5.4636378,0,-4.0739724,
node/6952566216,Arrêt,5.4644695,0,-4.074022,
node/6952566217,Arrêt,5.4679793,0,-4.0738437,
node/6952566218,Arrêt,5.4724295,0,-4.0727828,
node/6952566219,Arrêt,5.4769985,0,-4.0716872,
node/6952566220,Arrêt,5.4793881,0,-4.0710461,
node/6952566221,Arrêt,5.4821955,0,-4.0703045,
node/6952566222,Arrêt,5.4839777,0,-4.0699115,
node/6952566223,Arrêt,5.486354,0,-4.0692893,
node/6952566224,Arrêt,5.4911611,0,-4.0680795,
node/6952566225,Arrêt,5.4982644,0,-4.0667948,
node/6952566226,Arrêt,5.5001119,0,-4.0740864,
node/6952566227,Arrêt,5.5000518,0,-4.0767123,
node/6954138437,Petit Café,5.2862329,0,-3.9734097,
node/6954138438,Arrêt,5.2807083,0,-3.9775054,
node/6954138439,Arrêt,5.2823321,0,-3.9804116,
node/6954138440,Arrêt,5.300639,0,-4.0126625,
node/6954138442,Agence Nationale de la Formation Professionnelle (AGEFOP),5.28394,0,-3.9828832,
node/6954138443,Arrêt,5.2809293,0,-3.9776556,
node/6954138444,UTTb Université Loko,5.2870755,0,-3.973057,
node/6954138445,Marché DjeKonan,5.2892455,0,-3.9693475,
node/6954138446,Arrêt,5.3133129,0,-3.9518099,
node/6954511639,CIE Koumassi,5.2834138,0,-3.9679319,
node/6954511640,Hôpital de Koumassi,5.286559,0,-3.9686649,
node/6954926526,[Arret sans nom],5.3583583,0,-4.0989914,
node/6954926527,[Arret sans nom],5.3615502,0,-4.1000086,
node/6954926528,[Arret sans nom],5.3641759,0,-4.0967993,
node/6955038705,Koumassi Soweto - Dépôt 5,5.2859504,0,-3.9531577,
node/6955038706,Pharmacie Bethanie,5.2847586,0,-3.9582532,
node/6955038707,Sation Lavage,5.2840528,0,-3.9611265,
node/6955038708,CIE Koumassi,5.2836422,0,-3.9680882,
node/6955038709,Hôpital de Koumassi,5.2870421,0,-3.9688808,
node/6955038710,Pharmacie Massarana,5.2996014,0,-3.984628,
node/6955038711,Gare Nord,5.3587075,0,-4.0275521,
node/6955514933,Cité Administrative,5.3331711,0,-4.0217512,
node/6955514934,Arrêt Pharmacie Palmeraie,5.3635931,0,-3.9597532,
node/6955514935,Arrêt,5.3710263,0,-3.9580205,
node/6955514936,Arrêt,5.3720811,0,-3.9587393,
node/6955514937,Cocody SCI Les Rosiers,5.3808935,0,-3.964382,
node/6955514938,Arrêt,5.3727874,0,-3.9598592,
node/6955514939,Arrêt,5.3685488,0,-3.9592516,
node/6955514940,Gare Sud,5.3149553,0,-4.0184346,
node/6958966895,Aéroport,5.253474,0,-3.9341971,
node/6961370878,Arrêt,5.2774525,0,-3.981805,
node/6961370879,Pharmacie de Bietry,5.2744205,0,-3.9788787,
node/6961370880,Arrêt Dr08,5.2516684,0,-3.9421921,
node/6961370881,Cité ASECNA,5.2543801,0,-3.9410589,
node/6961643500,Arrêt,5.3618139,0,-4.0725361,
node/6961643501,[Arret sans nom],5.373881,0,-4.0923724,
node/6961643502,[Arret sans nom],5.3718154,0,-4.0945986,
node/6963093974,Amondji,5.3396466,0,-4.0858988,
node/6963093975,Arrêt,5.3395998,0,-4.0810166,
node/6963093976,Pont Vagabond,5.3382505,0,-4.0792436,
node/6963093977,Arrêt,5.3403236,0,-4.0747274,
node/6963093979,Gare Sud,5.3147296,0,-4.0181436,
node/6963093981,Saint André lavage,5.3415106,0,-4.0732643,
node/6963093982,Amondji,5.3395197,0,-4.0859069,
node/6964184463,Aghien 2 plateaux,5.3883091,0,-3.9928235,
node/6964184464,[Arret sans nom],5.3359625,0,-4.0044791,
node/6964184466,Aghien 2 plateaux,5.3885302,0,-3.9923066,
node/6964184467,Carrefour la Vie,5.3502206,0,-4.0021368,
node/6964502135,Arrêt Pharmacie Palmeraie,5.3635871,0,-3.9596674,
node/6966758103,BAE,5.3609547,0,-4.0846449,
node/6966758104,Arrêt,5.3551851,0,-4.0882243,
node/6966758105,Carrefour Antenne Ananeraie,5.3549701,0,-4.0957546,
node/6966758106,Oasis,5.354878,0,-4.0988526,
node/6966758107,Sorbonne,5.3502259,0,-4.0993729,
node/6966758108,Arrêt,5.3462622,0,-4.0997625,
node/6966758109,Arrêt,5.333344,0,-4.1031267,
node/6966758111,Arrêt,5.3292232,0,-4.1044571,
node/6966758112,Arrêt,5.3441658,0,-4.1004723,
node/6966758113,Arrêt,5.3460138,0,-4.0999784,
node/6966758114,Sorbonne,5.3500978,0,-4.0994869,
node/6966758115,Arrêt,5.3529605,0,-4.0994742,
node/6966758116,Oasis,5.3549421,0,-4.0992308,
node/6966758117,Arrêt,5.3551971,0,-4.0918869,
node/6966849451,Arrêt,5.3233545,0,-4.016671,
node/6966849452,Arrêt,5.4486134,0,-4.0138976,
node/6966927285,Hotel Communal Port-Bouët,5.2613392,0,-3.9637296,
node/6966927286,Wharf Port-Bouët,5.2528723,0,-3.9605525,
node/6966927287,Arrêt,5.3027916,0,-4.0132633,
node/6966942817,Arrêt,5.4469386,0,-4.0140968,
node/6966942818,Arrêt,5.4381706,0,-4.0166429,
node/6966942819,Arrêt,5.4141149,0,-4.0159589,
node/6966942820,Arrêt,5.4069719,0,-4.0164229,
node/6967070473,Arrêt,5.2655592,0,-4.0007964,
node/6967070474,Arrêt,5.2772629,0,-4.0085238,
node/6967070475,Arrêt,5.279469,0,-4.0085185,
node/6967070476,Arrêt,5.3959876,0,-4.0210712,
node/6967070477,Arrêt,5.4118438,0,-4.016604,
node/6967070478,Arrêt,5.4197437,0,-4.0178807,
node/6967070479,Arrêt,5.4227157,0,-4.0187565,
node/6967070480,Arrêt,5.4356834,0,-4.0289891,
node/6967070481,Arrêt,5.4364023,0,-4.0302558,
node/6967070482,Arrêt,5.4370672,0,-4.0319341,
node/6967070483,Arrêt,5.4373075,0,-4.0332256,
node/6967070484,Arrêt,5.4377581,0,-4.0362847,
node/6967074785,Arrêt,5.4381539,0,-4.0391982,
node/6967074787,PK 18 Agripac,5.4435976,0,-4.0485819,
node/6967158577,Arrêt,5.4255661,0,-4.0197301,
node/6967158578,Arrêt,5.4195782,0,-4.017465,
node/6967158579,Arrêt,5.3053862,0,-4.0226068,
node/6967158580,Pharmacie du Port,5.2891307,0,-4.0082905,
node/6968911549,Abobo Gendarmerie,5.4269192,0,-4.0212006,
node/6968911550,Arrêt,5.4289586,0,-4.0229219,
node/6968911551,Arrêt,5.4078444,0,-4.0812264,
node/6968911556,CHU de Yopougon,5.3570551,0,-4.0851445,
node/6968911557,Arrêt,5.3698106,0,-4.080236,
node/6968911558,Arrêt,5.3746728,0,-4.0777087,
node/6968911559,Arrêt,5.4392253,0,-4.0687166,
node/6969221528,Arrêt,5.3423532,0,-4.0793476,
node/6969221530,Gare Sud,5.3141434,0,-4.0177429,
node/6969371620,Feh Kessé,5.3743039,0,-3.9117702,
node/6969583471,Clinique Providence,5.3472803,0,-4.0097992,
node/6969583472,Supermarché Casino,5.3451973,0,-4.0106696,
node/6969583474,Gare Sud,5.3147951,0,-4.0185824,
node/6969583476,Gare Sud,5.3154387,0,-4.01752,
node/6969583477,Novotel,5.3161731,0,-4.0166201,
node/6969583478,[Arret sans nom],5.3172748,0,-4.0151837,
node/6969583479,Arrêt,5.3202726,0,-4.015578,
node/6969583480,Arrêt,5.3209056,0,-4.0192916,
node/6969583481,Arrêt,5.3217388,0,-4.0207359,
node/6969583482,Hôtel de Ville,5.3233639,0,-4.0207185,
node/6969583483,Arrêt,5.3257514,0,-4.0207171,
node/6969583484,Arrêt,5.3278011,0,-4.0207332,
node/6969620785,Cité Administrative,5.3335937,0,-4.0217525,
node/6970095632,Termunis 81/82,5.4031227,0,-3.985249,
node/6970095633,Arrêt,5.3971746,0,-3.9859892,
node/6970095634,Pharmacie Les 7 Lys,5.3841166,0,-3.9875704,
node/6970095635,Arrêt,5.3643008,0,-3.979157,
node/6970095637,Riviera 2,5.3542958,0,-3.977256,
node/6970095638,Arrêt,5.3623286,0,-3.978931,
node/6970095639,DGI,5.3924174,0,-3.9866585,
node/6970095641,Termunis 81/82,5.4031427,0,-3.9853522,
node/6970366278,Arrêt,5.3554107,0,-3.9506122,
node/6970366281,Arrêt,5.3552038,0,-3.950804,
node/6970366282,Arrêt,5.3652007,0,-3.9482653,
node/6970366283,Arrêt,5.3643008,0,-3.9522095,
node/6979256984,Arrêt,5.403546,0,-4.0181825,
node/6979431044,Arrêt,5.4038146,0,-3.9848581,
node/6979431045,Arrêt,5.39671,0,-3.977142,
node/6979431046,Arrêt,5.3902524,0,-3.9754421,
node/6979431047,Arrêt,5.387788,0,-3.9747639,
node/6979431048,Arrêt,5.3839137,0,-3.9737651,
node/6979431049,Arrêt,5.3828575,0,-3.9734902,
node/6979431051,Arrêt,5.3749859,0,-3.9627425,
node/6979431052,Arrêt,5.4036825,0,-3.984727,
node/6979712503,Arrêt,5.3281463,0,-3.9195342,
node/6979712504,Arrêt,5.3318471,0,-3.9224169,
node/6979712505,Arrêt,5.3394623,0,-3.9227159,
node/6979712506,Arrêt,5.3479974,0,-3.923066,
node/6979712507,Arrêt,5.3497346,0,-3.9234415,
node/6979712508,Arrêt,5.3546363,0,-3.924564,
node/6979712509,Arrêt,5.3579717,0,-3.9253713,
node/6979712510,Arrêt,5.3614206,0,-3.9263014,
node/6979712512,Arrêt,5.3635464,0,-3.9268023,
node/6979712513,Arrêt,5.3687351,0,-3.928193,
node/6979712514,Arrêt,5.3703787,0,-3.9379911,
node/6979712515,Arrêt,5.3679286,0,-3.9279167,
node/6979712516,Arrêt,5.3470093,0,-3.9227716,
node/6979712517,Arrêt,5.3449917,0,-3.9223344,
node/6979712518,Arrêt,5.3428352,0,-3.9218402,
node/6979712519,Arrêt,5.3413324,0,-3.9221104,
node/6980029236,Arrêt,5.2452454,0,-3.9344399,
node/6980029237,Arrêt,5.2569228,0,-3.9723435,
node/6980029238,Bank Of Africa,5.2684644,0,-4.0062828,
node/6980029239,Arrêt,5.2646043,0,-4.0139727,
node/6980029241,[Arret sans nom],5.2587043,0,-4.0112543,
node/6980029242,[Arret sans nom],5.2648347,0,-4.0138916,
node/6980029243,[Arret sans nom],5.2686721,0,-4.006083,
node/6980258130,Terminus Port-Bouët Phare,5.2509145,0,-3.9560491,
node/6980521688,Arrêt,5.3433974,0,-4.0032211,
node/6980521689,Arrêt,5.3628414,0,-3.9976139,
node/6980521690,Arrêt,5.399921,0,-4.0057075,
node/6980521691,Arrêt,5.4015232,0,-4.0065511,
node/6980521692,Arrêt,5.4034191,0,-4.0065081,
node/6980521695,Abobo Gendarmerie,5.4241696,0,-4.0192406,
node/6980521696,Arrêt,5.4185708,0,-4.0134712,
node/6980521697,Arrêt,5.4155561,0,-4.0074744,
node/6980521698,Arrêt,5.4135434,0,-4.0062694,
node/6980521699,Arrêt,5.4035807,0,-4.0064277,
node/6980521700,Arrêt,5.3998663,0,-3.9990999,
node/6980521701,Arrêt,5.3987194,0,-3.992904,
node/6980521702,Arrêt,5.387006,0,-3.9927913,
node/6980521703,Arrêt,5.3819122,0,-3.9934525,
node/7025968250,Arrêt,5.2578469,0,-3.9718473,
node/7025975082,Arrêt,5.2642798,0,-3.9994057,
node/7025975083,Arrêt,5.2682835,0,-4.003783,
node/7025992286,Arrêt,5.3292373,0,-4.10439,
node/7026069662,[Arret sans nom],5.2771214,0,-4.0083388,
node/7026279881,Arrêt,5.341978,0,-4.0149826,
node/7026364429,Arrêt,5.2855772,0,-3.9547831,
node/7026390486,[Arret sans nom],5.2850417,0,-3.9641359,
node/7028872830,Océan Espadon,5.2566557,0,-3.9616643,
node/7028872831,Gare Nord,5.3588917,0,-4.0278525,
node/7043603291,Cité étudiante Riviera 2,5.3534289,0,-3.9736383,
node/7043642288,Carrefour Antenne Ananeraie,5.3550743,0,-4.0957761,
node/7044975088,Gare Lagunaire Yopougon STL,5.3109066,0,-4.0344058,
node/7044975089,Gare Lagunaire Plateau STL,5.3143858,0,-4.0170439,
node/7044975090,Gare Lagunaire Treichville STL,5.3135839,0,-4.0100701,
node/7046900012,Gare Lagunaire Koumassi STL,5.315627,0,-3.952125,
node/7046900013,Gare Lagunaire M'pouto STL,5.3240676,0,-3.9603245,
node/7046964142,Gare Lagunaire de Treichville Sotra,5.3108107,0,-4.015859,
node/7046964143,Gare Lagunaire d’Abobo-Doumé Sotra,5.3107009,0,-4.0347196,
node/7047063325,Gare Lagunaire du Plateau Sotra,5.3140753,0,-4.0176728,
node/7047101136,Gare lagunaire de Blockauss Sotra,5.3212342,0,-4.0021442,
node/7047930662,Arrêt,5.3562773,0,-4.0016118,
node/7047930663,Arrêt,5.4096636,0,-3.9856634,
node/7048020780,Syndicat,5.3665112,0,-3.9091802,
node/7048020781,Kessé,5.3739184,0,-3.9119428,
node/7048020782,Camp Millitaire d'Akouédo,5.3676562,0,-3.9446417,
node/7048020783,Église Apostolique de Côte d'Ivoire,5.3652501,0,-3.9495032,
node/7049258139,Yopougon Gesco - Terminus du bus 34,5.3672056,0,-4.1020069,
node/7049258140,Arrêt,5.365903,0,-4.0973914,
node/7049258141,Arrêt,5.3634963,0,-4.0976979,
node/7049258142,Arrêt,5.3608051,0,-4.1003995,
node/7049258143,Arrêt,5.3587021,0,-4.0998034,
node/7049258144,Mamie Adjoua,5.3582214,0,-4.0940326,
node/7049258145,Arrêt,5.3552799,0,-4.088628,
node/7049730219,Arrêt,5.3009034,0,-4.0120965,
node/7049730220,EPP Aéroport,5.2545644,0,-3.9392397,
node/7049730221,Sept Villas,5.2734289,0,-3.9712512,
node/7049730222,Arrêt,5.2844982,0,-3.9852691,
node/7051810979,Carrefour la Vie,5.3485715,0,-4.0031956,
node/7051810981,Terminus Liberté,5.3528057,0,-4.0128221,
node/7051810982,École de Police,5.3503194,0,-3.9885668,
node/7051810984,Riviera 2,5.3530834,0,-3.9797437,
node/7051811086,Station Total Riviera 2,5.3529853,0,-3.9788968,
node/7051811087,Vallon,5.35446,0,-3.9909077,
node/7051811088,Escalier,5.3546991,0,-4.0043946,
node/7051811090,Adjamé Liberté,5.3533605,0,-4.0146225,
node/7051905145,Gare Anono,5.3498521,0,-4.0228106,
node/7051905146,Station,5.3495777,0,-4.0223607,
node/7051905147,Banfora,5.347757,0,-4.0227932,
node/7051905148,Saint Michel,5.3464705,0,-4.0227107,
node/7051905149,Eglise Saint Michel,5.3451372,0,-4.0226899,
node/7051905150,Eglise,5.343631,0,-4.0234597,
node/7051905151,SODEFOR,5.3490415,0,-3.9993949,
node/7051905152,Carrefour CHU,5.3494341,0,-3.9919236,
node/7051905153,Arrêt,5.3505471,0,-3.9869374,
node/7051905154,Terminus Anono,5.3445751,0,-3.9724706,
node/7051905155,Marché,5.3452895,0,-3.9744008,
node/7051905157,Terminus Anono,5.34455,0,-3.9724521,
node/7051905159,Arrêt,5.3504075,0,-3.9769623,
node/7051905160,Au Lavage,5.3500924,0,-3.9778259,
node/7051905161,A la Mosquée,5.3510311,0,-3.9809205,
node/7051905162,Carrefour CHU,5.349577,0,-3.9905101,
node/7051905163,Gare Anono,5.3497766,0,-4.0228461,
node/7052162358,École de Police,5.3501191,0,-3.989405,
node/7052162359,Carrefour Saint Michel,5.3454176,0,-4.0226577,
node/7052162360,A La Caisse,5.3418391,0,-4.0216117,
node/7052162361,Akouédo,5.3673438,0,-3.9457347,
node/7052162362,Playce Palmeraie,5.3719142,0,-3.9324155,
node/7052162363,Nouveau Goudron,5.3728529,0,-3.9287925,
node/7052162364,Kessé,5.3743603,0,-3.9122875,
node/7052162365,CIE,5.3602229,0,-3.8981583,
node/7052162366,Station Texaco,5.3613609,0,-3.8947412,
node/7052162367,Collège Moderne,5.3575885,0,-3.8882764,
node/7052162369,Carrefour Bangui,5.3573081,0,-3.8845441,
node/7052162370,Terminus Carrefour Bangui,5.357718,0,-3.8843443,
node/7052162371,Carrefour Bangui,5.3571933,0,-3.8844985,
node/7052162372,Collège Moderne,5.3574283,0,-3.887693,
node/7052162373,Faya,5.3703106,0,-3.9374359,
node/7052162375,Gare en haut,5.350286,0,-4.0224532,
node/7052340401,Clinique Fraternité,5.3493033,0,-4.0218316,
node/7052340402,Escalier,5.3548993,0,-4.0042631,
node/7052340403,Vallon-1er Pont,5.3546376,0,-3.9904813,
node/7052340404,Gare en haut,5.3504162,0,-4.0227482,
node/7052340405,Terminus M'Pouto,5.3271876,0,-3.9542839,
node/7052340406,Terminus M'Pouto,5.3271989,0,-3.9543486,
node/7052340407,A l'Arrêt,5.3310206,0,-3.9579682,
node/7052340408,Banny,5.3347781,0,-3.9557567,
node/7052340409,Maison Blanche,5.337175,0,-3.9537035,
node/7052340410,Mel Théodore,5.3452694,0,-3.952691,
node/7052340411,Carrefour Lycée Français,5.3508856,0,-3.9545229,
node/7052340412,Cap Nord,5.3564619,0,-3.9676865,
node/7052340415,Gare en haut,5.3503214,0,-4.0226343,
node/7052366500,Adjamé Texaco,5.3543439,0,-4.0177533,
