stop_id,location_type,stop_lon,stop_name,parent_station,stop_lat
node/768587345,0,-4.0893341,Yopougon Niangon-Terminus 27,,5.3164439
node/768587373,0,-4.0804016,Yopougon Sideci - Terminus 42,,5.3198783
node/1227889258,0,-4.0148847,Gare lagunaire Aqualines du Plateau,,5.3158647
node/2381298633,0,-4.0171229,Agban,,5.3608351
node/2444131222,0,-4.018311,Fraternité Matin,,5.3438972
node/2460519991,0,-4.0732432,Saint André lavage,,5.3423485
node/2493226931,0,-4.0238611,Arrêt,,5.3413464
node/2493730483,0,-3.9551669,Gare Koumassi,,5.2942027
node/2760843854,0,-3.945225,Terminus 05 Lycée Municipal de Koumassi,,5.3121324
node/2948146673,0,-4.0832298,Terminus bus 47,,5.3396167
node/3067761599,0,-4.0912463,Arrêt du Maroc,,5.3396157
node/3067766555,0,-4.0973067,Mosquée du Maroc,,5.3400629
node/3075945505,0,-4.0738295,Saint André,,5.3423254
node/3137208051,0,-4.0668084,[Arret sans nom],,5.3427541
node/3137217828,0,-4.0709484,2 poteaux,,5.3436761
node/3137243386,0,-4.0679411,Newton,,5.3446768
node/3145728412,0,-3.979568,Riviera 2,,5.3531115
node/3218806159,0,-3.9487208,Eglise Evangélique Internationnal Foursquare,,5.3117096
node/3326195828,0,-4.0037743,Saint Jean,,5.3368705
node/3666057101,0,-4.0884501,Pharmacie Port-Bouët II,,5.3470567
node/3950172145,0,-4.0734547,Ficgayo,,5.3493507
node/4029208102,0,-3.9973698,ENA,,5.3616481
node/4107240891,0,-3.9787018,Pharmacie de Bietry,,5.2742845
node/4411562346,0,-4.061373,Terminus 85,,5.3296306
node/4999458824,0,-4.004071,Terminus CHU Treichville,,5.2948647
node/5057165424,0,-4.011123,Ex-pharmacie Mockey,,5.30185
node/5057297311,0,-4.0039817,Carrefour St Jean,,5.3369029
node/5068855021,0,-3.9933116,Terminus 704 abobo Belleville,,5.4158258
node/5143730222,0,-3.940785,Terminus M'pouto - CIAD,,5.328322
node/5143751833,0,-3.9410686,Terminus M'pouto - CIAD,,5.3284442
node/5281604034,0,-4.0711802,[Arret sans nom],,5.3437686
node/5390465849,0,-4.0374018,Gare lagunaire Aqualines Yopougon,,5.3078259
node/5414376221,0,-4.0205264,Stif,,5.3555889
node/5739489700,0,-4.0623618,Complexe sportif de Yopougon,,5.3415133
node/5927302128,0,-4.073208,Fcigayo,,5.3493427
node/5934409413,0,-4.1003513,Arrêt,,5.3419897
node/5936892363,0,-4.1020437,Yopougon Gesco - Terminus du bus 34,,5.3671401
node/5953580661,0,-3.967352,Pharmacie Val de Grace,,5.3802448
node/5953580667,0,-3.9593077,Carrefour Palmeraie,,5.3618751
node/5953580668,0,-3.9643623,Station Shell Riviera 3,,5.3582581
node/5954541435,0,-3.9498433,CIAD,,5.3286164
node/5954541439,0,-3.9902179,Boulevard de France,,5.3347766
node/5954541440,0,-4.0024723,Carrefour de la Vie,,5.3492831
node/5957239662,0,-3.991548,Carrefour 22ème,,5.3989296
node/5957239663,0,-3.9931428,Carrefour Opéra,,5.3855754
node/5957239665,0,-3.9975968,ENA,,5.3615936
node/5957239666,0,-4.0050058,Hôtel Ivoire,,5.328578
node/5958266385,0,-3.9860303,Pharmacie Les Laureades,,5.3975314
node/5958266386,0,-3.9881294,Petro Ivoire 7è Tranche,,5.3806539
node/5958266387,0,-3.9845519,Commisariat 30è Art.,,5.373758
node/5958266388,0,-3.9813021,Terminus 202 Attoban,,5.3701109
node/5958266389,0,-3.9797109,Parmacie St Bernard,,5.3673274
node/5958266390,0,-3.9782153,Pharmacie St Ange,,5.3573659
node/5958266391,0,-3.9779596,Collège André Malraux,,5.3558222
node/5958266392,0,-3.9773239,Riviera 2,,5.3541895
node/6098848385,0,-4.0207447,Saint Paul Plateau,,5.3247785
node/6136850508,0,-4.0205509,Hôtel de Ville,,5.3238162
node/6136850509,0,-4.0205339,Hôtel de Ville,,5.3234932
node/6136858285,0,-4.0205256,Terminus Hotel de Ville,,5.3226907
node/6195348341,0,-4.021322,Cathédrale Saint paul,,5.3317403
node/6281030720,0,-4.0333199,Terminus bus 51/52,,5.4148488
node/6474137921,0,-4.0144508,Gare Abobo Sogephia,,5.4351428
node/6474137923,0,-4.0125419,BICICI,,5.4364247
node/6474137925,0,-4.0147435,Cours Sociaux,,5.4382745
node/6474137927,0,-4.019424,Avenue Kaza,,5.4381179
node/6474137929,0,-4.0202491,Camp Commando,,5.4355472
node/6474137931,0,-4.0200922,Station Shell,,5.4306474
node/6474137932,0,-4.0198488,Abobo Gendarmerie,,5.4263959
node/6474137934,0,-4.0187446,Abobo Gendarmerie,,5.4234101
node/6474137936,0,-4.0166455,2ème Arrêt,,5.4171616
node/6474137938,0,-4.015971,Banco,,5.4131456
node/6474137940,0,-4.0160152,Anador,,5.4089746
node/6474137942,0,-4.0207427,Université Nangui Abrogoua,,5.392647
node/6474137944,0,-4.0255918,Macaci,,5.3774907
node/6474137946,0,-4.027655,Gare Nord,,5.3592442
node/6474137948,0,-4.0274455,Gare Nord,,5.3591608
node/6474137950,0,-4.0257671,Grande Mosquée Adjamé,,5.3533564
node/6474137952,0,-4.0256668,Foire de Chine,,5.347769
node/6474137954,0,-4.0259753,Mairie d'Adjamé,,5.3431984
node/6474137956,0,-4.0238205,Cité Administrative,,5.3312372
node/6474137958,0,-4.0238801,Immeuble Sogefiha,,5.3278045
node/6474137967,0,-4.0181049,Gare Sud,,5.3145043
node/6474137979,0,-4.019718,Présidence,,5.3179651
node/6474137980,0,-4.0197472,Galerie du Parc,,5.3225013
node/6474137981,0,-4.0247204,Camp Galliéni,,5.3339569
node/6474137982,0,-4.026107,Institut National de la Santé Publique,,5.3386571
node/6474137983,0,-4.0260496,Mairie d'Adjamé,,5.343713
node/6474137984,0,-4.0258452,Marché Forum,,5.3459921
node/6474138985,0,-4.0255664,Pharmacie du Banco,,5.3503682
node/6474138986,0,-4.0259071,Grande Mosquée Adjamé,,5.3534527
node/6474138987,0,-4.028099,Gare Nord,,5.3586829
node/6474138988,0,-4.0263861,Macaci,,5.3765774
node/6474138989,0,-4.021035,Filtisac,,5.3906844
node/6474138990,0,-4.0162969,Anador,,5.4085961
node/6474138991,0,-4.0162419,Banco,,5.4135848
node/6474138992,0,-4.0173344,Collège Saint-Joseph,,5.4183764
node/6474138993,0,-4.0190818,Abobo Gendarmerie,,5.4237125
node/6474138994,0,-4.020231,Bar Ivoire Abobo,,5.4315506
node/6474138995,0,-4.0203886,DGI Abobo,,5.4363436
node/6474138996,0,-4.0189201,Avenue Kaza,,5.4382274
node/6474138997,0,-4.0138587,Carrefour Akeïkoi,,5.4383936
node/6474138999,0,-4.0190673,Terminus Gare Sud,,5.3149589
node/6474139031,0,-4.0127537,Cité Universitaire Abobo,,5.4350792
node/6474139033,0,-4.0154322,Quai 15,,5.4354761
node/6815808830,0,-3.9641507,Station Shell Riviera 3,,5.3580852
node/6815808831,0,-3.9591336,Carrefour Palmeraie,,5.3620442
node/6815808833,0,-3.9744202,CNPS 9ème Tranche,,5.3865761
node/6815808834,0,-3.9780418,Marché COCOVICO,,5.4010646
node/6815808839,0,-3.9618125,Quick Market,,5.3738506
node/6815808840,0,-3.9618581,Quick Market,,5.3737728
node/6815808842,0,-3.9635563,Commissariat 35è Art.,,5.3776142
node/6815808843,0,-3.9745308,CNPS 9ème Tranche,,5.3866021
node/6815808844,0,-3.9781939,Marché COCOVICO,,5.4010482
node/6815808845,0,-3.9587098,Pharmacie du bonheur,,5.3698807
node/6815808846,0,-3.9725319,Groupe Scolaire St Marc,,5.383206
node/6819328985,0,-3.9692172,Camp Commando de Koumassi,,5.282599
node/6819329085,0,-3.9707407,Grand Carrefour de Koumassi,,5.2892136
node/6819329086,0,-3.9741109,Hôtel Ibis Marcory,,5.2921087
node/6819329185,0,-3.973691,Hôtel Ibis Marcory,,5.2916293
node/6819329285,0,-3.9897184,Chimtec Grand carrefour Marcory,,5.3008419
node/6820855646,0,-3.9767155,Ambassade des USA,,5.335819
node/6820855647,0,-3.9728877,Hotel du Golf,,5.3309825
node/6820855648,0,-3.9730064,Hotel du Golf,,5.3310297
node/6820855649,0,-3.9579229,Ex Terminus Sotra;Carrefour Sol Beni,,5.3312498
node/6831076677,0,-4.021605,Cathédrale Saint paul,,5.332764
node/6831076678,0,-4.0205671,Église Méthodiste Unie de Côte d'Ivoire,,5.3299678
node/6831076682,0,-4.0185085,Gare Sud,,5.3148704
node/6832290086,0,-3.9867521,Cap Sud,,5.2988832
node/6899034705,0,-4.0022393,Gare de Bassam,,5.2996481
node/6899034706,0,-3.9997862,Gendarmerie,,5.3004143
node/6899034707,0,-4.0037983,Notre-dame,,5.303315
node/6899034708,0,-4.005186,Pharmacie Nanan Yamousso,,5.3072484
node/6899034709,0,-4.0061407,Après le Pont,,5.3099574
node/6899034710,0,-4.0160603,Adjamé Liberté,,5.3534116
node/6899053345,0,-4.014858,Adjamé Liberté,,5.3534437
node/6899053346,0,-4.0120307,Gare de Bingerville,,5.3535364
node/6899053347,0,-4.0152949,Feux du plateau,,5.325075
node/6899053348,0,-4.0061218,Nanan Yamousso,,5.3101491
node/6899053349,0,-4.0024275,Gare de Bassam,,5.2996797
node/6899241573,0,-4.0174383,Abobo Gare Mairie,,5.4200067
node/6899241574,0,-4.0159818,Mobil,,5.4143755
node/6899241575,0,-4.0215227,Lavage,,5.3846198
node/6899241576,0,-4.0257575,Macaci,,5.37725
node/6899241577,0,-4.0164004,Adjamé Liberté,,5.3543459
node/6899264970,0,-4.0212174,Marché Gouro,,5.349107
node/6899264971,0,-4.0163905,Adjamé Liberté,,5.3547097
node/6899264972,0,-4.016791,Station Total,,5.358734
node/6899264973,0,-4.0171184,Abobo Gare Mairie,,5.4215493
node/6902638988,0,-4.0153363,Carrefour Marché,,5.4195759
node/6902638989,0,-4.0135168,Petro Ivoire,,5.4186048
node/6902638990,0,-4.0101975,Au Bar,,5.4168519
node/6902638991,0,-4.0080786,Petit Carrefour,,5.4157998
node/6902638992,0,-4.0067032,Samaké,,5.4152338
node/6902638993,0,-4.0064894,Azur,,5.3994804
node/6902638994,0,-4.0070352,Panneau ZOO,,5.3780522
node/6902638995,0,-4.0157753,Abobo Gare Mairie,,5.4197843
node/6902638996,0,-4.0117095,Ciné Cool,,5.4176548
node/6902638997,0,-4.0062697,Boulangerie Samake,,5.4144283
node/6902638998,0,-4.0062877,Menuiserie,,5.410863
node/6902638999,0,-4.0063067,Tchapatcha,,5.4101067
node/6902639000,0,-4.0063409,Chaîne Avion,,5.4092677
node/6902639001,0,-4.0063993,Pharmacie Dokui,,5.4051188
node/6902639002,0,-4.0064176,SODECI,,5.4036347
node/6902639003,0,-4.0064567,Étage Noir,,5.4020967
node/6902639004,0,-4.0064867,Mobil,,5.4001879
node/6902639005,0,-4.006353,Arrêt Dokui,,5.3968179
node/6902639006,0,-4.005793,Ancien Feu,,5.3929293
node/6902639007,0,-4.005732,Bangui,,5.3872276
node/6902639008,0,-4.0060126,Vidange,,5.3851864
node/6902639009,0,-4.0063262,HMA,,5.382931
node/6902639010,0,-4.0118134,Carrefour paillet,,5.3721147
node/6902639011,0,-4.0157876,Carrefour 2 Plateaux,,5.3653117
node/6902639012,0,-4.0160705,Gare des gbakas d’Abobo par le zoo,,5.3553627
node/6902868224,0,-4.0136214,Petro Ivoire,,5.4184847
node/6902868225,0,-4.0120067,Ciné Cool,,5.4176463
node/6902868226,0,-4.0102981,Au Bar,,5.4167077
node/6902868227,0,-4.0065403,Pharmacie Dokui,,5.4051935
node/6902868228,0,-4.0065873,SODECI,,5.4036701
node/6902868229,0,-4.0066315,Étage Noir,,5.40212
node/6902868230,0,-4.0066597,Mobil,,5.4002027
node/6902868231,0,-4.0066034,Azur,,5.3994577
node/6902868232,0,-4.0064518,Arrêt Dokui,,5.3965911
node/6902868233,0,-4.0059301,Ancien Feu,,5.3928327
node/6902868234,0,-4.005859,Bangui,,5.387253
node/6902868235,0,-4.0060952,Vidange,,5.3853034
node/6902868236,0,-4.0064118,HMA,,5.382907
node/6902868237,0,-4.0122239,Carrefour paillet,,5.3716859
node/6902868238,0,-4.0159576,Carrefour 2 Plateaux,,5.365405
node/6902868239,0,-4.0168128,Willy Agban,,5.3633371
node/6902868240,0,-4.0152077,Cimetière,,5.3668297
node/6902868241,0,-4.0094557,CIE,,5.3765337
node/6902868242,0,-4.0070149,ZOO,,5.3789939
node/6902868243,0,-4.0056173,Eglise,,5.3900553
node/6902868244,0,-4.0099567,Pharmacie Racines,,5.41329
node/6902868245,0,-4.0160257,Abobo Gare Mairie,,5.4197639
node/6902975747,0,-4.0135154,Christine Bar,,5.4500232
node/6902975748,0,-4.0109926,Terminus Akéikoi Village,,5.4607326
node/6902975749,0,-4.0107733,À l'École,,5.45899
node/6902975750,0,-4.0112928,Destin,,5.455207
node/6902975751,0,-4.0119566,Monnaie,,5.4542173
node/6902975752,0,-4.0128592,André Bar,,5.4528753
node/6902975753,0,-4.0133357,Carrefour Marché,,5.4510493
node/6902975754,0,-4.0143571,A l'étage,,5.446249
node/6902975755,0,-4.0141843,Boulangerie,,5.4394513
node/6902975756,0,-4.0140378,Carrefour Akéikoi,,5.4384053
node/6902975757,0,-4.0161726,Gare Gbaka Akeïkoi,,5.4225885
node/6903084141,0,-4.0134484,Carrefour Marché,,5.4510779
node/6903084142,0,-4.0129173,André Bar,,5.4530404
node/6903084143,0,-4.0120751,Monnaie,,5.4542793
node/6903097494,0,-4.0142825,Au goudron,,5.438503
node/6903097495,0,-4.0160694,Abobo Gare,,5.4227551
node/6903097496,0,-4.013945,Au tournant,,5.4230451
node/6903097497,0,-4.0146415,Lycée Moderne Abobo 1 & 2,,5.4278809
node/6903097498,0,-4.0124107,Célibataire,,5.433455
node/6903097499,0,-4.0124925,JAUG,,5.4352003
node/6903097500,0,-4.0135883,Cité,,5.4383233
node/6903097501,0,-4.0138345,Boulangerie,,5.449017
node/6903097502,0,-4.0136722,Christine Bar,,5.4500084
node/6903097503,0,-4.01134,Destin,,5.4552984
node/6903097504,0,-4.0109968,À l'École,,5.4594779
node/6903097505,0,-4.0111868,Terminus Akéikoi Village,,5.460775
node/6903193216,0,-4.0144891,Mosquée,,5.4429021
node/6903193217,0,-4.0144891,A l'étage,,5.4463091
node/6903268819,0,-4.0165181,Abobo Gare Mairie,,5.42194
node/6903268820,0,-4.0163197,Gare Abobo Kennedy-Marché/ Mosquée Ado,,5.4223082
node/6903268821,0,-4.0100057,Station,,5.4211585
node/6903268822,0,-4.0015221,Kennedy Marché,,5.4236887
node/6903296476,0,-4.011662,Mosquée,,5.4220774
node/6903296477,0,-4.0059623,Carrefour Kennedy,,5.4186997
node/6903296478,0,-4.0058919,Carrefour Kennedy,,5.418665
node/6903296479,0,-4.0039433,Makan Traoré,,5.4211643
node/6903296480,0,-4.0015453,Au marché,,5.4236156
node/6903296481,0,-4.0021714,A Gauche,,5.423623
node/6903296482,0,-4.0037249,Makan Traoré,,5.4214359
node/6903347574,0,-3.9324706,Cocody Riviera M'badon,,5.3286546
node/6903347575,0,-3.9332267,Nouveau marché,,5.3293417
node/6903347576,0,-3.9339946,Ancien marché,,5.329969
node/6903347577,0,-3.9350317,Centre de santé Municipal de M'Badon,,5.3307517
node/6903347578,0,-3.9352626,La ferme,,5.331008
node/6903347579,0,-3.9393933,Pharmacie,,5.3353839
node/6903347580,0,-3.9427407,2 poteaux,,5.3384154
node/6903347581,0,-3.945032,Antenne,,5.339948
node/6903347582,0,-3.9457017,Carrefour Akouédo,,5.345935
node/6903347583,0,-3.9471733,École,,5.3461517
node/6903347584,0,-3.9505483,2ème rond-point,,5.3458217
node/6903370485,0,-4.0227501,Gare en haut,,5.3503568
node/6903374200,0,-4.0100339,Station,,5.4210882
node/6903374201,0,-4.00729,Immeuble Cercueil,,5.4196516
node/6903374202,0,-4.0074087,Immeuble Cercueil,,5.4195942
node/6903397403,0,-3.9978515,Terminus mosquée Ado Kenedy,,5.4234508
node/6903397404,0,-3.9978489,À l'École,,5.4215774
node/6903397405,0,-3.9979409,[Arret sans nom],,5.4198617
node/6903397406,0,-3.9980283,Dahico,,5.4185867
node/6903397407,0,-3.9992242,Étage Noir,,5.4157689
node/6903406997,0,-4.0059533,Samaké,,5.415578
node/6903406998,0,-4.0037563,Eglise,,5.4156012
node/6903504058,0,-4.0037625,Eglise,,5.4155167
node/6903504059,0,-4.0007112,Monastère,,5.4155583
node/6903504060,0,-4.0008035,Monastère,,5.4154526
node/6903504061,0,-3.999403,Étage Noir,,5.4157731
node/6903504062,0,-3.9981732,Dahico,,5.4185995
node/6903525051,0,-4.0272132,Hôtel du centre,,5.4339087
node/6903525052,0,-4.0337387,A la Pompe,,5.437375
node/6903525053,0,-4.0360617,Dépôt,,5.4377181
node/6903525054,0,-4.0444772,Anokoi,,5.4390697
node/6903525055,0,-4.0444823,Anokoi,,5.439303
node/6903525056,0,-4.0479148,Marahoué,,5.4422211
node/6903525057,0,-4.0487972,Agripac,,5.4439581
node/6903525058,0,-4.0509604,Terminus,,5.447775
node/6903525059,0,-4.0508555,Terminus,,5.4479797
node/6903525060,0,-4.0489498,Agripac,,5.4446545
node/6903525061,0,-4.0477433,Marahoué,,5.4425017
node/6903525062,0,-4.0360937,Dépôt,,5.4379717
node/6903525063,0,-4.033852,A la Pompe,,5.4376377
node/6903525064,0,-4.030245,Marché de Nuit,,5.4367133
node/6903525065,0,-4.026894,Hôtel du centre,,5.4340417
node/6903525066,0,-4.018191,Abobo Gare,,5.4217034
node/6903535584,0,-4.0206447,Complexe,,5.3489387
node/6903544086,0,-4.0224464,Gare en haut,,5.350348
node/6903544087,0,-4.0180948,Maternité,,5.3481387
node/6903544088,0,-4.014163,Adjamé Liberté,,5.3521055
node/6903544089,0,-4.0029137,2ème pont,,5.3547793
node/6903544090,0,-3.9339759,Marché,,5.3301187
node/6903602207,0,-4.0203577,Abobo Gendarmerie,,5.4263231
node/6903602208,0,-4.0233336,Mosquée Blanche,,5.4298704
node/6903602209,0,-4.0262471,Solibra,,5.4332219
node/6903602210,0,-4.0288774,Château,,5.4359152
node/6903602211,0,-4.0383071,A l'escalier,,5.4383388
node/6903602212,0,-4.0521369,PK 18 ancien marché,,5.4497913
node/6903602213,0,-4.0184916,Abobo Gare,,5.4220421
node/6903602214,0,-4.0204342,Abobo Gendarmerie,,5.4260466
node/6903602215,0,-4.0208376,Gendarmerie Avant le Feu,,5.426524
node/6903602216,0,-4.0236152,Mosquée Blanche,,5.4297276
node/6903602217,0,-4.0264367,Solibra,,5.4330817
node/6903602218,0,-4.0290698,Château,,5.4357519
node/6903602219,0,-4.0306363,Marché de Nuit,,5.4365893
node/6903602220,0,-4.0384581,A l'escalier,,5.4380495
node/6903602221,0,-4.0411411,Nouvelle Gare,,5.4382834
node/6903602222,0,-4.0493193,Agripac Avant le Feu,,5.4448006
node/6903602223,0,-4.0520966,Station Total,,5.4493883
node/6903602224,0,-4.052542,PK 18 ancien marché,,5.4499639
node/6903639366,0,-3.9761316,Attoban camp,,5.370557
node/6903639367,0,-3.9776678,Escalier,,5.3694267
node/6903639368,0,-3.9794185,Pharmacie Saint Bernard,,5.3673899
node/6903639369,0,-3.9793174,Carrefour Garage,,5.3658448
node/6903639370,0,-3.9792552,Polyclinique Sacré-Coeur,,5.365069
node/6903639371,0,-3.9790994,Jules ferry,,5.3642087
node/6903639372,0,-3.9788028,Hôtel Manhatan,,5.362115
node/6903639373,0,-3.978316,Doraville,,5.3589924
node/6903639374,0,-3.9780678,Pharmacie Saint ange,,5.3571667
node/6903639375,0,-3.9777617,André Malraux,,5.356275
node/6903639376,0,-4.0228251,Gare en haut,,5.3505392
node/6903968407,0,-3.9796695,Pharmacie Saint Bernard,,5.3672689
node/6903968408,0,-3.9794498,Carrefour Garage,,5.3655779
node/6904171063,0,-4.0345833,Attécoubé Terminus 04,,5.343795
node/6904171064,0,-4.0345467,[Arret sans nom],,5.346448
node/6904171065,0,-4.033957,Marché,,5.3490624
node/6904171066,0,-4.032333,Station Afriquia,,5.3501257
node/6904171067,0,-4.0328135,Carrefour Attecoubé,,5.3524283
node/6904171068,0,-4.0309717,[Arret sans nom],,5.3574167
node/6904171070,0,-4.0254169,Pharmacie du Banco,,5.3513557
node/6904171071,0,-4.0261722,Adjamé Santé,,5.3412757
node/6904171072,0,-4.025807,Institut National de la Santé Publique,,5.3381159
node/6904171073,0,-4.0230192,Cité Administrative,,5.3318344
node/6904171074,0,-4.0206008,Cité financière Plateau,,5.3266073
node/6904171075,0,-4.0196512,SIB Alpha 2000,,5.3237991
node/6904171076,0,-4.0196681,Primature,,5.3206169
node/6904171077,0,-4.0157481,Résidence Cheick Yacouba Sylla,,5.3089287
node/6904171078,0,-4.0142576,Marché Treichville,,5.3094876
node/6904171079,0,-4.0099697,[Arret sans nom],,5.3109791
node/6904171080,0,-4.006092,Biafra,,5.3126563
node/6904171081,0,-3.9933399,Banque Atlantique,,5.3076251
node/6904171082,0,-3.9888629,Hôtel Hamanieh,,5.3052787
node/6904171083,0,-3.9869873,Sainte Thérèse,,5.3043423
node/6904171084,0,-3.9858381,Commissariat du 9 ème,,5.3064581
node/6904188585,0,-3.9839517,Gare Marcory,,5.3088083
node/6905326498,0,-4.0281877,Gare Nord,,5.3589119
node/6905326503,0,-4.0307925,Château,,5.4366266
node/6905344262,0,-4.0219308,Préfecture de Police,,5.3843543
node/6905344263,0,-4.0351608,Arrêt Centre Bus,,5.4375564
node/6905344264,0,-4.0390169,Terminus 45 À l'escalier,,5.4384645
node/6905344265,0,-4.0351391,Arrêt Centre Bus,,5.4378844
node/6905344266,0,-4.0299554,Château,,5.4365245
node/6905344267,0,-4.0259685,Arrêt,,5.4328931
node/6905344268,0,-4.0222108,Abobo Gendarmerie,,5.4284112
node/6905344273,0,-4.0219627,Préfecture de Police,,5.3836534
node/6905553518,0,-4.0225102,Abobo Gendarmerie,,5.4284566
node/6905553519,0,-4.0261674,[Arret sans nom],,5.4327155
node/6905719605,0,-4.0256884,Foire de Chine,,5.3485701
node/6905719606,0,-4.0206943,Église Méthodiste Unie de Côte d'Ivoire,,5.3299376
node/6905719607,0,-4.0201163,60 logements Plateau,,5.3251345
node/6905719608,0,-4.0177138,Hôpital du port,,5.3087867
node/6905719609,0,-4.0148424,Maison du Congres,,5.3097288
node/6905719610,0,-4.0116929,Pharmacie du Rond-point,,5.3073425
node/6905719611,0,-4.0069793,[Arret sans nom],,5.3090218
node/6905719612,0,-4.005442,Nanan Yamousso,,5.3080275
node/6905719613,0,-4.0043543,Paroisse Notre-Dame de Treichville,,5.3048828
node/6905719614,0,-4.0015648,Pharmacie de l'Entente,,5.3045623
node/6905719615,0,-3.998829,Marché de Belleville,,5.3055251
node/6905719616,0,-3.9931172,Banque Atlantique,,5.3075214
node/6905719617,0,-3.9887868,Hôtel Hamanieh,,5.3049722
node/6905719618,0,-3.986118,Commissariat du 9éme,,5.3055778
node/6905719619,0,-3.9847286,Station Shell,,5.308097
node/6905719620,0,-4.0284151,[Arret sans nom],,5.3584965
node/6905719621,0,-4.0304951,[Arret sans nom],,5.357702
node/6905719622,0,-4.0321715,Carrefour Attecoubé,,5.3515438
node/6905719623,0,-4.03386,Banque Atlantique,,5.3489601
node/6905719624,0,-4.0344246,Commissariat du 10ᵉ arrondissement,,5.3471108
node/6905719625,0,-4.0344802,Attécoubé Terminus 04,,5.3437946
node/6905772459,0,-4.0219475,Saint Paul,,5.3251603
node/6905772460,0,-4.0239746,Immeuble Sogephia Hévéa,,5.3282245
node/6905772461,0,-4.0245113,Musée du Plateau,,5.3337809
node/6905772466,0,-4.0160546,Cours Sociaux,,5.4383593
node/6905842305,0,-4.0275686,Gare Nord,,5.3590397
node/6905842307,0,-4.0224693,Long Champs,,5.3252327
node/6906463287,0,-3.9560075,Gare Koumassi,,5.293902
node/6906463288,0,-3.9602508,Pharmacie Ehilie,,5.2928524
node/6906463289,0,-3.966735,Mosquée,,5.2913568
node/6906463290,0,-3.980944,Échangeur de Marcory,,5.2956714
node/6906463291,0,-3.98845,Grand carrefour Marcory,,5.2998527
node/6906463292,0,-3.9976917,Collège Moderne Autoroute,,5.2998184
node/6906463293,0,-4.0026734,Gare de Bassam,,5.2999823
node/6906463294,0,-4.003273,Ecobank,,5.3018099
node/6906463296,0,-4.0155251,Adjamé Liberté,,5.3534012
node/6906507833,0,-4.0124238,BICICI,,5.4365892
node/6906575629,0,-4.0164467,Adjamé Liberté,,5.3546594
node/6906575630,0,-4.0169033,Williams-Ville,,5.3631417
node/6906575631,0,-4.0157829,Carrefour 2 Plateaux,,5.3658197
node/6906575632,0,-4.0156117,[Arret sans nom],,5.3662557
node/6906575633,0,-4.0122293,Paillet,,5.3716139
node/6906575634,0,-4.0112578,[Arret sans nom],,5.374069
node/6906575635,0,-4.005605,[Arret sans nom],,5.3898833
node/6906575636,0,-4.0065311,[Arret sans nom],,5.4045622
node/6906575637,0,-4.0064187,[Arret sans nom],,5.4113412
node/6906575638,0,-4.0064133,ANADER,,5.4126483
node/6906590689,0,-4.0064263,Samaké,,5.4148754
node/6906590691,0,-4.0068417,Samaké,,5.41527
node/6906590692,0,-4.0063152,Chaîne Avion,,5.4101483
node/6906590693,0,-4.0063867,1ere Boutique,,5.4073533
node/6906590694,0,-4.0155634,Carrefour 2 Plateaux,,5.3659384
node/6906590695,0,-4.0162927,Adajmé Liberté,,5.3546002
node/6906596960,0,-4.015528,Adjamé Liberté,,5.35345
node/6906596961,0,-4.0060884,Nanan Yamousso,,5.3100359
node/6906596962,0,-4.0044435,Karwil,,5.3054677
node/6906596963,0,-4.0036369,Notre-dame,,5.3031308
node/6906596964,0,-4.0026404,Gare de Bassam,,5.3003893
node/6906596965,0,-3.9983918,Collège Moderne Autoroute,,5.2998444
node/6906596966,0,-3.9859637,Cap Sud,,5.2987234
node/6906596967,0,-3.981013,Échangeur Marcory,,5.2959351
node/6906596968,0,-3.9675638,Auto-école,,5.2912433
node/6906596969,0,-3.964494,Arrêt,,5.2919737
node/6906596970,0,-3.9610541,Boulangerie,,5.292783
node/6906699462,0,-4.0069936,ZOO,,5.3790616
node/6906699463,0,-4.0065336,1ere Boutique,,5.4074152
node/6906699464,0,-4.0116794,Paillet,,5.3723989
node/6906699465,0,-4.0054621,[Arret sans nom],,5.3898979
node/6906699466,0,-4.0065122,Arrêt Dokui,,5.3967647
node/6906699467,0,-4.0063445,Arrêt Dokui,,5.3968689
node/6906699468,0,-4.0062842,ANADER,,5.4121402
node/6906699469,0,-4.0106347,[Arret sans nom],,5.4169293
node/6906699470,0,-4.0106159,[Arret sans nom],,5.4170815
node/6906699471,0,-4.0159368,Abobo Mairie,,5.4197017
node/6906699472,0,-4.0156192,Abobo Mairie,,5.4197512
node/6907121506,0,-4.0235294,Gare Williamsville,,5.3675641
node/6907121507,0,-4.0207037,Mosquée,,5.3658243
node/6907121508,0,-4.0189161,Croix Bleue,,5.3643529
node/6907121509,0,-4.0160715,Agban avant le pont,,5.3576606
node/6907121510,0,-4.0169929,Pharmacie le Belier,,5.3501391
node/6907121511,0,-4.0230855,Indenié,,5.3417336
node/6907121512,0,-4.018503,Mairie du Plateau,,5.3220152
node/6907121513,0,-4.0170059,Institut Français,,5.3219502
node/6907121514,0,-4.0144649,CNPS,,5.3195012
node/6907121515,0,-3.984068,Gare Marcory,,5.3088742
node/6907141795,0,-4.0033579,RTI,,5.342209
node/6907141796,0,-4.0029046,Archibat,,5.3459837
node/6907141797,0,-4.0007897,Marché de Cocody,,5.3356901
node/6907141798,0,-4.0021679,Gare Blockauss,,5.3232894
node/6907141799,0,-4.0013589,Banque Mondiale,,5.3278237
node/6907141800,0,-4.0007635,Marché de Cocody,,5.3355267
node/6907141801,0,-4.0038072,CIE,,5.3384172
node/6907141802,0,-4.0021657,Palm Club,,5.351632
node/6907141803,0,-4.0274511,Gare Nord,,5.3587491
node/6907147644,0,-4.0180323,Texaco,,5.3543654
node/6907147645,0,-4.0101289,Pont lycée technique,,5.3478735
node/6907147646,0,-4.0038018,SODEMI,,5.3442806
node/6907147647,0,-4.0033259,SGBCI,,5.3404792
node/6907147648,0,-3.9999757,Marché de Cocody,,5.336444
node/6907147649,0,-4.0003179,PMI,,5.3334363
node/6907147650,0,-4.00118,Banque Mondiale,,5.3280617
node/6907147651,0,-4.0020444,Gare Blockauss,,5.323287
node/6907154300,0,-4.0168481,Boulangerie Top baquette,,5.3528511
node/6907154301,0,-4.017115,220 logements,,5.3472669
node/6907157792,0,-4.0273707,Gare Nord,,5.3589598
node/6907157793,0,-4.0213836,Renault,,5.3559786
node/6907157794,0,-4.0158064,Adjamé Liberté,,5.3534802
node/6907157795,0,-4.000587,CERAP - INADES,,5.339615
node/6908599212,0,-3.9946557,Gare Campus Cocody,,5.3464621
node/6908599213,0,-4.0013186,ISTC,,5.343718
node/6908599215,0,-4.0153091,Quai 49,,5.4354972
node/6908618074,0,-3.9968976,INSAAC,,5.3456864
node/6908618077,0,-4.016795,EPV Konaté,,5.427395
node/6908618078,0,-4.0146633,Lycée Moderne d'Abobo,,5.4286537
node/6908728765,0,-4.012329,[Arret sans nom],,5.4339703
node/6908728766,0,-4.013431,[Arret sans nom],,5.432656
node/6908728767,0,-4.0162121,[Arret sans nom],,5.4273213
node/6908728771,0,-4.0008199,ISTC,,5.343821
node/6908728772,0,-3.9937238,Gare Campus Cocody,,5.3462119
node/6908782549,0,-4.0147361,[Arret sans nom],,5.43182
node/6908782550,0,-4.014638,[Arret sans nom],,5.429723
node/6908782552,0,-3.9978676,Cité des Arts,,5.3450487
node/6908782553,0,-3.993895,université méthodiste de Côte D'Ivoire,,5.3466283
node/6908914485,0,-4.0160582,[Arret sans nom],,5.357415
node/6908914486,0,-4.0171632,Cours socio éducatif,,5.3491257
node/6908914487,0,-3.9996571,Piscine d’État de Treichville,,5.3082112
node/6908914488,0,-3.9839441,Gare Marcory,,5.3090397
node/6908914489,0,-4.0161239,Boulangerie Top Qualité,,5.3555536
node/6908914490,0,-4.0170747,Liberté,,5.3513262
node/6908914491,0,-4.0170975,Pharmacie le Belier,,5.3503722
node/6908914492,0,-4.0230188,Indenié,,5.3418097
node/6908914493,0,-4.025647,Banque SIB,,5.3421743
node/6908914494,0,-4.0183783,Bicici plateau,,5.321186
node/6908914495,0,-4.0167837,Pyramide,,5.321624
node/6908914496,0,-4.0145266,Siège Moov,,5.3184312
node/6908914498,0,-4.0188664,Croix Bleue,,5.3641726
node/6908914499,0,-4.0202826,Infirmerie Sinikeya,,5.3653249
node/6908914500,0,-4.0235066,Gare Williamsville,,5.3670874
node/6909039462,0,-4.0318263,Petro Ivoire,,5.3589877
node/6909039464,0,-4.0257324,Pharmacie Sainte Marie,,5.3468603
node/6909039468,0,-4.0159526,Cité Policière,,5.3080247
node/6909039469,0,-4.0046789,CHU,,5.2958623
node/6909039470,0,-3.9984496,PTT Km4,,5.2927793
node/6909039471,0,-3.9957435,Pharmacie Santé Publique,,5.2914467
node/6909108442,0,-4.0375583,Terminus Cité Fairmont,,5.3585383
node/6909108450,0,-4.0149536,arrêt,,5.305135
node/6909108451,0,-3.9902017,Services Techniques du District,,5.29123
node/6909121487,0,-3.9840127,Gare Marcory,,5.3088407
node/6909208699,0,-4.0074831,Parc des Sports,,5.2971256
node/6909208700,0,-3.990781,"SIYOA, Boulevard de Marseille",,5.2895393
node/6909225529,0,-4.0724972,Arrêt,,5.36188
node/6909225530,0,-4.0745652,Arrêt,,5.3647534
node/6909225533,0,-4.0961792,[Arret sans nom],,5.3727101
node/6909225534,0,-4.0895635,[Arret sans nom],,5.3742257
node/6909225535,0,-4.0867558,Nestlé,,5.372722
node/6909225536,0,-4.0781781,Arrêt,,5.3745633
node/6909225537,0,-4.0796923,[Arret sans nom],,5.3703887
node/6909225538,0,-4.0786743,Arrêt,,5.3683786
node/6909225539,0,-4.0761986,Direction de la Sotra,,5.3670367
node/6909225540,0,-4.0736157,Arrêt,,5.3628133
node/6909225541,0,-4.0702482,[Arret sans nom],,5.3612471
node/6909225542,0,-4.0678704,Lycée Moderne Yopougon Andokoi,,5.3623019
node/6909225543,0,-4.0667894,Centre Ivoire Couture,,5.3615148
node/6909225544,0,-4.0278578,Gare Nord,,5.3585831
node/6909225545,0,-4.0183049,Gare Sud,,5.3146893
node/6909237619,0,-4.0033954,CHU Treichville,,5.2948194
node/6909237622,0,-3.9881326,Délices de France,,5.301827
node/6909237623,0,-3.9900511,Services Techniques du District,,5.2913004
node/6909237624,0,-3.9994307,PTT Km4,,5.2931333
node/6909237625,0,-4.0141223,Quincaillerie Générale,,5.3023437
node/6909237626,0,-4.0150089,Arrêt,,5.3049356
node/6909237627,0,-4.0161832,Cité Policière,,5.308109
node/6909237631,0,-4.0279602,Gare Nord,,5.3591167
node/6909237632,0,-4.0319963,Station Petro Ivoire,,5.358876
node/6909237633,0,-4.0364602,Terminus 02 Cité Fairmont,,5.3582206
node/6909430718,0,-4.094158,[Arret sans nom],,5.3765208
node/6909430720,0,-4.0668847,Gare CTE,,5.3618706
node/6909430721,0,-4.0678369,Lycée Moderne Yopougon Andokoi,,5.3621938
node/6909430722,0,-4.0710622,Station Total,,5.3607938
node/6909430723,0,-4.0736572,Arrêt,,5.362382
node/6909430724,0,-4.0742996,Arrêt,,5.365409
node/6909430725,0,-4.0764347,Direction de la Sotra,,5.36707
node/6909430726,0,-4.0788862,Arrêt,,5.3683719
node/6909430727,0,-4.080222,Station,,5.3690582
node/6909430728,0,-4.0819788,[Arret sans nom],,5.3699698
node/6909430729,0,-4.0896792,JOMACO,,5.3741086
node/6909430730,0,-4.0958456,Dépôt Yopougon zone Industrielle,,5.3741528
node/6909521603,0,-3.9848298,Hôpital Municipal,,5.2645534
node/6909521604,0,-3.9834323,Groupe Scolaire N'Sikan,,5.2632614
node/6909521605,0,-3.9849267,CIE,,5.257665
node/6909521606,0,-3.9956283,arrêt,,5.2558751
node/6909521607,0,-3.9989162,Gestoci,,5.26373
node/6909521608,0,-4.0062621,Pont de Vridi,,5.2704314
node/6909521609,0,-4.0143099,"Etablissements Rey, Port",,5.2978357
node/6909521610,0,-4.0175241,Sicodis,,5.3005436
node/6909521611,0,-4.0231458,Terminus 32,,5.305037
node/6909521612,0,-4.0211629,Grand Moulin Abidjan,,5.3069377
node/6909521613,0,-4.0179278,Hôpital du Pont,,5.3088247
node/6909521614,0,-4.0117363,"Avenue 11, Rue 12, Treichville",,5.305655
node/6909521615,0,-4.0111588,"Avenue 15, Rue 12, Treichville",,5.3039938
node/6909521616,0,-4.0034158,Paroisse Notre Dame,,5.3040254
node/6909521617,0,-3.9987874,Marché Belleville,,5.3056574
node/6909521620,0,-3.9838718,Gare Marcory,,5.3087649
node/6909546905,0,-3.9871428,Vridi Cité - Terminus 53,,5.266603
node/6909546906,0,-3.9818252,Pharmacie Vridi Port,,5.259526
node/6909546907,0,-3.9892306,Stade de la SIR,,5.2571616
node/6909546908,0,-3.9978983,Vridi-Iran,,5.2588247
node/6909546909,0,-4.0031425,"CPMA, Vridi",,5.2676512
node/6909546910,0,-4.0085496,PALM-CI,,5.277976
node/6909546911,0,-4.0084685,Bolloré,,5.2821643
node/6909546912,0,-4.008455,Siège SOTRA,,5.2864977
node/6909546913,0,-4.008424,Arrêt,,5.292271
node/6909546914,0,-4.0131528,Ciment Bélier,,5.296841
node/6909546915,0,-4.0212547,Port Autonome Abidjan,,5.3029759
node/6909546916,0,-4.0149741,Maison du Congres,,5.309804
node/6909546917,0,-4.0050815,Collège Bosco,,5.3059215
node/6909707221,0,-4.1045,Niangon Sud à droite,,5.3226268
node/6909707223,0,-4.1057378,Carrefour Académie,,5.3233679
node/6909707224,0,-4.1059349,Caféier,,5.325714
node/6909707225,0,-4.1037691,Lubafrique,,5.3310513
node/6909707226,0,-4.1029765,2ème arrêt ANADOR,,5.3338915
node/6909707227,0,-4.1014047,Carrefour Anador,,5.3358784
node/6909707228,0,-4.1004632,Pharmacie Cité Maroc,,5.3404237
node/6909707229,0,-4.0892462,CIE,,5.3407014
node/6909707230,0,-4.0892456,[Arret sans nom],,5.3450164
node/6909707231,0,-4.0875008,Grand Centre,,5.3481316
node/6909707232,0,-4.0874934,Port-Bouët II,,5.3540742
node/6909707233,0,-4.0851103,[Arret sans nom],,5.3561104
node/6909707234,0,-4.0850901,BAE,,5.3604209
node/6909707236,0,-4.0277736,Gare Nord,,5.358951
node/6909707238,0,-4.0183735,Gare Sud,,5.3147518
node/6909737821,0,-4.0049374,Feu du Collège Bosco,,5.3058324
node/6909737822,0,-4.0120606,"Avenue 10, Rue 12, Treichville",,5.3062141
node/6909737824,0,-4.0211598,Grand Moulin Abidjan,,5.3067759
node/6909737825,0,-4.0217286,Siège Port Autonome Abidjan,,5.3033621
node/6909737826,0,-4.0095509,Port Autonome Abidjan,,5.2945614
node/6909737827,0,-4.0082981,Siège SOTRA,,5.2878677
node/6909737828,0,-4.0083516,Bolloré,,5.2820277
node/6909737829,0,-4.00841,Movis,,5.2787
node/6909737830,0,-4.0061063,Pont de Vridi,,5.2705271
node/6909812227,0,-4.0239378,Cité Administrative,,5.3309411
node/6909812228,0,-4.0849641,CHU de Yopougon,,5.3572641
node/6909812229,0,-4.0867444,[Arret sans nom],,5.3552565
node/6909812230,0,-4.0880983,Pharmacie Port-Bouët II,,5.3469666
node/6909812231,0,-4.0891591,[Arret sans nom],,5.3453455
node/6909812232,0,-4.0974297,Mosquée du Maroc,,5.3400138
node/6909812233,0,-4.1003972,Pharmacie Cité Maroc,,5.3401827
node/6909812234,0,-4.1013081,Carrefour Anador,,5.335861
node/6909812235,0,-4.1037999,Lubafrique,,5.3305692
node/6909812236,0,-4.1051263,[Arret sans nom],,5.3273952
node/6909812237,0,-4.1058531,Caféier,,5.32569
node/6909812238,0,-4.1045248,Niangon Sud à droite,,5.3226401
node/6909923471,0,-4.0739979,Siporex-Sicomex,,5.3568101
node/6909923472,0,-4.0740046,Siporex avant le feu,,5.3538004
node/6909923473,0,-4.0732898,William-Ponty,,5.3448074
node/6909923474,0,-4.0732871,Yopougon 16ème Advans,,5.3388868
node/6909923475,0,-4.0733247,Saguidiba,,5.3326109
node/6909923477,0,-4.0735526,Gare Yopougon Kouté,,5.3297734
node/6910224899,0,-3.9936456,Gare Campus Cocody,,5.3463096
node/6910224902,0,-4.0738578,Gare Yopougon Kouté,,5.3297134
node/6910224905,0,-4.0735191,Saguidiba,,5.3315587
node/6910224906,0,-4.0734252,Côte d'Ivoire-Telecom,,5.3344863
node/6910224907,0,-4.0734096,Yopougon 16ème Advans,,5.338834
node/6910224908,0,-4.0734078,Saint André lavage,,5.3418778
node/6910224909,0,-4.0734038,William-Ponty,,5.345666
node/6910224910,0,-4.0741883,Siporex après le feu,,5.3540928
node/6910224911,0,-4.0741772,Siporex-Sicomex,,5.3566819
node/6910272309,0,-4.0031259,CPMA-Vridi,,5.2678334
node/6910272310,0,-3.9977641,Vridi-Iran,,5.2588726
node/6910272311,0,-3.9932473,"SIR, Vridi",,5.2565075
node/6910272312,0,-3.9854582,CIE,,5.2577882
node/6910272313,0,-3.9824273,"Cité CIE, Vridi",,5.2582659
node/6910272314,0,-3.9820028,Temple des Vainqueurs,,5.2600531
node/6910272315,0,-3.9850263,Hôpital Municipal,,5.2644761
node/6910272316,0,-3.9874196,Terminus Cité Vridi,,5.2666602
node/6910518025,0,-4.0228166,Cité Administrative,,5.3313223
node/6910584802,0,-4.0201529,Abobo Gendarmerie,,5.4267852
node/6910703473,0,-4.0632851,Institut des aveugles,,5.350955
node/6910703474,0,-4.0632758,Bel Air,,5.3476916
node/6910703475,0,-4.0622364,Complexe sportif de Yopougon,,5.3418057
node/6910703476,0,-4.0622136,Nouveau quartier,,5.3380456
node/6910703477,0,-4.0621975,Clinique les Oliviers,,5.3333961
node/6910743309,0,-4.061462,Terminus 85,,5.3294751
node/6910743310,0,-4.0623826,Clinique les Oliviers,,5.333826
node/6910743311,0,-4.0623477,Nouveau quartier,,5.3375141
node/6910743312,0,-4.0634635,Bel Air,,5.3460439
node/6910743313,0,-4.0660062,Sable,,5.3556644
node/6910743314,0,-4.0634474,Institut des aveugles,,5.3513983
node/6910755171,0,-4.0804794,Ben,,5.3237979
node/6910755172,0,-4.0764964,Marejea,,5.3255979
node/6910755173,0,-4.0718266,Iris3,,5.3255738
node/6910755174,0,-4.0802502,Yopougon Sideci - Terminus 42,,5.3198733
node/6910755176,0,-4.0667291,Marché Kouté,,5.3242746
node/6910755177,0,-4.0615042,L'usine du camp,,5.3236042
node/6910755178,0,-4.0577316,Stenb,,5.3236336
node/6910755179,0,-4.0535085,Le petit soleil,,5.3222355
node/6910755180,0,-4.0507693,Yopougon Kowëit,,5.3222275
node/6910755181,0,-4.0464583,La faveur,,5.3222395
node/6910755182,0,-4.0439746,Pharmacie Chenain,,5.3198693
node/6910755183,0,-4.0439826,Iris 3,,5.3171339
node/6910755184,0,-4.0440027,Bon choix,,5.3137348
node/6910794085,0,-4.0439558,Santé Village,,5.3095505
node/6910794088,0,-4.0353389,Gare Abobo-Doumé,,5.3101983
node/6910797790,0,-4.01971,Arrêt,,5.4258812
node/6910797791,0,-4.0128435,Arrêt,,5.4182684
node/6910797792,0,-4.0054353,Arrêt,,5.4156089
node/6910797793,0,-3.999584,Arrêt,,5.4155902
node/6910797794,0,-3.9856156,Terminus 81/82,,5.4038607
node/6910797795,0,-3.9792073,BICICI,,5.4031254
node/6910797796,0,-3.9780821,Arrêt,,5.4011881
node/6910797797,0,-3.9776878,Arrêt,,5.3988302
node/6910797798,0,-3.977036,Arrêt,,5.3963428
node/6910797799,0,-3.9761992,Arrêt,,5.3932466
node/6910797800,0,-3.971504,Arrêt,,5.3946558
node/6910797801,0,-3.9649835,Cité Diaspora,,5.4000986
node/6910797802,0,-3.9621642,SOCIAM,,5.4025338
node/6910797803,0,-3.9620463,SOCIAM,,5.4022965
node/6910797804,0,-3.9570893,CHU Angré,,5.399963
node/6910797805,0,-4.0022783,Arrêt,,5.4154527
node/6910797806,0,-3.9570173,CHU Angré,,5.3997812
node/6910797807,0,-3.9592423,Arrêt,,5.4003923
node/6910797808,0,-3.960527,Arrêt,,5.4011774
node/6910797809,0,-3.9657399,Arrêt,,5.3991713
node/6910797810,0,-3.9689626,Arrêt,,5.3964463
node/6910797811,0,-3.9736088,Arrêt,,5.3933681
node/6910797812,0,-3.9754415,Arrêt,,5.3929368
node/6910797813,0,-3.9769683,Arrêt,,5.3954823
node/6910797814,0,-3.9772754,Arrêt,,5.3963101
node/6910797815,0,-3.9781552,Arrêt,,5.4003569
node/6910797816,0,-3.978471,Arrêt,,5.4022415
node/6910797817,0,-3.9794534,BICICI,,5.4029505
node/6910797818,0,-3.9898295,Arrêt,,5.4042516
node/6910797819,0,-3.9911934,Saint Ambroise,,5.4070126
node/6910797820,0,-3.9941237,Arrêt,,5.4103992
node/6910797821,0,-3.9953287,Arrêt,,5.4136035
node/6912410269,0,-4.0043772,Lycée Classique d'Abidjan,,5.3317315
node/6912410270,0,-4.0047695,Hôtel Ivoire,,5.3286968
node/6912410271,0,-4.0029871,Hôtel Ivoire,,5.3278806
node/6912410272,0,-4.0032565,Hôtel Ivoire,,5.3277329
node/6912410273,0,-4.0045047,Lycée Classique d'Abidjan,,5.3327049
node/6912410274,0,-4.0037108,SODEMI,,5.3439798
node/6912410275,0,-4.0095505,Pont lycée technique,,5.3477876
node/6912654329,0,-4.0751626,Carrefour Express,,5.3290976
node/6912729876,0,-4.0012691,BMW,,5.3581253
node/6912729877,0,-3.998725,SOCITECH,,5.3601195
node/6912729878,0,-3.9976354,Macaci,,5.3648148
node/6912729879,0,-3.9983993,Mobil 2 Plateaux,,5.367356
node/6912729880,0,-3.9984268,Sococé 2 Plateaux,,5.3718047
node/6912729881,0,-3.9985198,BOA,,5.3745478
node/6912729882,0,-3.9985338,Snedai,,5.3755833
node/6912729883,0,-3.9976312,Carrefour Duncan,,5.3776569
node/6912729884,0,-3.9943103,Las Palmas,,5.3809527
node/6912805206,0,-4.0792393,Pharmacie du Marché,,5.3388207
node/6912805207,0,-4.0765581,[Arret sans nom],,5.3373258
node/6912805208,0,-4.0752894,Patisserie,,5.3384061
node/6912805209,0,-4.0652525,Ex Chaine Avion Rue Princesse,,5.3467623
node/6912805210,0,-4.0599974,Camp FRCI,,5.3408189
node/6912805211,0,-4.0572368,Carrefour Marché,,5.3398655
node/6912805212,0,-4.0549944,Carrefour Lama Fofana,,5.3373205
node/6912805213,0,-4.0550186,Banque Atlantique,,5.3337105
node/6912805214,0,-4.0520655,Offoumou Yapo,,5.3316575
node/6912805215,0,-4.0497521,Tizra,,5.3293394
node/6912805216,0,-4.0494691,[Arret sans nom],,5.3264792
node/6912805217,0,-4.0494999,Arrêt,,5.3247299
node/6912805219,0,-4.0354465,Gare Abobo-Doumé,,5.3104606
node/6912820385,0,-3.9932407,Carrefour Opéra,,5.3847656
node/6912820386,0,-3.9927523,Mahikari,,5.3888111
node/6912820387,0,-3.992269,Ambassade de Chine,,5.3926338
node/6912820388,0,-3.9921141,Les Oscars,,5.3942154
node/6912820389,0,-3.9918337,BHCI,,5.3963811
node/6912820390,0,-3.9913221,Shawarma House,,5.4005109
node/6912820391,0,-3.9909124,Petro Ivoire Angré,,5.4038172
node/6912820392,0,-3.9882535,Notre Dame,,5.4042033
node/6912820393,0,-3.9819806,FIRDA,,5.4034748
node/6912820394,0,-3.9765606,"Ancien Terminus 90, Les Arcades",,5.4033098
node/6912820395,0,-3.9728354,Soleil 2,,5.4006902
node/6912820396,0,-3.9694727,Clinique Médicale Sainte Justine,,5.3971939
node/6912820397,0,-3.9648829,Cité Diaspora,,5.3998522
node/6912820398,0,-3.9697282,Clinique Médicale Sainte Justine,,5.3972237
node/6912820399,0,-3.9764213,"Ancien Terminus 90, Les Arcades",,5.4031598
node/6912820400,0,-3.9820585,FIRDA,,5.4033208
node/6912820401,0,-3.9856793,Termunis 81/82,,5.4037772
node/6912820402,0,-3.9887434,Notre Dame,,5.4041375
node/6912820403,0,-3.9906882,Petro Ivoire Angré,,5.4037567
node/6912820404,0,-3.9911377,Carrefour 22è,,5.4002961
node/6912820405,0,-3.9915941,BHCI,,5.3965825
node/6912820406,0,-3.9920829,Ambassade de Chine,,5.3926201
node/6912820407,0,-3.9924668,Mahikari,,5.3895654
node/6912820408,0,-3.9930996,Opéra,,5.3845481
node/6912820409,0,-3.9940546,Las Palmas,,5.3809502
node/6912820410,0,-3.9970644,Carrefour Duncan,,5.3779505
node/6912820411,0,-3.9983567,Le Roi du Pain,,5.3753472
node/6912820412,0,-3.9983278,Sococé 2 Plateaux,,5.3725038
node/6912820413,0,-3.9981432,Mobil 2 Plateaux,,5.3677225
node/6912820414,0,-3.9973648,Macaci,,5.3654376
node/6912820415,0,-4.0012391,Saint Jacques,,5.3574699
node/6912820416,0,-4.0018639,Palm Club,,5.3525544
node/6912820417,0,-4.0022742,Carrefour la Vie,,5.3493692
node/6912820418,0,-4.0028093,Arrêt,,5.344562
node/6913011676,0,-4.0255438,Sitarail,,5.3266074
node/6913011677,0,-4.073499,Gare Yopougon Kouté,,5.3293875
node/6913190443,0,-4.0441328,Bon choix,,5.3134744
node/6913190444,0,-4.043768,Santé Village,,5.3087112
node/6913190445,0,-4.0440879,Iris 3,,5.3166799
node/6913190446,0,-4.0441167,Arrêt,,5.3208014
node/6913190447,0,-4.0468311,La faveur,,5.3221154
node/6913190448,0,-4.0496448,Arrêt,,5.323918
node/6913190449,0,-4.0503167,Commissariat de Police du 19ᵉ Arrondissement,,5.3270841
node/6913190450,0,-4.0501732,Tizra,,5.3295798
node/6913190451,0,-4.0519957,Offoumou Yapo,,5.3313998
node/6913190452,0,-4.0550937,La Poste,,5.3337753
node/6913190453,0,-4.055093,Pharmacie Sacré-cœur,,5.3369773
node/6913190454,0,-4.058547,Pharmacie Béatitude,,5.3401473
node/6913190455,0,-4.0608235,Nouveau quartier,,5.3407362
node/6913190456,0,-4.0650474,Ex Chaine Avion Rue Princesse,,5.3466167
node/6913190457,0,-4.0678006,Newton,,5.3447353
node/6913190458,0,-4.0745628,Marche Sicogi,,5.3395304
node/6913190459,0,-4.0751928,Patisserie,,5.3379928
node/6913190460,0,-4.0770331,Pharmacie du Marché,,5.3372574
node/6913190461,0,-4.0806585,Terrain Sogefiha,,5.3372711
node/6913201897,0,-4.0733126,Antenne,,5.3335416
node/6913201898,0,-4.0757574,Cabine Bleue,,5.3290163
node/6913201899,0,-4.0799806,Akadjoba,,5.3243327
node/6913201900,0,-4.0871836,Saint Pierre,,5.3239194
node/6913201901,0,-4.0925668,EPP Niangon,,5.3233739
node/6913201902,0,-4.0944323,Arrêt,,5.3197171
node/6913201903,0,-4.0947904,Arrêt,,5.3163701
node/6913201904,0,-4.0928994,Arrêt Yop 38,,5.3152357
node/6913201907,0,-4.0900334,Terminus 27,,5.315995
node/6913201908,0,-4.0934497,Arrêt,,5.3150643
node/6913201909,0,-4.0948509,EPP SICOGI Niangon Sud,,5.3172602
node/6913201910,0,-4.0943199,Carrefour Marché,,5.3202551
node/6913201911,0,-4.0926667,EPP Niangon,,5.3233885
node/6913201912,0,-4.0869619,Saint Pierre,,5.3240967
node/6913201913,0,-4.0797426,Akadjoba,,5.3246783
node/6913201914,0,-4.0762905,Arrêt de bus,,5.3287702
node/6913201915,0,-4.0184952,Gare Sud,,5.3146172
node/6913291219,0,-4.0183564,Gare Sud,,5.3144986
node/6913703797,0,-3.9977011,CNTG-BNETD,,5.329485
node/6913703798,0,-3.9970399,UCAO,,5.3310059
node/6913703799,0,-3.9973538,Maison du PDCI-RDA,,5.3350719
node/6913703800,0,-3.9997195,Piscine d’État de Treichville,,5.3084936
node/6913703801,0,-3.990551,NSIA,,5.3074734
node/6913703802,0,-3.9837714,Gare Marcory,,5.3086966
node/6913703803,0,-3.9975172,Maison du Parti,,5.3353656
node/6913703804,0,-3.9969162,UCAO,,5.3310313
node/6913703805,0,-3.9976804,CNTG-BNETD,,5.3293836
node/6913857608,0,-4.0658826,Sable,,5.3557108
node/6913857611,0,-4.0646331,Complexe Sportif de Yopougon,,5.3407344
node/6913857612,0,-4.0665987,Mairie de Yopougon,,5.3424009
node/6913929664,0,-4.0375561,La Marine,,5.3443401
node/6913929665,0,-4.0262003,Sitarail,,5.3278599
node/6913929666,0,-4.0182404,Gare Sud,,5.3146272
node/6913929668,0,-4.0376761,La Marine,,5.3441859
node/6913929669,0,-4.0737128,Gare Yopougon Kouté,,5.3295615
node/6913931703,0,-4.0216157,Gendarmerie,,5.3367091
node/6913974340,0,-4.0217222,Gendarmerie,,5.3369705
node/6915341517,0,-3.9728972,Soleil 2,,5.400545
node/6915341518,0,-3.9837323,Arrêt,,5.4035247
node/6915341519,0,-3.9906836,Arrêt,,5.4062326
node/6915341520,0,-3.9894234,Arrêt,,5.4297269
node/6915341521,0,-3.9891222,Arrêt,,5.4313416
node/6915341523,0,-3.9725804,Abobo Biabou,,5.4564179
node/6915341525,0,-3.9726482,Abobo Biabou,,5.4564283
node/6915341526,0,-3.978184,Arrêt,,5.4454571
node/6915341527,0,-3.9810371,Arrêt,,5.4430187
node/6915341528,0,-3.9831075,Arrêt,,5.441543
node/6915341529,0,-3.9847859,Arrêt,,5.4403681
node/6915341530,0,-3.9859783,Arrêt,,5.4391313
node/6915341531,0,-3.9875153,Arrêt,,5.4368688
node/6915341532,0,-3.987991,Arrêt,,5.4356843
node/6915341533,0,-3.9883619,Arrêt,,5.434457
node/6915341534,0,-3.9887503,Arrêt,,5.4327625
node/6915341535,0,-3.9889419,Arrêt,,5.4312302
node/6915341536,0,-3.9892581,Arrêt,,5.4293215
node/6915341537,0,-3.9896961,Arrêt,,5.4264243
node/6915341538,0,-3.9902515,Arrêt,,5.4229496
node/6915341539,0,-3.9905681,Arrêt,,5.4208149
node/6915341540,0,-3.9907254,Arrêt,,5.4195345
node/6915341541,0,-3.9909298,Arrêt,,5.4182159
node/6915341542,0,-3.9922122,Arrêt,,5.4158878
node/6915341543,0,-3.9928597,Arrêt,,5.4154923
node/6915341544,0,-3.9947036,Arrêt,,5.4148205
node/6915341545,0,-3.9952879,Arrêt,,5.4141247
node/6915341546,0,-3.9932262,Arrêt,,5.409531
node/6915341547,0,-3.990564,Petro Ivoire Angré,,5.4050885
node/6915341548,0,-3.9829561,Arrêt,,5.403643
node/6915341549,0,-3.9807645,Arrêt,,5.4033522
node/6915487638,0,-3.96346,9 Kilo,,5.3585446
node/6915487639,0,-3.9586683,Rond-Point de la Palmeraie,,5.360974
node/6915487640,0,-3.9598948,Carrefour de la Gendarmerie,,5.3606149
node/6915487641,0,-3.9665508,Cap Nord,,5.3568703
node/6915487642,0,-3.9779824,Riviera 2,,5.3532599
node/6915487643,0,-3.9881887,École de Police,,5.3502292
node/6915487644,0,-3.9943092,École de la Gendarmerie,,5.3492233
node/6915487645,0,-4.0018322,Carrefour de la Vie,,5.3485522
node/6915647682,0,-4.0185375,Mairie d'ABOBO,,5.4217637
node/6915647683,0,-4.0212736,Arrêt,,5.4270593
node/6915647684,0,-4.0241622,Arrêt,,5.4303911
node/6915696792,0,-3.9635319,9 Kilo,,5.3587403
node/6915696795,0,-3.9620358,Chic Shop,,5.3596047
node/6915696796,0,-3.9657802,Cap Nord,,5.3574857
node/6915696797,0,-3.9881605,École de Police,,5.3504609
node/6915696798,0,-3.9916044,Carrefour CHU,,5.3494956
node/6915696799,0,-3.994457,École de la Gendarmerie,,5.3493834
node/6915696800,0,-4.0029649,Carrefour de la Vie,,5.3485982
node/6915722685,0,-4.0266778,Arrêt,,5.4333404
node/6915722686,0,-4.0446977,Anokoi,,5.4390733
node/6915722687,0,-4.0485036,PK 18 Agripac,,5.4434752
node/6915722688,0,-4.0512502,Arrêt,,5.4482915
node/6915722689,0,-4.0529903,Arrêt,,5.4503535
node/6915722690,0,-4.0545715,Arrêt,,5.4565524
node/6915722691,0,-4.054497,Arrêt,,5.4574448
node/6915722692,0,-4.0544278,Arrêt,,5.465098
node/6915722693,0,-4.0540279,Arrêt,,5.4662168
node/6915722694,0,-4.0530974,Arrêt,,5.4680953
node/6915722695,0,-4.0538658,Arrêt,,5.4794949
node/6915722696,0,-4.0513358,Arrêt,,5.4828953
node/6915722697,0,-4.0513476,Arrêt,,5.4837187
node/6915722698,0,-4.05146,Arrêt,,5.4866626
node/6915722699,0,-4.0515593,Arrêt,,5.4890597
node/6915722700,0,-4.0516047,Arrêt,,5.4904279
node/6915722701,0,-4.0516233,Arrêt,,5.490915
node/6915722702,0,-4.051639,Arrêt,,5.4914503
node/6915722703,0,-4.0516636,Arrêt,,5.4928779
node/6915722704,0,-4.0517658,Arrêt,,5.4940805
node/6915722705,0,-4.0517794,Arrêt,,5.495095
node/6915722706,0,-4.0516644,Arrêt,,5.4960474
node/6915722707,0,-4.0515036,Arrêt,,5.4970767
node/6915722708,0,-4.051438,Arrêt,,5.497669
node/6915722709,0,-4.0513918,Arrêt,,5.4979794
node/6915722710,0,-4.0516497,Arrêt,,5.4995751
node/6915722711,0,-4.0519247,Arrêt,,5.500507
node/6915722712,0,-4.0520934,Arrêt,,5.5011338
node/6915722713,0,-4.0522125,Arrêt,,5.5015989
node/6915722714,0,-4.0525268,Arrêt,,5.5026911
node/6915722715,0,-4.0530594,Arrêt,,5.5045432
node/6915722716,0,-4.0532829,Arrêt,,5.5053444
node/6915722717,0,-4.0531365,Mairie d'Anyama,,5.5064599
node/6915722719,0,-4.0530408,Mairie d'Anyama,,5.5064064
node/6915722720,0,-4.0513828,Arrêt,,5.4976427
node/6915722721,0,-4.0523687,Arrêt,,5.5027177
node/6915722722,0,-4.0514357,Arrêt,,5.4994894
node/6915722723,0,-4.0516383,Arrêt,,5.4949787
node/6915722724,0,-4.051407,Arrêt,,5.4888603
node/6915722725,0,-4.0513417,Arrêt,,5.4863031
node/6915722726,0,-4.0512201,Arrêt,,5.4825896
node/6915722727,0,-4.0531887,Arrêt,,5.479955
node/6915722728,0,-4.0552147,Arrêt A l'Ecole,,5.4757466
node/6915722729,0,-4.0531044,Arrêt Contrôle,,5.470731
node/6915722730,0,-4.0534141,Arrêt,,5.4669354
node/6915722731,0,-4.053759,Arrêt Ancienne Gendarmerie,,5.4611068
node/6915722732,0,-4.0544875,Arrêt,,5.4526174
node/6915722733,0,-4.0526523,Arrêt Ancien Marché,,5.4503748
node/6915722734,0,-4.0510764,Arrêt Terminus,,5.4483606
node/6915722735,0,-4.0491425,Arrêt Agripac,,5.4449974
node/6915722736,0,-4.0484067,Arrêt,,5.4436482
node/6916152424,0,-4.0057551,Terminus dépôt SOTRA,,5.28758
node/6916152425,0,-4.0084018,Pharmacie du Port,,5.2890666
node/6916152426,0,-4.0033572,Arrêt du CHU,,5.2961604
node/6916152427,0,-4.0024808,Gare de Bassam,,5.2991407
node/6916181080,0,-4.0026565,Arrêt,,5.3478959
node/6916181081,0,-3.9983308,Grande Pharmacie /Terminus 300FCFA,,5.3700062
node/6916280433,0,-3.9930971,Arrêt,,5.4157357
node/6916280434,0,-3.9940399,Terminus Abobo Baoulé,,5.4149921
node/6916280435,0,-3.9948875,Pharmacie Actuelle,,5.4129627
node/6916280436,0,-3.9939447,Arrêt,,5.4103431
node/6916280437,0,-3.9923863,Arrêt,,5.4085794
node/6916280438,0,-3.9910921,Saint Ambroise,,5.4071215
node/6916280439,0,-3.990494,Arrêt,,5.4055233
node/6916280440,0,-3.9910264,Arrêt,,5.4011787
node/6916280441,0,-3.9912618,Carrefour 22ème,,5.3991513
node/6916280442,0,-3.991524,SODECI,,5.3973362
node/6916280443,0,-3.9918311,Paris Baguette,,5.3945043
node/6916280444,0,-3.9927256,Arrêt,,5.3875127
node/6916280445,0,-3.9952144,Arrêt,,5.3797969
node/6916280446,0,-3.9983542,NSIA,,5.3737207
node/6916280447,0,-3.9981216,SGBGI,,5.3700155
node/6916280448,0,-4.002571,Cité BAD,,5.3465781
node/6916280449,0,-4.0035403,CIE,,5.3386878
node/6917146061,0,-3.9865047,Commissariat du 9 ème,,5.3065218
node/6917146062,0,-3.9857063,Commissariat du 9 ème,,5.3061086
node/6917146063,0,-3.9807831,King Cash,,5.3034179
node/6917146064,0,-3.9776047,Cabinet Médical du 3ème pont,,5.3015677
node/6917146065,0,-3.9757915,Marché de Marcory,,5.3005869
node/6917146066,0,-3.9722389,Paroisse Sainte Bernadette,,5.2986259
node/6917146067,0,-3.9714765,Pharmacie Bagoué,,5.2982013
node/6917146068,0,-3.9688084,Bank of Africa,,5.2968312
node/6917146069,0,-3.9650103,Arrêt,,5.2965895
node/6917146070,0,-3.9608221,Arrêt,,5.2975636
node/6917146071,0,-3.9572333,Place Inchallah,,5.2983628
node/6917146072,0,-3.9531506,Koumassi Prodomo,,5.299281
node/6917146073,0,-3.9494388,Gare Mesano,,5.3001329
node/6917146074,0,-3.9476752,Koumassi Mesano,,5.3008577
node/6917146075,0,-3.9483867,Koumassi Mesano,,5.3002935
node/6917146076,0,-3.9505841,Station Petro Ivoire,,5.2998074
node/6917146077,0,-3.9543702,Place Inchallah,,5.2989496
node/6917146078,0,-3.9585451,Arrêt,,5.2980163
node/6917146079,0,-3.9619419,Arrêt,,5.2972737
node/6917146080,0,-3.9660523,Arrêt,,5.2962808
node/6917146081,0,-3.9687629,Bank of Africa,,5.296728
node/6917146082,0,-3.9712863,Pharmacie Bagoué,,5.2980069
node/6917146083,0,-3.9759814,Marché de Marcory,,5.3006211
node/6917146084,0,-3.9778785,Cabinet Médical du 3ème pont,,5.3016585
node/6917151685,0,-3.9828404,Arrêt,,5.3044464
node/6917151686,0,-3.9860886,Commissariat du 9 ème,,5.3062161
node/6917151687,0,-3.988849,Arrêt,,5.3077309
node/6917151688,0,-3.9904413,Yan Auto Ecole,,5.3084636
node/6919194336,0,-4.0352896,Gare Abobo-Doumé,,5.3106101
node/6919312942,0,-4.0923844,Cité Bracodi Rte Cité verte,,5.3270854
node/6919312943,0,-4.1119954,Cité Verte,,5.332209
node/6919312945,0,-4.109973,Collège Sebaco,,5.3316148
node/6919312946,0,-4.1058974,Cité Bracodi Rte Cité verte,,5.3306787
node/6919312947,0,-4.1035223,Banque BNI,,5.3296893
node/6919312948,0,-4.100539,Le repère,,5.3284241
node/6919312949,0,-4.0976201,Carrefour de Niangon,,5.3278005
node/6919312950,0,-4.0812954,Akadjoba,,5.3241547
node/6919312951,0,-4.0351267,Gare Abobo-Doumé,,5.3103655
node/6919327587,0,-4.053652,Le petit soleil,,5.322126
node/6919327588,0,-4.0573213,Blé Doré,,5.3235388
node/6919327589,0,-4.0669544,Marché Kouté,,5.3241224
node/6919327590,0,-4.0710314,Carrefour Kouté,,5.3251706
node/6919327591,0,-4.0761933,Marejea,,5.325455
node/6919327593,0,-4.0818366,Akadjoba,,5.3238646
node/6919327594,0,-4.0914322,Arrêt,,5.3264405
node/6919327595,0,-4.0976496,Carrefour de Niangon,,5.327729
node/6919327596,0,-4.1005786,Le repère,,5.3283566
node/6919327597,0,-4.1035169,Top Qualitée,,5.3295851
node/6919327598,0,-4.1063239,Cité Bracodi Rte Cité verte,,5.3307695
node/6919758025,0,-3.9831407,Arrêt,,5.2982594
node/6919758026,0,-3.9792079,Arrêt,,5.2961308
node/6919758027,0,-3.9763809,Arrêt,,5.2945624
node/6919758028,0,-3.9743974,Arrêt,,5.293456
node/6919758029,0,-3.9712223,Arrêt,,5.2927669
node/6919758030,0,-3.9690283,Arrêt,,5.2932236
node/6919758031,0,-3.965347,Arrêt,,5.2940469
node/6919758032,0,-3.9603108,Arrêt,,5.2951953
node/6919758033,0,-3.9565101,Arrêt,,5.2961324
node/6919758034,0,-3.9526269,Sogefia,,5.297599
node/6919758035,0,-3.9478318,Arrêt,,5.2987064
node/6919758036,0,-3.9469644,Station Petro Ivoire,,5.3015424
node/6919758037,0,-3.9453759,Arrêt,,5.3043266
node/6919758038,0,-3.946713,Bon Samaritain,,5.3080062
node/6919758039,0,-3.9473403,Pharmacie Fanny,,5.3099762
node/6919758040,0,-3.9466942,Patisserie MC,,5.3109106
node/6919758041,0,-3.9450346,Terminus 05 Lycée Municipal de Koumassi,,5.311165
node/6924851825,0,-4.0106387,"Avenue 19, Rue 12, Treichville",,5.3023303
node/6924851826,0,-4.0115547,FIESTA,,5.3047639
node/6924851828,0,-4.0006757,Treichville Entente,,5.3028704
node/6924851829,0,-4.0016802,Nostalgie,,5.3015791
node/6924851830,0,-4.003555,Banque Bicici,,5.300882
node/6924851831,0,-4.0062869,[Arret sans nom],,5.2999593
node/6924851833,0,-4.0277536,Gare Nord,,5.3586294
node/6924979791,0,-4.0106307,"Avenue 19, Rue 12, Treichville",,5.3025272
node/6924979792,0,-4.0062426,Pharmacie de l'Avenue 27,,5.3029946
node/6924979794,0,-4.0008245,Treichville Entente,,5.3032777
node/6926746685,0,-4.0208888,[Arret sans nom],,5.3296238
node/6926746686,0,-4.0236032,Cité Administrative,,5.3309876
node/6926746688,0,-4.018979,Terminus Gare Sud,,5.3149603
node/6926746689,0,-4.0096436,Station Total,,5.3018048
node/6926746749,0,-3.9737989,Arrêt,,5.4538834
node/6926746750,0,-3.9864522,Arrêt,,5.4385456
node/6926746751,0,-3.9903197,Arrêt,,5.4222388
node/6926746752,0,-3.9996626,Arrêt,,5.4154549
node/6926746753,0,-4.0016378,Arrêt,,5.4154484
node/6926746754,0,-4.0054049,Arrêt,,5.4155231
node/6926746755,0,-4.0071858,Samaké,,5.4152696
node/6926746757,0,-4.0280449,Gare Nord,,5.3590439
node/6926746758,0,-4.0019605,Arrêt,,5.4155963
node/6926746759,0,-3.9928882,Arrêt,,5.4156232
node/6926746760,0,-3.9908193,Sotra,,5.4196603
node/6926746761,0,-3.9904401,Arrêt,,5.422222
node/6926746762,0,-3.9898022,Arrêt,,5.426491
node/6926746763,0,-3.9886816,Arrêt,,5.43368
node/6926746764,0,-3.9873449,Arrêt,,5.4374054
node/6926746765,0,-3.9850082,Arrêt,,5.4402786
node/6926746766,0,-3.9807703,Arrêt,,5.443381
node/6926746767,0,-3.9785569,Arrêt,,5.4451883
node/6926943107,0,-3.946597,Bon Samaritain,,5.3079127
node/6926943108,0,-3.9451392,Pharmacie Campement,,5.3050831
node/6926943109,0,-3.9835873,Hôpital Général de Marcory,,5.3011838
node/6926943110,0,-4.0046641,Pharmacie Notre-Dame,,5.3034579
node/6926943111,0,-4.0185633,Gare Sud,,5.3146776
node/6926943112,0,-4.0236086,Cité Administrative,,5.3311928
node/6927022357,0,-3.9840318,[Arret sans nom],,5.3051694
node/6927037611,0,-3.9930649,Arrêt,,5.4159386
node/6927037612,0,-4.0063405,Arrêt,,5.408251
node/6927037613,0,-4.0063848,Arrêt,,5.4057129
node/6927037614,0,-4.0064518,Arrêt,,5.4013897
node/6927037615,0,-4.0057893,Arrêt,,5.3930717
node/6927037616,0,-4.0056726,Arrêt,,5.3875774
node/6927037617,0,-4.0066168,Arrêt,,5.3801858
node/6927037618,0,-4.0168427,Arrêt,,5.3625903
node/6927037619,0,-4.0169801,Pharmacie le Belier,,5.3503578
node/6927037620,0,-4.0178358,Fraternité Matin,,5.3456673
node/6927037621,0,-4.0237561,Arrêt,,5.3411247
node/6927037622,0,-4.0237963,Arrêt,,5.3372751
node/6927037623,0,-4.0238252,Arrêt,,5.3339228
node/6927037625,0,-4.0238251,Cité Administrative,,5.3310139
node/6927037626,0,-4.0238861,Arrêt,,5.3339515
node/6927037627,0,-4.0238741,Ministère de la défense,,5.3377117
node/6927037628,0,-4.0161668,Arrêt,,5.3557539
node/6927037629,0,-4.0068716,Arrêt,,5.379605
node/6927037630,0,-4.0059958,Arrêt,,5.386285
node/6927037631,0,-4.0065437,Arrêt,,5.4018603
node/6927037633,0,-3.9933257,Abobo Belleville,,5.4158855
node/6927327302,0,-4.0125125,Arrêt,,5.3434193
node/6927327303,0,-4.0103402,Arrêt,,5.346265
node/6927327304,0,-4.0088409,Arrêt,,5.3494085
node/6927327305,0,-4.0044479,Arrêt,,5.3529759
node/6927327306,0,-3.989773,Arrêt,,5.4043844
node/6927327307,0,-3.9851483,Arrêt,,5.4048944
node/6927327308,0,-3.9867901,Arrêt,,5.4082838
node/6927327309,0,-3.9890592,Arrêt,,5.407261
node/6927327310,0,-4.0043218,Arrêt,,5.3528041
node/6927327311,0,-4.0085859,Arrêt,,5.3493597
node/6927327312,0,-4.0102683,Arrêt,,5.3461658
node/6927327313,0,-4.0124663,Polyclinique,,5.3433536
node/6927327314,0,-4.0186967,Gare Sud,,5.3147983
node/6927330411,0,-3.9464354,Campement,,5.3022414
node/6927330412,0,-3.9450815,Terminus 05 Lycée Municipal de Koumassi,,5.3120389
node/6927330413,0,-3.9472561,Pharmacie Fanny,,5.3099838
node/6927330414,0,-4.0047298,Arrêt,,5.3362229
node/6927330416,0,-3.9938503,Gare Campus Cocody,,5.3462362
node/6927544633,0,-3.9972169,INSAAC,,5.3463523
node/6927544634,0,-4.0030417,Saint Jean,,5.3359628
node/6927544636,0,-4.0029552,Saint Jean,,5.3358129
node/6927544637,0,-3.9970998,Gendarmerie,,5.3482687
node/6927600976,0,-4.0175371,Arrêt,,5.3536864
node/6927600977,0,-4.0250561,Mirador,,5.3567305
node/6927631763,0,-4.0241115,Arrêt SICOGI,,5.3566458
node/6927694921,0,-4.0275494,Gare Nord,,5.3592856
node/6927701716,0,-3.9971908,Arrêt,,5.3470894
node/6928179123,0,-3.9700449,Terminus Riviera 2,,5.3534453
node/6928179124,0,-3.9736351,Cité étudiante Riviera 2,,5.3533983
node/6928179125,0,-3.9780678,Riviera 2,,5.3525929
node/6928179126,0,-3.9805625,Petite Mosquée Riviéra Jardin,,5.3512739
node/6928250859,0,-3.9803499,Petite Mosquée Riviéra Jardin,,5.3516026
node/6928250860,0,-3.9781867,Riviera 2,,5.3526374
node/6928250861,0,-3.9761267,Arrêt,,5.3530707
node/6928250862,0,-3.9702004,Terminus Riviera 2,,5.3534857
node/6928681599,0,-3.9975737,Terminus Vridi-Iran,,5.2563753
node/6928681601,0,-4.0101948,Arrêt Cuirasse Ciment,,5.2947326
node/6928681602,0,-4.0279685,Gare Nord,,5.3588804
node/6928704112,0,-4.0228924,Terminus 32,,5.3050571
node/6928704113,0,-4.0170398,[Arret sans nom],,5.3002851
node/6928704114,0,-4.0140854,"Etablissements Rey, Port",,5.29778
node/6928704115,0,-3.9995223,Arrêt Bolloré logistique,,5.264595
node/6928704117,0,-3.9975522,Terminus Vridi-Iran,,5.2562337
node/6929796960,0,-4.0182207,Gare Sud,,5.3143818
node/6929849943,0,-4.0189046,Terminus Gare Sud,,5.314962
node/6930487819,0,-3.9888954,Arrêt,,5.3078566
node/6930917942,0,-3.8943455,Station Corlay Bingerville,,5.3612016
node/6930917943,0,-3.9581935,Après barrage,,5.3618466
node/6930917944,0,-3.9537437,Dalia,,5.364055
node/6930917945,0,-3.9497378,Église Apostolique de Côte d'Ivoire,,5.3653603
node/6930917946,0,-3.94563,Camp Militaire d'Akouédo,,5.3673945
node/6930917947,0,-3.9389929,Carrefour Faya,,5.370105
node/6930917948,0,-3.9347483,Résidence Genie 2000,,5.3712573
node/6930917949,0,-3.9301188,Optic 2000,,5.3725084
node/6930917950,0,-3.9237472,Jules Verne,,5.3741413
node/6930917951,0,-3.9108525,Pharmacie Saint Sylvestre,,5.3718715
node/6930917952,0,-3.9083956,Cité Hévéas,,5.3645064
node/6930917953,0,-3.9031767,Université de Cocody Pole Scientifique,,5.3606115
node/6930917954,0,-3.8979524,CIE,,5.360275
node/6930917955,0,-3.8963887,[Arret sans nom],,5.360916
node/6930917956,0,-3.8909747,Lycée Garçon de Bingerville,,5.3577634
node/6930917957,0,-3.8866322,Carrefour Marché,,5.3574363
node/6930917958,0,-3.8843503,Espace Orange,,5.3583363
node/6930917959,0,-3.8841063,Hôpital Mère-Enfant de Bingerville,,5.360674
node/6930917961,0,-3.886655,Carrefour Marché,,5.3573589
node/6930917962,0,-3.8908299,Lycée Garçon de Bingerville,,5.3576746
node/6930917963,0,-3.8980114,CIE,,5.3601255
node/6930917964,0,-3.9020951,Université de Cocody Pole Scientifique,,5.360215
node/6930917965,0,-3.9084667,Cité Hévéas,,5.3643261
node/6930917966,0,-3.9097783,Cité Marina,,5.368265
node/6930917967,0,-3.9108391,Arrêt,,5.3714883
node/6930917968,0,-3.9233838,Jules Verne,,5.3740098
node/6930917969,0,-3.9324215,Coris Bank,,5.3716378
node/6930917970,0,-3.9379911,Arrêt,,5.3701704
node/6930917971,0,-3.9456984,Camp Militaire d'Akouédo,,5.3671088
node/6930917972,0,-3.9528454,Arrêt,,5.3640882
node/6930917973,0,-3.9579964,Après barrage,,5.3617224
node/6931151021,0,-3.94723,Arrêt,,5.2993777
node/6931151022,0,-3.9523798,Sogefia,,5.2975523
node/6931151023,0,-3.9571428,Arrêt,,5.2958991
node/6931151024,0,-3.9596352,Pharmacie Saint François,,5.2952895
node/6931151025,0,-3.9646348,Grande Pharmacie Iroko,,5.2941237
node/6931151026,0,-3.9695299,Arrêt,,5.2929966
node/6931151027,0,-3.971683,Pharmacie Du Boulevard Du Gabon,,5.2924858
node/6931151028,0,-3.9757097,Polyclinique La Madone,,5.2940696
node/6931151029,0,-3.9801776,Arrêt,,5.2965781
node/6931151030,0,-3.9828604,Arrêt,,5.298031
node/6931151031,0,-4.027668,Gare Nord,,5.3590066
node/6931273195,0,-3.9540428,Koumassi Sicogi - Dépôt SOTRA,,5.2873212
node/6931273196,0,-3.964256,[Arret sans nom],,5.2849829
node/6931273197,0,-3.9651793,[Arret sans nom],,5.2875055
node/6931273198,0,-3.9684516,Arrêt,,5.2873493
node/6931273199,0,-3.9694119,[Arret sans nom],,5.2883388
node/6931273200,0,-3.9762314,Sicomex,,5.293018
node/6931273203,0,-4.0184375,Gare Sud,,5.3148159
node/6931792543,0,-4.0117713,Pharmacie du Rond-point,,5.3074119
node/6931792544,0,-4.0071049,[Arret sans nom],,5.3090558
node/6931792545,0,-3.9672808,Centre Commercial Koumassi,,5.2889971
node/6931792546,0,-3.9622262,Arrêt,,5.2839293
node/6931792547,0,-3.9586401,Pharmacie Bethanie,,5.2847439
node/6931792548,0,-3.9543311,Arrêt,,5.2857761
node/6931792550,0,-3.9538698,Koumassi Sicogi - Dépôt SOTRA,,5.2884523
node/6931985671,0,-3.970533,Grand Carrefour de Koumassi,,5.2870688
node/6931985672,0,-4.001299,Ivosep Treichville,,5.2985627
node/6932152400,0,-4.060057,Arrêt,,5.3266769
node/6932152402,0,-4.0598402,Ghandi,,5.3250076
node/6932152404,0,-4.0599193,Ghandi,,5.3253408
node/6932152405,0,-4.0669167,Arrêt,,5.3600658
node/6932152407,0,-4.0182858,Gare Sud,,5.314853
node/6932239010,0,-3.9502595,CIAD,,5.3286224
node/6932239011,0,-3.951901,Arrêt,,5.3291271
node/6932239012,0,-3.9522216,Arrêt,,5.338314
node/6932239013,0,-3.9526011,Carrefour Mel Theodore,,5.3443655
node/6932239014,0,-3.9535043,Pharmacie Riviera III,,5.348653
node/6932239015,0,-3.9545015,Collège l'Ardoise,,5.3509724
node/6932239016,0,-3.9606719,Arrêt,,5.3550168
node/6932239017,0,-3.9637336,Arrêt,,5.3569209
node/6932239019,0,-4.0185761,Gare Sud,,5.3149333
node/6932253478,0,-3.9808642,Angré Château,,5.4127978
node/6932253479,0,-3.984559,Arrêt,,5.4102497
node/6932253480,0,-3.9930569,Arrêt,,5.3866094
node/6932253481,0,-3.9885655,Arrêt,,5.4076842
node/6932253483,0,-3.9809279,Angré Château,,5.4128518
node/6932323632,0,-3.9635029,Arrêt,,5.3569409
node/6932323633,0,-3.9543647,Collège Ardoise,,5.3517214
node/6932323634,0,-3.9531872,Pharmacie Riviera III,,5.3485048
node/6932323635,0,-3.9524998,Carrefour Mel Theodore,,5.3446873
node/6932323636,0,-3.9448656,École libanaise Al Ghadir,,5.3284521
node/6933043352,0,-4.0617429,Terminus Yopougon Camp Militaire,,5.3228845
node/6933043354,0,-4.0599163,Ghandi,,5.3245991
node/6933043355,0,-4.0607049,Arrêt,,5.3278586
node/6933043356,0,-4.0581514,Arrêt,,5.3300685
node/6933043357,0,-4.0559573,[Arret sans nom],,5.3314439
node/6933043359,0,-4.018425,Gare Sud,,5.3145591
node/6933080250,0,-3.9428298,Arrêt,,5.3283246
node/6933080251,0,-3.9447637,École libanaise Al Ghadir,,5.3282992
node/6933080252,0,-3.9460498,Arrêt,,5.3283286
node/6933080253,0,-3.9479502,Pharmacie M'pouto,,5.328364
node/6933080254,0,-3.9527768,Beverly,,5.3380122
node/6933080255,0,-3.9578046,Carrefour Sol Béni,,5.3311481
node/6933080256,0,-3.980421,Arrêt,,5.329493
node/6933080257,0,-3.9996752,SIB,,5.3353723
node/6933080258,0,-3.9401878,Mosquée Cité Eden,,5.3284154
node/6933080260,0,-3.9401855,Mosquée Cité Eden,,5.3283646
node/6933080262,0,-4.0026096,Arrêt,,5.3461454
node/6933080263,0,-3.9789297,Mosquée Golf,,5.3391939
node/6933080264,0,-3.9812806,Arrêt,,5.3325809
node/6933080265,0,-3.9790913,Arrêt,,5.3297881
node/6933080266,0,-3.9529652,Beverly,,5.3380134
node/6933128807,0,-4.0560298,[Arret sans nom],,5.3312516
node/6933128808,0,-4.0580978,Arrêt,,5.3299817
node/6933128810,0,-4.0623571,Terminus Yopougon Camp Militaire,,5.3222556
node/6933231056,0,-4.0094478,Station Total,,5.3017767
node/6933231057,0,-4.0061849,Pharmacie de l'Avenue 27,,5.3029158
node/6933291484,0,-4.0272913,Gare Nord,,5.3589712
node/6933302185,0,-4.0277539,Gare Nord,,5.3591995
node/6934648710,0,-4.0210558,Arrêt,,5.4266332
node/6934648711,0,-4.0538116,Arrêt,,5.4438112
node/6934648712,0,-4.0603428,Arrêt,,5.4435976
node/6934648713,0,-4.0647738,Arrêt,,5.4434975
node/6934648714,0,-4.0679455,Arrêt,,5.4433733
node/6934648715,0,-4.0693985,Arrêt,,5.442806
node/6934648716,0,-4.0686147,Arrêt,,5.4392747
node/6934648717,0,-4.068663,Arrêt,,5.4321434
node/6934648718,0,-4.0699659,Arrêt,,5.428223
node/6934648719,0,-4.0783779,Arrêt,,5.413004
node/6934648720,0,-4.0834808,Arrêt,,5.4036687
node/6934648721,0,-4.0842761,Arrêt,,5.4009224
node/6934648722,0,-4.0810159,Arrêt,,5.3935763
node/6934648723,0,-4.078453,Arrêt,,5.3892384
node/6934648724,0,-4.0757427,Arrêt,,5.3836466
node/6934648725,0,-4.0773951,Arrêt,,5.3747704
node/6934648726,0,-4.0820444,Arrêt,,5.3762544
node/6934648728,0,-4.0759718,Arrêt,,5.3838941
node/6934648729,0,-4.0784458,Arrêt,,5.389032
node/6934648730,0,-4.0806236,Arrêt,,5.3928929
node/6934648731,0,-4.0842976,Arrêt,,5.4014804
node/6934648732,0,-4.0784144,Arrêt,,5.4130749
node/6934648733,0,-4.070195,Arrêt,,5.4279813
node/6934648734,0,-4.0686617,Arrêt,,5.4326393
node/6934648735,0,-4.069498,Arrêt,,5.4427909
node/6934648736,0,-4.0650186,Arrêt,,5.4435987
node/6934648737,0,-4.0602688,Arrêt,,5.4437261
node/6934648738,0,-4.0536714,Arrêt,,5.4438909
node/6934648739,0,-4.0481434,Arrêt,,5.4432611
node/6934648740,0,-4.0438735,Arrêt,,5.4392603
node/6934657650,0,-4.0169741,220 logements,,5.3480962
node/6934657651,0,-3.9618933,Carrefour Akwaba,,5.2690497
node/6934657652,0,-3.9633662,Hôpital de Port-Bouët,,5.2629137
node/6934657653,0,-3.9637684,Nouveau Marché Port-Bouët,,5.2574343
node/6934657654,0,-3.961553,Océan Espadon,,5.2567198
node/6934657655,0,-3.9621216,Église Méthodiste Unie Port-Bouët,,5.2542438
node/6934657656,0,-3.9607128,Wharf Port-Bouët,,5.2530566
node/6934657657,0,-3.9560196,Terminus Port-Bouët Phare,,5.2510654
node/6934749721,0,-4.0201934,Arrêt,,5.400118
node/6934798183,0,-4.0027148,Centre Commercial du Dokui,,5.3970398
node/6934798184,0,-4.0014133,Sainte Monique,,5.3997114
node/6934815685,0,-3.9960703,Superette Akwaba,,5.3994163
node/6934815686,0,-3.9916306,22ème,,5.3979557
node/6934815687,0,-3.9959845,Superette Akwaba,,5.3992227
node/6934815688,0,-3.9972693,Pharmacie Sainte Monique,,5.3994417
node/6934815689,0,-4.0008152,Station Petro Ivoire,,5.3997942
node/6934815690,0,-4.0013301,Sainte Monique,,5.3994657
node/6934815692,0,-4.0026122,Centre Commercial du Dokui,,5.3970104
node/6934872150,0,-4.0506908,Yopougon Kowëit,,5.3221354
node/6934872151,0,-4.0802555,Sideci Matignon,,5.3218817
node/6934922723,0,-4.0109827,Abobo Akeikoi Village,,5.4604925
node/6934922724,0,-4.0111108,Destin,,5.4554315
node/6934922725,0,-4.0126598,André Bar,,5.4531085
node/6934922726,0,-4.0136415,Arrêt,,5.4493063
node/6934922727,0,-4.0143429,Arrêt,,5.4446991
node/6934922728,0,-4.0141618,Arrêt,,5.4400103
node/6934922731,0,-4.0137548,Arrêt,,5.4327535
node/6934922732,0,-4.0124023,Arrêt,,5.4336247
node/6934922733,0,-4.0143033,Arrêt,,5.4393221
node/6934922734,0,-4.0145279,Arrêt,,5.4445716
node/6934922735,0,-4.0137662,Arrêt,,5.4493357
node/6934922736,0,-4.0127617,André Bar,,5.4531566
node/6934922737,0,-4.0112489,Destin,,5.4554448
node/6934922738,0,-4.0110518,Abobo Akeikoi Village,,5.4604068
node/6934970640,0,-4.0352396,Gare Abobo-Doumé,,5.3102833
node/6935113685,0,-4.0240914,Arrêt,,5.4306528
node/6935113687,0,-4.0236072,Cité Administrative,,5.3314011
node/6935117220,0,-4.0273828,Gare Nord,,5.3591731
node/6935117222,0,-3.9897309,Woodin,,5.3610508
node/6935117223,0,-3.9897537,[Arret sans nom],,5.3653222
node/6935117224,0,-3.9898489,NSIA Banque,,5.3685842
node/6935117225,0,-3.9904759,Leader Price,,5.372732
node/6935117227,0,-3.9926612,Carrefour Sainte Cécile - Terminus 35,,5.3770534
node/6935251104,0,-3.9926425,Carrefour Sainte Cécile - Terminus 35,,5.3771843
node/6935251105,0,-3.9904471,Sococé Vallon,,5.3742722
node/6935251106,0,-3.9897873,NSIA Banque,,5.3686002
node/6935251107,0,-3.9897014,[Arret sans nom],,5.364963
node/6935251108,0,-3.9896753,Woodin,,5.3606736
node/6935251109,0,-3.9907542,Versus Bank,,5.3576192
node/6935251110,0,-3.9912866,École de Police,,5.3522302
node/6935251111,0,-3.99993,Mermoz,,5.3387479
node/6935251112,0,-4.0278565,Gare Nord,,5.3591581
node/6935274791,0,-3.9831166,Groupe Scolaire Kouamé Konan,,5.2627714
node/6935274792,0,-3.9774759,Groupe Scolaire Petit Bassam,,5.2569108
node/6935274793,0,-3.9696513,Arrêt,,5.2576259
node/6935274794,0,-3.965703,Marché,,5.2585828
node/6935274796,0,-3.9608596,Pharmacie Océan,,5.2568159
node/6935274797,0,-3.9581761,Lycée Moderne de Port-Bouët,,5.256199
node/6935274798,0,-3.9610527,Carrefour Akwaba,,5.2658583
node/6935274799,0,-3.9661886,Digue de Koumassi,,5.2758153
node/6935274800,0,-3.9692871,CIE Bia Sud,,5.2813533
node/6935274801,0,-3.962945,Arrêt,,5.2900094
node/6935274802,0,-3.9596587,Arrêt,,5.2907532
node/6935274803,0,-3.9555147,Gare Koumassi,,5.294113
node/6935274804,0,-3.9498116,Pharmacie Regina,,5.298266
node/6935274805,0,-3.9495504,Pharmacie Regina,,5.2982253
node/6935274806,0,-3.9582726,Ajavon,,5.2909815
node/6935274807,0,-3.9612938,Foyer des Jeunes,,5.2902818
node/6935274808,0,-3.9668678,Centre Commercial Koumassi,,5.2889304
node/6935274809,0,-3.9667035,Carrefour Ancien Koumassi,,5.2768282
node/6935274810,0,-3.9577992,43ème Bima,,5.2576733
node/6935274811,0,-3.9579253,Lycée Moderne de Port-Bouët,,5.2560567
node/6935274812,0,-3.9642432,Nouveau Marché Port-Bouët,,5.2574824
node/6935274813,0,-3.965754,District de Port-Bouet,,5.2584759
node/6935274814,0,-3.9693877,Arrêt,,5.2576319
node/6935274815,0,-3.9790309,Arrêt,,5.2572754
node/6935274816,0,-3.9893487,Stade de la SIR,,5.2569161
node/6935401276,0,-4.006142,Arrêt,,5.3852315
node/6935401277,0,-4.0060079,Arrêt,,5.3852595
node/6935401278,0,-4.0064532,Arrêt,,5.3984537
node/6935401279,0,-4.0064304,Arrêt,,5.4022949
node/6935401280,0,-4.0063405,Arrêt,,5.4087036
node/6935401281,0,-4.0062828,Arrêt,,5.4109493
node/6935401282,0,-4.0062493,Arrêt,,5.4143906
node/6935401283,0,-4.0170009,Arrêt,,5.420498
node/6935401284,0,-4.0141176,Arrêt,,5.4189547
node/6935407385,0,-4.0123071,Arrêt,,5.4179854
node/6935407386,0,-4.0094626,Arrêt,,5.4164927
node/6935488165,0,-4.0041834,"Parc des Sports, Boulevard Valéry Giscard d'Estaing",,5.2983706
node/6935488166,0,-3.9445075,Carrefour Aéroport,,5.2470403
node/6935488167,0,-3.9295542,Arrêt,,5.2446806
node/6935488168,0,-3.925598,Arrêt,,5.2440381
node/6935488169,0,-3.922044,Arrêt,,5.2434545
node/6935488170,0,-3.9170243,Casier,,5.2426599
node/6935488171,0,-3.9115848,Arrêt,,5.2417851
node/6935488172,0,-3.9051327,Mosquée,,5.2407648
node/6935494486,0,-3.9593026,Arrêt,,5.260825
node/6935494487,0,-3.984569,Avenue de la Côte d'Ivoire / Boulevard V.G.E.,,5.2976825
node/6935494488,0,-3.9005903,Terminus Gonzagueville,,5.2402774
node/6935494499,0,-3.9050053,Mosquée,,5.2405691
node/6935494500,0,-3.9104489,Arrêt,,5.2414058
node/6935494501,0,-3.9156765,Arrêt,,5.2422365
node/6935494502,0,-3.9216458,Arrêt,,5.243186
node/6935494503,0,-3.9251152,Arrêt,,5.2437256
node/6935494504,0,-3.9298091,Arrêt,,5.2444775
node/6935494505,0,-3.9372025,Arrêt,,5.2456701
node/6935494506,0,-3.94366,Arrêt,,5.2467051
node/6935494507,0,-3.9541537,Arrêt,,5.2492829
node/6935494508,0,-3.9579213,43ème Bima,,5.2573475
node/6935494509,0,-4.0065188,Palais des Sports,,5.299118
node/6935494511,0,-4.0149692,Avenue Christiani,,5.3101948
node/6937770645,0,-4.0082087,Arrêt,,5.3002327
node/6937770646,0,-3.9594314,Arrêt,,5.2618319
node/6937770647,0,-3.9424717,33é Arrondissement,,5.2467278
node/6937770648,0,-3.9007735,Terminus Gonzagueville,,5.2400864
node/6937770649,0,-3.8973275,Corridor,,5.2395482
node/6937770650,0,-3.893671,Carrefour Chien,,5.2389973
node/6937770652,0,-3.8845293,Pharmacie Bénediction,,5.2375957
node/6937770653,0,-3.8802069,Terminus Anani,,5.2369286
node/6937770654,0,-3.8798529,Terminus Anani,,5.2368898
node/6937770655,0,-3.8749894,Anani - Rond-point,,5.2369172
node/6937770656,0,-3.8833565,Arrêt,,5.2372444
node/6937770657,0,-3.888965,Collège privé les Cartésiens d'Abidjan,,5.2380744
node/6937770658,0,-3.8928086,Carrefour Chien,,5.2386868
node/6937770659,0,-3.8962466,Corridor,,5.2391862
node/6937770660,0,-3.9013763,Terminus Gonzagueville,,5.2399789
node/6937789671,0,-3.9649889,Arrêt,,5.256211
node/6938095648,0,-4.01522,Gare Abobo Sogephia,,5.4354794
node/6938222040,0,-4.0222809,Arrêt,,5.4251869
node/6938222041,0,-4.0239143,Arrêt,,5.4191963
node/6938222042,0,-4.0240283,Arrêt,,5.4148659
node/6938222043,0,-4.0292727,Arrêt,,5.4147991
node/6938324861,0,-4.0807772,Ebimpé Village,,5.5005578
node/6938324862,0,-4.0807946,Arrêt,,5.5031942
node/6938324863,0,-4.0801696,Arrêt,,5.5033771
node/6938324864,0,-4.0769751,Arrêt,,5.5031182
node/6938324865,0,-4.0770207,Arrêt,,5.5007033
node/6938324866,0,-4.0762322,Arrêt,,5.5002134
node/6938324867,0,-4.07344,Arrêt,,5.5002334
node/6938324868,0,-4.0699397,Arrêt,,5.5000185
node/6938324869,0,-4.066591,Arrêt,,5.4982283
node/6938324870,0,-4.0678543,Arrêt,,5.4912933
node/6938324871,0,-4.0690076,Arrêt,,5.4869787
node/6938324872,0,-4.0697157,Arrêt,,5.4842033
node/6938324873,0,-4.0709844,Arrêt,,5.4791892
node/6938324874,0,-4.0715718,Arrêt,,5.4769371
node/6938324875,0,-4.072693,Arrêt,,5.4724328
node/6938324876,0,-4.0737471,Arrêt,,5.4679499
node/6938324877,0,-4.0739322,Arrêt,,5.4644949
node/6938324878,0,-4.0733501,Arrêt,,5.4606874
node/6938324879,0,-4.0724757,Arrêt,,5.4565342
node/6938324880,0,-4.0713693,Arrêt,,5.4517454
node/6938324881,0,-4.0706693,Arrêt,,5.4485133
node/6938324882,0,-4.0696567,Arrêt,,5.4441757
node/6938324883,0,-4.0681963,Arrêt,,5.4435135
node/6938324884,0,-4.056062,Arrêt,,5.443862
node/6938343085,0,-4.0494295,Agripac,,5.4440736
node/6938407500,0,-3.9639542,Hotel Communal Port-Bouët;Pharmacie Baltique,,5.2608437
node/6938407501,0,-3.9635653,Hôpital Géneral de Port-Bouët,,5.2629757
node/6938407503,0,-3.9564407,Arrêt,,5.293872
node/6938407504,0,-3.8886204,Collège privé les Cartésiens d'Abidjan,,5.2382227
node/6938756997,0,-3.9975952,Farandole,,5.3640511
node/6938792077,0,-3.9845087,Arrêt,,5.4036801
node/6938792078,0,-3.993252,Arrêt,,5.3829263
node/6938792079,0,-4.0186301,Gare Sud,,5.3147389
node/6939014886,0,-3.9887345,Arrêt,,5.3010837
node/6939014887,0,-3.9663789,Pharmacie Sainte Aghate,,5.3023803
node/6939014888,0,-3.9640502,Terminus Remblais 03,,5.3029659
node/6939014890,0,-3.9638825,Terminus Remblais 03,,5.302855
node/6939014891,0,-3.9684999,Arrêt,,5.3018088
node/6939014892,0,-3.9714879,Arrêt,,5.2984764
node/6939014894,0,-3.9848064,Arrêt,,5.3022895
node/6939014895,0,-4.0274686,Gare Nord,,5.359076
node/6939076692,0,-4.0059154,Terminus dépôt SOTRA,,5.2875728
node/6944816371,0,-4.0768933,Sideci Pharmacie Lem,,5.3314425
node/6944816372,0,-4.0798317,Sideci Lem,,5.3305385
node/6944816373,0,-4.0813807,[Arret sans nom],,5.3270574
node/6944816374,0,-4.0806283,Akadjoba,,5.3246445
node/6944887181,0,-4.0237293,Cité Administrative,,5.3310827
node/6944887182,0,-4.0220542,Arrêt,,5.4253525
node/6944887183,0,-4.0240122,Arrêt,,5.4193151
node/6944887184,0,-4.0241008,Arrêt,,5.4150828
node/6944920985,0,-4.0292533,Arrêt,,5.4148679
node/6944920986,0,-4.0334697,Terminus bus 51/52,,5.4148038
node/6944934858,0,-4.0817052,Arrêt,,5.3274379
node/6944934859,0,-4.080812,Sideci Lem - Carrefour Sgbci,,5.330154
node/6944934860,0,-4.0773064,Sideci Pharmacie Lem,,5.3314305
node/6945017053,0,-3.99141,École de Police,,5.3521541
node/6945017054,0,-3.9914516,Arrêt,,5.3569943
node/6945458783,0,-4.0082677,Siège SOTRA,,5.2865574
node/6945659474,0,-3.9722067,Station Oilibya,,5.2569502
node/6945659475,0,-3.9647529,Arrêt,,5.2566851
node/6945659476,0,-3.9643009,Pharmacie Atlantique,,5.2546846
node/6945659477,0,-3.9565238,Port-Bouët Phare,,5.2511255
node/6945864857,0,-4.0047848,Vridi canal - Terminus 23,,5.2531341
node/6945864858,0,-4.0046923,Vridi canal - Terminus 23,,5.2531701
node/6945864859,0,-4.0087358,[Arret sans nom],,5.2657115
node/6945864860,0,-4.0033337,Arrêt du CHU,,5.2957541
node/6945966271,0,-4.0134249,Ciprel,,5.260642
node/6945966272,0,-4.0138507,[Arret sans nom],,5.2649101
node/6945966273,0,-4.011446,[Arret sans nom],,5.265254
node/6945966274,0,-4.0086137,[Arret sans nom],,5.2660346
node/6945966275,0,-4.0060763,[Arret sans nom],,5.2688363
node/6948222228,0,-3.9581171,Arrêt,,5.3539352
node/6948222230,0,-3.9522725,Arrêt,,5.3417576
node/6948222231,0,-3.9521505,Arrêt,,5.3392567
node/6948222232,0,-3.952243,Arrêt,,5.3384929
node/6948222233,0,-3.943904,Carrefour Ambassade de Chine,,5.334941
node/6948222234,0,-3.9452136,Antenne,,5.3392333
node/6948222235,0,-3.9428439,Akwaba,,5.3385917
node/6948222236,0,-3.9393644,Pharmacie,,5.3355172
node/6948222237,0,-3.9368539,Arrêt,,5.3328633
node/6948222238,0,-3.9348771,Centre de santé Municipal de M'Badon,,5.3307248
node/6948222239,0,-3.9323347,Teminus M'Badon,,5.3286344
node/6948270620,0,-3.9322612,Teminus M'Badon,,5.3285142
node/6948270621,0,-3.9347577,Centre de santé Municipal de M'Badon,,5.3305385
node/6948270622,0,-3.9397017,Pharmacie,,5.3357956
node/6948270623,0,-3.9451191,Arrêt,,5.339027
node/6948270624,0,-3.9418454,Ambassade de Chine,,5.3329114
node/6948270625,0,-3.9568537,Arrêt,,5.3538285
node/6948290580,0,-3.9368337,Arrêt,,5.3327177
node/6948290581,0,-3.9429814,Bureau Bad,,5.3385823
node/6948290582,0,-3.9438068,[Arret sans nom],,5.3350024
node/6948466331,0,-3.9767852,Arrêt,,5.353946
node/6948466332,0,-3.9695473,Arrêt,,5.3560356
node/6948466333,0,-3.9273548,Arrêt,,5.3732347
node/6948466334,0,-3.9221262,Arrêt,,5.3744488
node/6948466335,0,-3.9116914,Kessé,,5.3738883
node/6948466336,0,-3.9090387,Syndicat,,5.3664705
node/6948466337,0,-3.8946091,Station TEXACO,,5.3613312
node/6948466338,0,-3.8895766,La Poste,,5.357652
node/6948466339,0,-3.8879555,Pharmacie du Marché,,5.357433
node/6948466341,0,-3.8903531,Sous-Prefecture de Bingerville,,5.3576379
node/6948466343,0,-3.9285967,Nouveau Goudron,,5.372677
node/6948466345,0,-4.0026914,Pharmacie les 7 Colonnes,,5.3455151
node/6948695731,0,-3.9906777,Arrêt,,5.3346312
node/6948695732,0,-3.9758237,Arrêt,,5.3396564
node/6948695733,0,-3.9761442,Arrêt,,5.3414919
node/6948695734,0,-3.9751571,Arrêt,,5.3438403
node/6948695735,0,-3.975412,Arrêt,,5.3470921
node/6948695736,0,-3.9767209,Arrêt,,5.3520693
node/6948695738,0,-3.9760919,Arrêt,,5.3530066
node/6948695739,0,-3.9766203,Arrêt,,5.35209
node/6948695740,0,-3.9752188,Arrêt,,5.3468223
node/6948695741,0,-3.9750874,Arrêt,,5.343802
node/6948695742,0,-3.9760651,Arrêt,,5.3416148
node/6948695743,0,-3.9757586,Arrêt,,5.3397193
node/6948695744,0,-3.9754911,Arrêt,,5.3385022
node/6948695745,0,-3.9902714,Arrêt,,5.3344937
node/6948695746,0,-3.9957176,Arrêt,,5.3349056
node/6948706680,0,-4.0157926,Warafa Assurance,,5.321664
node/6948706681,0,-4.0152582,Arrêt Résidence Nabil,,5.3184017
node/6948706682,0,-4.0092923,[Arret sans nom],,5.3044274
node/6948791226,0,-4.0042001,Terminus CHU Treichville,,5.2949249
node/6948855820,0,-3.9679608,Arrêt,,5.3565604
node/6948855821,0,-3.9614752,Arrêt,,5.3599399
node/6948855822,0,-3.9289306,Cité Millenium,,5.3717967
node/6948855823,0,-3.9253854,Arrêt,,5.3584311
node/6948855824,0,-3.9247158,Arrêt,,5.3556661
node/6948855825,0,-3.924163,Arrêt,,5.3532496
node/6948855826,0,-3.9233825,Collège Jeune Filles,,5.3498507
node/6948855827,0,-3.9225573,Oribat Cité Don Mello,,5.3397928
node/6948855828,0,-3.9226348,Arrêt,,5.3329467
node/6948855829,0,-3.9191627,Arrêt,,5.3282217
node/6948855830,0,-3.9169304,Paroisse,,5.3283086
node/6948855831,0,-3.9161199,EPP Abatta,,5.3267112
node/6948920956,0,-3.923136,Arrêt,,5.3342136
node/6948920957,0,-3.9158679,Arrêt,,5.3262131
node/6948920958,0,-3.9161935,EPP Abatta,,5.3267028
node/6948920959,0,-3.9169358,Paroisse,,5.3282218
node/6948920960,0,-3.9227374,Arrêt,,5.3329487
node/6948920961,0,-3.9220896,Arrêt,,5.3417243
node/6948920962,0,-3.9222706,Arrêt,,5.3443775
node/6948920963,0,-3.9228521,Arrêt,,5.3471041
node/6948920964,0,-3.9242797,Arrêt,,5.3532917
node/6948920965,0,-3.9254397,Arrêt,,5.3583733
node/6948920966,0,-3.9258534,Sodeci Abatta,,5.359984
node/6948920967,0,-3.9301027,Nouveau Goudron,,5.3722754
node/6951127812,0,-3.968976,Arrêt,,5.2579604
node/6951127813,0,-3.9654422,Mairie Port-Bouët,,5.2597086
node/6951127815,0,-3.9687383,[Arret sans nom],,5.2595919
node/6951127816,0,-4.0181731,Gare Sud,,5.3145654
node/6951182059,0,-3.9533649,Arrêt,,5.3373639
node/6951182060,0,-3.9559445,Arrêt,,5.3344449
node/6951182061,0,-3.9570247,Arrêt,,5.3308416
node/6951182062,0,-3.9531144,Arrêt,,5.3295658
node/6951182064,0,-3.9535137,Arrêt,,5.3296352
node/6951182065,0,-3.9572031,Arrêt,,5.330835
node/6951182066,0,-3.952412,Arrêt,,5.3414479
node/6951224049,0,-3.9630926,Arrêt,,5.2921887
node/6951224050,0,-3.9694045,Commissariat de Police du 6ᵉ,,5.2898815
node/6951224051,0,-4.0276527,Gare Nord,,5.3586694
node/6951939383,0,-3.9554248,Gare Koumassi,,5.2941431
node/6951939384,0,-4.0273499,Gare Nord,,5.3587923
node/6952071069,0,-3.9635003,Terminus 31 Remblais,,5.3024324
node/6952071070,0,-3.9623322,Trois Ampoules,,5.2975569
node/6952132224,0,-4.0109539,"BIAO, Treichville",,5.2988296
node/6952132225,0,-3.9883861,"Pizza, Marcory",,5.2884669
node/6952132226,0,-3.9855024,"Bernabé Parc à Fer, Boulevard de Marseille",,5.2853422
node/6952132227,0,-3.9824903,[Arret sans nom],,5.2786718
node/6952132228,0,-3.9767262,Église Notre-Dame d'Afrique,,5.2734369
node/6952132229,0,-3.9714865,Sept Villas,,5.2734089
node/6952132230,0,-3.9672503,Arrêt,,5.276028
node/6952132232,0,-3.9434065,Arrêt,,5.2486135
node/6952132233,0,-3.9386439,EPP Aéroport,,5.2544081
node/6952132234,0,-3.934246,Aéroport,,5.2536201
node/6952132235,0,-3.9450909,Carrefour Aéroport,,5.2469401
node/6952132240,0,-3.9409603,Cité ASECNA,,5.2544028
node/6952132241,0,-3.9424355,Arrêt,,5.2508117
node/6952132242,0,-3.9435728,Arrêt,,5.2480679
node/6952132243,0,-3.947171,Maquis 5 sur 5,,5.247278
node/6952132244,0,-3.9610943,Pharmacie Océan,,5.2567618
node/6952132245,0,-3.9627318,Abattoir Port-Bouët,,5.266498
node/6952132246,0,-3.9751598,Arrêt,,5.2726637
node/6952132247,0,-3.9878453,Arrêt,,5.28785
node/6952132248,0,-3.9917104,Arrêt,,5.2895893
node/6952132250,0,-3.9954532,Arrêt,,5.2912033
node/6952132251,0,-4.0104501,"BIAO, Treichville",,5.2984459
node/6952132252,0,-4.0182926,Gare Sud,,5.3144382
node/6952200468,0,-3.9495367,Arrêt,,5.3091986
node/6952200469,0,-3.9481486,Centre Médico-social,,5.3097742
node/6952200470,0,-3.9837456,Hôpital Général de Marcory,,5.3012025
node/6952200471,0,-3.986865,Arrêt,,5.3034286
node/6952200472,0,-4.0094613,Arrêt,,5.3042605
node/6952200475,0,-4.007007,Arrêt,,5.3052353
node/6952200476,0,-3.9855795,Arrêt,,5.3028209
node/6952200477,0,-3.952005,Akromiambla-Terminus 32 Koumassi,,5.3118954
node/6952244517,0,-4.0471624,Arrêt,,5.441531
node/6952566208,0,-4.0559909,Arrêt,,5.4436978
node/6952566209,0,-4.0699545,Arrêt,,5.4448793
node/6952566210,0,-4.0708852,Arrêt,,5.4490874
node/6952566211,0,-4.0716147,Arrêt,,5.4522514
node/6952566212,0,-4.0718146,Arrêt,,5.4532246
node/6952566213,0,-4.0726206,Arrêt,,5.4567491
node/6952566214,0,-4.0734789,Arrêt,,5.4606701
node/6952566215,0,-4.0739724,Arrêt,,5.4636378
node/6952566216,0,-4.074022,Arrêt,,5.4644695
node/6952566217,0,-4.0738437,Arrêt,,5.4679793
node/6952566218,0,-4.0727828,Arrêt,,5.4724295
node/6952566219,0,-4.0716872,Arrêt,,5.4769985
node/6952566220,0,-4.0710461,Arrêt,,5.4793881
node/6952566221,0,-4.0703045,Arrêt,,5.4821955
node/6952566222,0,-4.0699115,Arrêt,,5.4839777
node/6952566223,0,-4.0692893,Arrêt,,5.486354
node/6952566224,0,-4.0680795,Arrêt,,5.4911611
node/6952566225,0,-4.0667948,Arrêt,,5.4982644
node/6952566226,0,-4.0740864,Arrêt,,5.5001119
node/6952566227,0,-4.0767123,Arrêt,,5.5000518
node/6954138437,0,-3.9734097,Petit Café,,5.2862329
node/6954138438,0,-3.9775054,Arrêt,,5.2807083
node/6954138439,0,-3.9804116,Arrêt,,5.2823321
node/6954138440,0,-4.0126625,Arrêt,,5.300639
node/6954138442,0,-3.9828832,Agence Nationale de la Formation Professionnelle (AGEFOP),,5.28394
node/6954138443,0,-3.9776556,Arrêt,,5.2809293
node/6954138444,0,-3.973057,UTTb Université Loko,,5.2870755
node/6954138445,0,-3.9693475,Marché DjeKonan,,5.2892455
node/6954138446,0,-3.9518099,Arrêt,,5.3133129
node/6954511639,0,-3.9679319,CIE Koumassi,,5.2834138
node/6954511640,0,-3.9686649,Hôpital de Koumassi,,5.286559
node/6954926526,0,-4.0989914,[Arret sans nom],,5.3583583
node/6954926527,0,-4.1000086,[Arret sans nom],,5.3615502
node/6954926528,0,-4.0967993,[Arret sans nom],,5.3641759
node/6955038705,0,-3.9531577,Koumassi Soweto - Dépôt 5,,5.2859504
node/6955038706,0,-3.9582532,Pharmacie Bethanie,,5.2847586
node/6955038707,0,-3.9611265,Sation Lavage,,5.2840528
node/6955038708,0,-3.9680882,CIE Koumassi,,5.2836422
node/6955038709,0,-3.9688808,Hôpital de Koumassi,,5.2870421
node/6955038710,0,-3.984628,Pharmacie Massarana,,5.2996014
node/6955038711,0,-4.0275521,Gare Nord,,5.3587075
node/6955514933,0,-4.0217512,Cité Administrative,,5.3331711
node/6955514934,0,-3.9597532,Arrêt Pharmacie Palmeraie,,5.3635931
node/6955514935,0,-3.9580205,Arrêt,,5.3710263
node/6955514936,0,-3.9587393,Arrêt,,5.3720811
node/6955514937,0,-3.964382,Cocody SCI Les Rosiers,,5.3808935
node/6955514938,0,-3.9598592,Arrêt,,5.3727874
node/6955514939,0,-3.9592516,Arrêt,,5.3685488
node/6955514940,0,-4.0184346,Gare Sud,,5.3149553
node/6958966895,0,-3.9341971,Aéroport,,5.253474
node/6961370878,0,-3.981805,Arrêt,,5.2774525
node/6961370879,0,-3.9788787,Pharmacie de Bietry,,5.2744205
node/6961370880,0,-3.9421921,Arrêt Dr08,,5.2516684
node/6961370881,0,-3.9410589,Cité ASECNA,,5.2543801
node/6961643500,0,-4.0725361,Arrêt,,5.3618139
node/6961643501,0,-4.0923724,[Arret sans nom],,5.373881
node/6961643502,0,-4.0945986,[Arret sans nom],,5.3718154
node/6963093974,0,-4.0858988,Amondji,,5.3396466
node/6963093975,0,-4.0810166,Arrêt,,5.3395998
node/6963093976,0,-4.0792436,Pont Vagabond,,5.3382505
node/6963093977,0,-4.0747274,Arrêt,,5.3403236
node/6963093979,0,-4.0181436,Gare Sud,,5.3147296
node/6963093981,0,-4.0732643,Saint André lavage,,5.3415106
node/6963093982,0,-4.0859069,Amondji,,5.3395197
node/6964184463,0,-3.9928235,Aghien 2 plateaux,,5.3883091
node/6964184464,0,-4.0044791,[Arret sans nom],,5.3359625
node/6964184466,0,-3.9923066,Aghien 2 plateaux,,5.3885302
node/6964184467,0,-4.0021368,Carrefour la Vie,,5.3502206
node/6964502135,0,-3.9596674,Arrêt Pharmacie Palmeraie,,5.3635871
node/6966758103,0,-4.0846449,BAE,,5.3609547
node/6966758104,0,-4.0882243,Arrêt,,5.3551851
node/6966758105,0,-4.0957546,Carrefour Antenne Ananeraie,,5.3549701
node/6966758106,0,-4.0988526,Oasis,,5.354878
node/6966758107,0,-4.0993729,Sorbonne,,5.3502259
node/6966758108,0,-4.0997625,Arrêt,,5.3462622
node/6966758109,0,-4.1031267,Arrêt,,5.333344
node/6966758111,0,-4.1044571,Arrêt,,5.3292232
node/6966758112,0,-4.1004723,Arrêt,,5.3441658
node/6966758113,0,-4.0999784,Arrêt,,5.3460138
node/6966758114,0,-4.0994869,Sorbonne,,5.3500978
node/6966758115,0,-4.0994742,Arrêt,,5.3529605
node/6966758116,0,-4.0992308,Oasis,,5.3549421
node/6966758117,0,-4.0918869,Arrêt,,5.3551971
node/6966849451,0,-4.016671,Arrêt,,5.3233545
node/6966849452,0,-4.0138976,Arrêt,,5.4486134
node/6966927285,0,-3.9637296,Hotel Communal Port-Bouët,,5.2613392
node/6966927286,0,-3.9605525,Wharf Port-Bouët,,5.2528723
node/6966927287,0,-4.0132633,Arrêt,,5.3027916
node/6966942817,0,-4.0140968,Arrêt,,5.4469386
node/6966942818,0,-4.0166429,Arrêt,,5.4381706
node/6966942819,0,-4.0159589,Arrêt,,5.4141149
node/6966942820,0,-4.0164229,Arrêt,,5.4069719
node/6967070473,0,-4.0007964,Arrêt,,5.2655592
node/6967070474,0,-4.0085238,Arrêt,,5.2772629
node/6967070475,0,-4.0085185,Arrêt,,5.279469
node/6967070476,0,-4.0210712,Arrêt,,5.3959876
node/6967070477,0,-4.016604,Arrêt,,5.4118438
node/6967070478,0,-4.0178807,Arrêt,,5.4197437
node/6967070479,0,-4.0187565,Arrêt,,5.4227157
node/6967070480,0,-4.0289891,Arrêt,,5.4356834
node/6967070481,0,-4.0302558,Arrêt,,5.4364023
node/6967070482,0,-4.0319341,Arrêt,,5.4370672
node/6967070483,0,-4.0332256,Arrêt,,5.4373075
node/6967070484,0,-4.0362847,Arrêt,,5.4377581
node/6967074785,0,-4.0391982,Arrêt,,5.4381539
node/6967074787,0,-4.0485819,PK 18 Agripac,,5.4435976
node/6967158577,0,-4.0197301,Arrêt,,5.4255661
node/6967158578,0,-4.017465,Arrêt,,5.4195782
node/6967158579,0,-4.0226068,Arrêt,,5.3053862
node/6967158580,0,-4.0082905,Pharmacie du Port,,5.2891307
node/6968911549,0,-4.0212006,Abobo Gendarmerie,,5.4269192
node/6968911550,0,-4.0229219,Arrêt,,5.4289586
node/6968911551,0,-4.0812264,Arrêt,,5.4078444
node/6968911556,0,-4.0851445,CHU de Yopougon,,5.3570551
node/6968911557,0,-4.080236,Arrêt,,5.3698106
node/6968911558,0,-4.0777087,Arrêt,,5.3746728
node/6968911559,0,-4.0687166,Arrêt,,5.4392253
node/6969221528,0,-4.0793476,Arrêt,,5.3423532
node/6969221530,0,-4.0177429,Gare Sud,,5.3141434
node/6969371620,0,-3.9117702,Feh Kessé,,5.3743039
node/6969583471,0,-4.0097992,Clinique Providence,,5.3472803
node/6969583472,0,-4.0106696,Supermarché Casino,,5.3451973
node/6969583474,0,-4.0185824,Gare Sud,,5.3147951
node/6969583476,0,-4.01752,Gare Sud,,5.3154387
node/6969583477,0,-4.0166201,Novotel,,5.3161731
node/6969583478,0,-4.0151837,[Arret sans nom],,5.3172748
node/6969583479,0,-4.015578,Arrêt,,5.3202726
node/6969583480,0,-4.0192916,Arrêt,,5.3209056
node/6969583481,0,-4.0207359,Arrêt,,5.3217388
node/6969583482,0,-4.0207185,Hôtel de Ville,,5.3233639
node/6969583483,0,-4.0207171,Arrêt,,5.3257514
node/6969583484,0,-4.0207332,Arrêt,,5.3278011
node/6969620785,0,-4.0217525,Cité Administrative,,5.3335937
node/6970095632,0,-3.985249,Termunis 81/82,,5.4031227
node/6970095633,0,-3.9859892,Arrêt,,5.3971746
node/6970095634,0,-3.9875704,Pharmacie Les 7 Lys,,5.3841166
node/6970095635,0,-3.979157,Arrêt,,5.3643008
node/6970095637,0,-3.977256,Riviera 2,,5.3542958
node/6970095638,0,-3.978931,Arrêt,,5.3623286
node/6970095639,0,-3.9866585,DGI,,5.3924174
node/6970095641,0,-3.9853522,Termunis 81/82,,5.4031427
node/6970366278,0,-3.9506122,Arrêt,,5.3554107
node/6970366281,0,-3.950804,Arrêt,,5.3552038
node/6970366282,0,-3.9482653,Arrêt,,5.3652007
node/6970366283,0,-3.9522095,Arrêt,,5.3643008
node/6979256984,0,-4.0181825,Arrêt,,5.403546
node/6979431044,0,-3.9848581,Arrêt,,5.4038146
node/6979431045,0,-3.977142,Arrêt,,5.39671
node/6979431046,0,-3.9754421,Arrêt,,5.3902524
node/6979431047,0,-3.9747639,Arrêt,,5.387788
node/6979431048,0,-3.9737651,Arrêt,,5.3839137
node/6979431049,0,-3.9734902,Arrêt,,5.3828575
node/6979431051,0,-3.9627425,Arrêt,,5.3749859
node/6979431052,0,-3.984727,Arrêt,,5.4036825
node/6979712503,0,-3.9195342,Arrêt,,5.3281463
node/6979712504,0,-3.9224169,Arrêt,,5.3318471
node/6979712505,0,-3.9227159,Arrêt,,5.3394623
node/6979712506,0,-3.923066,Arrêt,,5.3479974
node/6979712507,0,-3.9234415,Arrêt,,5.3497346
node/6979712508,0,-3.924564,Arrêt,,5.3546363
node/6979712509,0,-3.9253713,Arrêt,,5.3579717
node/6979712510,0,-3.9263014,Arrêt,,5.3614206
node/6979712512,0,-3.9268023,Arrêt,,5.3635464
node/6979712513,0,-3.928193,Arrêt,,5.3687351
node/6979712514,0,-3.9379911,Arrêt,,5.3703787
node/6979712515,0,-3.9279167,Arrêt,,5.3679286
node/6979712516,0,-3.9227716,Arrêt,,5.3470093
node/6979712517,0,-3.9223344,Arrêt,,5.3449917
node/6979712518,0,-3.9218402,Arrêt,,5.3428352
node/6979712519,0,-3.9221104,Arrêt,,5.3413324
node/6980029236,0,-3.9344399,Arrêt,,5.2452454
node/6980029237,0,-3.9723435,Arrêt,,5.2569228
node/6980029238,0,-4.0062828,Bank Of Africa,,5.2684644
node/6980029239,0,-4.0139727,Arrêt,,5.2646043
node/6980029241,0,-4.0112543,[Arret sans nom],,5.2587043
node/6980029242,0,-4.0138916,[Arret sans nom],,5.2648347
node/6980029243,0,-4.006083,[Arret sans nom],,5.2686721
node/6980258130,0,-3.9560491,Terminus Port-Bouët Phare,,5.2509145
node/6980521688,0,-4.0032211,Arrêt,,5.3433974
node/6980521689,0,-3.9976139,Arrêt,,5.3628414
node/6980521690,0,-4.0057075,Arrêt,,5.399921
node/6980521691,0,-4.0065511,Arrêt,,5.4015232
node/6980521692,0,-4.0065081,Arrêt,,5.4034191
node/6980521695,0,-4.0192406,Abobo Gendarmerie,,5.4241696
node/6980521696,0,-4.0134712,Arrêt,,5.4185708
node/6980521697,0,-4.0074744,Arrêt,,5.4155561
node/6980521698,0,-4.0062694,Arrêt,,5.4135434
node/6980521699,0,-4.0064277,Arrêt,,5.4035807
node/6980521700,0,-3.9990999,Arrêt,,5.3998663
node/6980521701,0,-3.992904,Arrêt,,5.3987194
node/6980521702,0,-3.9927913,Arrêt,,5.387006
node/6980521703,0,-3.9934525,Arrêt,,5.3819122
node/7025968250,0,-3.9718473,Arrêt,,5.2578469
node/7025975082,0,-3.9994057,Arrêt,,5.2642798
node/7025975083,0,-4.003783,Arrêt,,5.2682835
node/7025992286,0,-4.10439,Arrêt,,5.3292373
node/7026069662,0,-4.0083388,[Arret sans nom],,5.2771214
node/7026279881,0,-4.0149826,Arrêt,,5.341978
node/7026364429,0,-3.9547831,Arrêt,,5.2855772
node/7026390486,0,-3.9641359,[Arret sans nom],,5.2850417
node/7028872830,0,-3.9616643,Océan Espadon,,5.2566557
node/7028872831,0,-4.0278525,Gare Nord,,5.3588917
node/7043603291,0,-3.9736383,Cité étudiante Riviera 2,,5.3534289
node/7043642288,0,-4.0957761,Carrefour Antenne Ananeraie,,5.3550743
node/7044975088,0,-4.0344058,Gare Lagunaire Yopougon STL,,5.3109066
node/7044975089,0,-4.0170439,Gare Lagunaire Plateau STL,,5.3143858
node/7044975090,0,-4.0100701,Gare Lagunaire Treichville STL,,5.3135839
node/7046900012,0,-3.952125,Gare Lagunaire Koumassi STL,,5.315627
node/7046900013,0,-3.9603245,Gare Lagunaire M'pouto STL,,5.3240676
node/7046964142,0,-4.015859,Gare Lagunaire de Treichville Sotra,,5.3108107
node/7046964143,0,-4.0347196,Gare Lagunaire d’Abobo-Doumé Sotra,,5.3107009
node/7047063325,0,-4.0176728,Gare Lagunaire du Plateau Sotra,,5.3140753
node/7047101136,0,-4.0021442,Gare lagunaire de Blockauss Sotra,,5.3212342
node/7047930662,0,-4.0016118,Arrêt,,5.3562773
node/7047930663,0,-3.9856634,Arrêt,,5.4096636
node/7048020780,0,-3.9091802,Syndicat,,5.3665112
node/7048020781,0,-3.9119428,Kessé,,5.3739184
node/7048020782,0,-3.9446417,Camp Millitaire d'Akouédo,,5.3676562
node/7048020783,0,-3.9495032,Église Apostolique de Côte d'Ivoire,,5.3652501
node/7049258139,0,-4.1020069,Yopougon Gesco - Terminus du bus 34,,5.3672056
node/7049258140,0,-4.0973914,Arrêt,,5.365903
node/7049258141,0,-4.0976979,Arrêt,,5.3634963
node/7049258142,0,-4.1003995,Arrêt,,5.3608051
node/7049258143,0,-4.0998034,Arrêt,,5.3587021
node/7049258144,0,-4.0940326,Mamie Adjoua,,5.3582214
node/7049258145,0,-4.088628,Arrêt,,5.3552799
node/7049730219,0,-4.0120965,Arrêt,,5.3009034
node/7049730220,0,-3.9392397,EPP Aéroport,,5.2545644
node/7049730221,0,-3.9712512,Sept Villas,,5.2734289
node/7049730222,0,-3.9852691,Arrêt,,5.2844982
node/7051810979,0,-4.0031956,Carrefour la Vie,,5.3485715
node/7051810981,0,-4.0128221,Terminus Liberté,,5.3528057
node/7051810982,0,-3.9885668,École de Police,,5.3503194
node/7051810984,0,-3.9797437,Riviera 2,,5.3530834
node/7051811086,0,-3.9788968,Station Total Riviera 2,,5.3529853
node/7051811087,0,-3.9909077,Vallon,,5.35446
node/7051811088,0,-4.0043946,Escalier,,5.3546991
node/7051811090,0,-4.0146225,Adjamé Liberté,,5.3533605
node/7051905145,0,-4.0228106,Gare Anono,,5.3498521
node/7051905146,0,-4.0223607,Station,,5.3495777
node/7051905147,0,-4.0227932,Banfora,,5.347757
node/7051905148,0,-4.0227107,Saint Michel,,5.3464705
node/7051905149,0,-4.0226899,Eglise Saint Michel,,5.3451372
node/7051905150,0,-4.0234597,Eglise,,5.343631
node/7051905151,0,-3.9993949,SODEFOR,,5.3490415
node/7051905152,0,-3.9919236,Carrefour CHU,,5.3494341
node/7051905153,0,-3.9869374,Arrêt,,5.3505471
node/7051905154,0,-3.9724706,Terminus Anono,,5.3445751
node/7051905155,0,-3.9744008,Marché,,5.3452895
node/7051905157,0,-3.9724521,Terminus Anono,,5.34455
node/7051905159,0,-3.9769623,Arrêt,,5.3504075
node/7051905160,0,-3.9778259,Au Lavage,,5.3500924
node/7051905161,0,-3.9809205,A la Mosquée,,5.3510311
node/7051905162,0,-3.9905101,Carrefour CHU,,5.349577
node/7051905163,0,-4.0228461,Gare Anono,,5.3497766
node/7052162358,0,-3.989405,École de Police,,5.3501191
node/7052162359,0,-4.0226577,Carrefour Saint Michel,,5.3454176
node/7052162360,0,-4.0216117,A La Caisse,,5.3418391
node/7052162361,0,-3.9457347,Akouédo,,5.3673438
node/7052162362,0,-3.9324155,Playce Palmeraie,,5.3719142
node/7052162363,0,-3.9287925,Nouveau Goudron,,5.3728529
node/7052162364,0,-3.9122875,Kessé,,5.3743603
node/7052162365,0,-3.8981583,CIE,,5.3602229
node/7052162366,0,-3.8947412,Station Texaco,,5.3613609
node/7052162367,0,-3.8882764,Collège Moderne,,5.3575885
node/7052162369,0,-3.8845441,Carrefour Bangui,,5.3573081
node/7052162370,0,-3.8843443,Terminus Carrefour Bangui,,5.357718
node/7052162371,0,-3.8844985,Carrefour Bangui,,5.3571933
node/7052162372,0,-3.887693,Collège Moderne,,5.3574283
node/7052162373,0,-3.9374359,Faya,,5.3703106
node/7052162375,0,-4.0224532,Gare en haut,,5.350286
node/7052340401,0,-4.0218316,Clinique Fraternité,,5.3493033
node/7052340402,0,-4.0042631,Escalier,,5.3548993
node/7052340403,0,-3.9904813,Vallon-1er Pont,,5.3546376
node/7052340404,0,-4.0227482,Gare en haut,,5.3504162
node/7052340405,0,-3.9542839,Terminus M'Pouto,,5.3271876
node/7052340406,0,-3.9543486,Terminus M'Pouto,,5.3271989
node/7052340407,0,-3.9579682,A l'Arrêt,,5.3310206
node/7052340408,0,-3.9557567,Banny,,5.3347781
node/7052340409,0,-3.9537035,Maison Blanche,,5.337175
node/7052340410,0,-3.952691,Mel Théodore,,5.3452694
node/7052340411,0,-3.9545229,Carrefour Lycée Français,,5.3508856
node/7052340412,0,-3.9676865,Cap Nord,,5.3564619
node/7052340415,0,-4.0226343,Gare en haut,,5.3503214
node/7052366500,0,-4.0177533,Adjamé Texaco,,5.3543439
